     2.11           OBSERVATION DATA    G (GPS)             RINEX VERSION / TYPE
teqc  2019Feb25                         20221121 12:28:01UTCPGM / RUN BY / DATE
OSX ker:10.11.6|Core i5|gcc 4.3 -m64|OSX ker:10.10+|=+      COMMENT
BIT 2 OF LLI FLAGS DATA COLLECTED UNDER A/S CONDITION       COMMENT
04711300                                                    MARKER NAME
1300                                                        MARKER NUMBER
-Unknown-           -Unknown-                               OBSERVER / AGENCY
0220400471          TRIMBLE R7          2.30                REC # / TYPE / VERS
-Unknown-           TRM39105.00     NONE                    ANT # / TYPE
  1449474.6745 -1709214.4597  5952449.0514                  APPROX POSITION XYZ
        0.0000        0.0000        0.0000                  ANTENNA: DELTA H/E/N
     1     1                                                WAVELENGTH FACT L1/2
    20    L1    L2    L5    L6    L7    L8    C1    P1    C2# / TYPES OF OBSERV
          P2    C5    C6    C7    C8    S1    S2    S5    S6# / TYPES OF OBSERV
          S7    S8                                          # / TYPES OF OBSERV
    30.0000                                                 INTERVAL
    15                                                      LEAP SECONDS
Forced Modulo Decimation to 30 seconds                      COMMENT
 SNR is mapped to RINEX snr flag value [0-9]                COMMENT
  L1 & L2: min(max(int(snr_dBHz/6), 0), 9)                  COMMENT
teqc edited: Beidou # 1 - 37 excluded                       COMMENT
  2009     5    10    18    10    0.0000000     GPS         TIME OF FIRST OBS
                                                            END OF HEADER
 09  5 10 18 10  0.0000000  0  6G09G17G22G27G26G18
    -68317.61358    -36853.86757
                  20329712.1334                                   20329709.0084
                                                                        50.7504
        42.7504
   -135834.71157    -69885.59855
                  23336678.4454                                   23336674.6564
                                                                        45.5004
        31.0004
    -59548.29358    -27168.05556
                  21462240.7734                                   21462235.2384
                                                                        49.7504
        37.5004
    -49487.63757    -28872.62955
                  22523432.5004                                   22523429.2304
                                                                        47.7504
        34.7504
     28065.91857     16450.28554
                  23506362.6094                                   23506359.7464
                                                                        43.5004
        28.0004
     -5990.78957     -3914.76654
                  22909573.3914                                   22909570.0434
                                                                        44.5004
        27.0004
 09  5 10 18 10 30.0000000  0  9G09G12G14G17G22G27G26G32G18
   -119261.73048    -76550.62547
                  20320017.9144                                   20320014.0434
                                                                        52.7504
        42.7504
   -330653.58657   -222358.40655
                  22736972.6954                                   22736968.8834
                                                                        47.2504
        34.0004
   -340237.42258   -225151.48056
                  21423678.4844                                   21423674.4414
                                                                        48.7504
        36.5004
   -263102.01647   -169054.95744
                  23312460.0474                                   23312456.3754
                                                                        43.7504
        29.5004
   -109112.75848    -65789.74646
                  21452809.0314                                   21452802.9774
                                                                        51.2504
        37.0004
    -77275.79748    -50525.79745
                  22518144.3284                                   22518141.2734
                                                                        48.5004
        35.5004
     47441.63746     31548.18043
                  23510049.4144                                   23510046.9844
                                                                        40.5004
        22.0004
   -357610.66056   -209467.71953
                  25063291.5704                                   25063289.6254
                                                                        39.7504
        20.0004
     -9407.12947     -6576.84044
                  22908923.2034                                   22908919.4884
                                                                        44.2504
        24.5004
 09  5 10 18 11  0.0000000  0 10G09G11G12G14G17G22G27G26G32G18
   1406418.83248   1112291.35546
                  20610345.3984                                   20610341.7584
                                                                        53.2504
        41.7504
   1377274.95357   1111348.68453
                  23718627.2504                                   23718623.3444
                                                                        43.7504
        22.5004
   1052239.57047    855220.74645
                  23000128.2424                                   23000124.8594
                                                                        44.5004
        30.2504
   1065849.97748    870500.90246
                  21691247.9224                                   21691243.7344
                                                                        48.5004
        36.0004
   1186226.57847    960292.08645
                  23588257.3984                                   23588254.1724
                                                                        45.2504
        30.5004
   1417845.21948   1124047.61746
                  21743379.9304                                   21743373.8244
                                                                        51.5004
        38.0004
   1471233.60248   1156104.86745
                  22812815.6804                                   22812813.0474
                                                                        48.2504
        35.5004
   1642967.84847   1274815.33244
                  23813668.3594                                   23813665.4224
                                                                        43.0004
        26.5004
   1013987.68046    859310.18443
                  25324298.6334                                   25324296.1414
                                                                        41.5004
        19.7504
   1563475.95347   1219046.21944
                  23208233.6484                                   23208229.1844
                                                                        45.0004
        26.0004
 09  5 10 18 11 30.0000000  0 10G09G11G12G14G17G22G27G26G32G18
   1357999.53148   1074561.98047
                  20601131.1954                                   20601127.4844
                                                                        52.2504
        42.2504
   1280738.71147   1036125.66443
                  23700257.0164                                   23700253.3754
                                                                        43.0004
        23.0004
    860781.93847    706033.00044
                  22963694.9924                                   22963691.1524
                                                                        45.0004
        28.5004
    897623.57848    739415.16046
                  21659236.0704                                   21659231.5514
                                                                        48.7504
        36.7504
   1061423.97347    863043.32444
                  23564508.4384                                   23564504.7114
                                                                        44.7504
        29.7504
   1370601.53548   1087234.33646
                  21734389.4614                                   21734383.8054
                                                                        50.5004
        37.5004
   1445317.68048   1135910.63345
                  22807884.3674                                   22807881.1994
                                                                        49.0004
        35.5004
   1663924.65647   1291145.25044
                  23817656.5234                                   23817653.9804
                                                                        44.5004
        27.0004
    811010.85947    701146.46543
                  25285673.3054                                   25285670.6414
                                                                        42.0004
        19.7504
   1561936.40247   1217846.53944
                  23207940.9454                                   23207936.3524
                                                                        45.2504
        26.0004
 09  5 10 18 12  0.0000000  0 10G09G11G12G14G17G22G27G26G32G18
   1310946.41448   1037897.33647
                  20592177.2584                                   20592173.7894
                                                                        52.2504
        42.2504
   1185544.78147    961948.63743
                  23682141.9614                                   23682138.4184
                                                                        42.0004
        22.0004
    670448.27747    557721.07045
                  22927475.9614                                   22927472.1804
                                                                        47.7504
        35.5004
    730557.24648    609233.32846
                  21627444.3594                                   21627440.6884
                                                                        48.0004
        36.7504
    937961.60547    766838.93845
                  23541014.3984                                   23541010.8404
                                                                        45.2504
        30.5004
   1324622.16048   1051406.21946
                  21725639.8134                                   21725634.0434
                                                                        51.0004
        37.5004
   1420441.89848   1116526.89546
                  22803150.6564                                   22803147.7584
                                                                        48.5004
        36.0004
   1685775.21547   1308171.62944
                  23821814.0004                                   23821811.6954
                                                                        44.5004
        28.7504
    608933.71146    543683.82043
                  25247219.3284                                   25247216.8524
                                                                        41.5004
        20.2504
   1561437.66047   1217457.83244
                  23207845.9534                                   23207841.6334
                                                                        45.0004
        26.0004
 09  5 10 18 12 30.0000000  0 10G09G11G12G14G17G22G27G26G32G18
   1265261.41848   1002298.61347
                  20583483.7814                                   20583480.1214
                                                                        52.5004
        42.0004
   1091696.85947    888820.38344
                  23664283.7894                                   23664279.3244
                                                                        43.2504
        24.0004
    481246.21548    410290.88345
                  22891471.9774                                   22891468.0274
                                                                        48.0004
        34.7504
    564658.19148    479961.53546
                  21595874.5164                                   21595870.8524
                                                                        48.5004
        36.7504
    815845.21947    671683.30944
                  23517776.2194                                   23517772.7074
                                                                        45.0004
        29.7504
   1279910.23048   1016565.74246
                  21717131.2894                                   21717125.9264
                                                                        50.5004
        37.5004
   1396609.08248   1097955.85545
                  22798615.3444                                   22798612.5634
                                                                        48.5004
        35.0004
   1708521.75447   1325896.10944
                  23826142.8834                                   23826140.5434
                                                                        43.0004
        28.5004
    407762.99246    386927.40243
                  25208936.9224                                   25208934.8554
                                                                        41.2504
        19.0004
   1561981.87547   1217881.87144
                  23207949.6334                                   23207945.2344
                                                                        45.5004
        26.5004
 09  5 10 18 13  0.0000000  0 10G09G11G12G14G17G22G27G26G32G18
   1220918.69948    967745.80146
                  20575045.6414                                   20575042.4494
                                                                        52.0004
        41.7504
    999170.61747    816721.96543
                  23646675.9774                                   23646672.3794
                                                                        43.0004
        22.7504
    293154.05948    263725.60245
                  22855679.3444                                   22855675.2074
                                                                        48.2504
        34.7504
    399903.08248    351581.12146
                  21564522.6094                                   21564518.5274
                                                                        48.0004
        37.2504
    695051.37947    577558.18845
                  23494790.1414                                   23494786.7854
                                                                        45.7504
        30.7504
   1236439.98448    982692.78946
                  21708859.2274                                   21708853.8754
                                                                        49.7504
        37.5004
   1373793.39548   1080177.36745
                  22794274.0234                                   22794270.1724
                                                                        48.2504
        35.0004
   1732138.24247   1344298.55944
                  23830636.4614                                   23830633.8594
                                                                        43.5004
        28.0004
    207476.87946    230860.38743
                  25170824.0784                                   25170822.0234
                                                                        40.0004
        19.5004
   1563542.60547   1219097.97744
                  23208246.3594                                   23208242.0824
                                                                        44.7504
        26.5004
 09  5 10 18 13 30.0000000  0 10G09G11G12G14G17G22G27G26G32G18
   1177882.67248    934211.18847
                  20566856.4534                                   20566853.0864
                                                                        52.2504
        42.5004
    907932.57447    745627.35943
                  23629314.7664                                   23629310.5944
                                                                        43.7504
        22.7504
    106140.95748    118001.13345
                  22820091.4774                                   22820087.4024
                                                                        48.7504
        34.2504
    236259.98848    224067.21546
                  21533382.4534                                   21533377.8954
                                                                        48.0004
        37.0004
    575547.42247    484438.20744
                  23472049.3524                                   23472046.1334
                                                                        45.0004
        29.7504
   1194176.40248    949760.12146
                  21700816.6954                                   21700811.0824
                                                                        50.2504
        37.5004
   1351960.08248   1063164.36345
                  22790118.6884                                   22790115.9454
                                                                        48.0004
        34.5004
   1756588.92247   1363350.97344
                  23835289.4534                                   23835287.1454
                                                                        44.5004
        27.7504
      8043.83246     75457.98043
                  25132872.5634                                   25132870.7304
                                                                        39.2504
        18.2504
   1566083.61347   1221077.94544
                  23208729.9694                                   23208725.5474
                                                                        44.5004
        26.7504
 09  5 10 18 14  0.0000000  0 10G09G11G12G14G17G22G27G26G32G18
   1136108.53948    901659.99647
                  20558906.9694                                   20558903.5664
                                                                        53.0004
        42.2504
    817939.24247    675502.72344
                  23612189.2424                                   23612185.0554
                                                                        43.7504
        24.0004
    -79833.58248    -26914.07845
                  22784701.9224                                   22784697.7154
                                                                        49.0004
        35.0004
     73687.64848     97387.60246
                  21502445.6724                                   21502441.7704
                                                                        49.0004
        37.5004
    457291.50847    392290.67245
                  23449545.9844                                   23449542.3444
                                                                        45.2504
        30.2504
   1153074.81348    917732.87946
                  21692995.4454                                   21692989.4104
                                                                        49.5004
        36.5004
   1331064.20348   1046881.83245
                  22786142.7894                                   22786139.9414
                                                                        48.2504
        34.0004
   1781828.46547   1383018.07844
                  23840092.7584                                   23840090.2424
                                                                        44.2504
        27.5004
   -190576.80546    -79311.42643
                  25095077.1094                                   25095074.6454
                                                                        38.7504
        19.5004
   1569559.52047   1223786.37944
                  23209391.6174                                   23209387.0434
                                                                        44.5004
        26.5004
 09  5 10 18 14 30.0000000  0 10G09G11G12G14G17G22G27G26G32G18
   1095550.21148    870056.12147
                  20551188.8134                                   20551184.8874
                                                                        52.2504
        42.5004
    729146.65647    606313.64843
                  23595292.9694                                   23595288.4104
                                                                        43.5004
        23.7504
   -264810.31648   -171051.80945
                  22749502.2584                                   22749497.7624
                                                                        49.0004
        34.0004
    -87855.61348    -28490.24646
                  21471704.9774                                   21471700.6054
                                                                        48.0004
        37.5004
    340240.52347    301081.97345
                  23427271.8204                                   23427268.6994
                                                                        46.2504
        32.0004
   1113090.53948    886576.28946
                  21685386.6024                                   21685380.8244
                                                                        50.0004
        36.7504
   1311060.69548   1031294.67645
                  22782335.6644                                   22782332.9064
                                                                        48.5004
        34.5004
   1807811.32047   1403264.41844
                  23845036.9844                                   23845034.5124
                                                                        44.0004
        26.5004
   -388426.03946   -233479.61742
                  25057427.5084                                   25057425.3284
                                                                        38.0004
        17.7504
   1573924.76247   1227187.85544
                  23210222.1254                                   23210217.9574
                                                                        44.5004
        24.5004
 09  5 10 18 15  0.0000000  0 10G09G11G12G14G17G22G27G26G32G18
   1056161.98048    839363.98047
                  20543693.3914                                   20543690.2624
                                                                        52.0004
        42.0004

                  23578616.5084                                   23578612.3284
                                                                        41.5004
        21.7504
   -448830.52048   -314444.17245
                  22714484.7504                                   22714479.4614
                                                                        49.0004
        34.5004
   -248411.85248   -153599.00446
                  21441152.2424                                   21441148.4494
                                                                        48.2504
        37.2504
    224352.35547    210779.37945
                  23405219.4454                                   23405216.1174
                                                                        45.7504
        32.0004
   1074177.42648    856254.35546
                  21677981.6804                                   21677976.2774
                                                                        50.2504
        36.5004
   1291904.32448   1016367.64845
                  22778690.9614                                   22778687.8364
                                                                        48.2504
        33.5004
   1834491.75047   1424054.33644
                  23850114.5084                                   23850111.5474
                                                                        44.2504
        27.0004

                  25019916.4844                                   25019913.8094
                                                                        32.2504
        19.5004
   1579132.85947   1231246.07444
                  23211213.0944                                   23211209.0984
                                                                        44.2504
        25.5004
 09  5 10 18 15 30.0000000  0 10G09G11G12G14G17G22G27G26G32G18
   1017896.85248    809546.96547
                  20536411.7194                                   20536408.3594
                                                                        52.7504
        42.0004
    554984.27747    470601.89543
                  23562151.4454                                   23562147.6764
                                                                        43.5004
        22.5004
   -631936.40248   -457124.06645
                  22679640.2194                                   22679635.6454
                                                                        49.5004
        35.0004
   -408024.04748   -277972.16446
                  21410778.8444                                   21410774.9144
                                                                        48.0004
        37.0004
    109582.84047    121348.55545
                  23383379.3754                                   23383376.0634
                                                                        46.0004
        32.5004
   1036289.47748    826731.27046
                  21670771.9304                                   21670766.7274
                                                                        49.5004
        37.2504
   1273548.19948   1002064.16845
                  22775197.8444                                   22775194.9104
                                                                        48.2504
        34.0004
   1861822.60947   1445351.02044
                  23855315.1724                                   23855312.7074
                                                                        43.7504
        27.5004
   -781979.22746   -511492.66843
                  24982536.8594                                   24982534.7774
                                                                        38.0004
        19.0004
   1585136.40247   1235924.10944
                  23212355.4144                                   23212351.4494
                                                                        43.5004
        25.7504
 09  5 10 18 16  0.0000000  0 10G09G11G12G14G17G22G27G26G32G18
    980718.65648    780576.91046
                  20529336.8134                                   20529333.4304
                                                                        51.5004
        41.2504
    469536.10247    404018.83643
                  23545891.3754                                   23545887.1414
                                                                        44.0004
        22.7504
   -814159.68748   -599116.24245
                  22644964.3984                                   22644959.6414
                                                                        49.0004
        35.5004
   -566724.81647   -401635.08646
                  21380579.0944                                   21380574.5394
                                                                        47.0004
        37.2504
     -4101.84047     32762.99245
                  23361746.2034                                   23361743.1294
                                                                        46.5004
        32.0004
    999390.56648    797978.84846
                  21663750.1644                                   21663744.4534
                                                                        49.0004
        37.0004
   1255956.59048    988356.38345
                  22771850.3364                                   22771846.9224
                                                                        48.5004
        33.5004
   1889767.28947   1467126.01644
                  23860632.5084                                   23860630.5664
                                                                        43.7504
        25.5004
   -977756.88746   -664046.63743
                  24945281.8134                                   24945279.5274
                                                                        36.2504
        18.5004
   1591898.50447   1241193.23444
                  23213642.2194                                   23213638.5664
                                                                        43.2504
        25.5004
 09  5 10 18 16 30.0000000  0 10G09G11G12G14G17G22G27G26G32G18
    944586.66448    752422.05946
                  20522461.1954                                   20522457.7504
                                                                        51.7504
        41.5004
    385125.94147    338244.67243
                  23529828.5554                                   23529824.2464
                                                                        43.7504
        23.7504
   -995536.26648   -740448.63345
                  22610449.4384                                   22610445.1454
                                                                        48.0004
        35.5004
   -724550.82047   -524616.41846
                  21350545.5554                                   21350541.8134
                                                                        47.5004
        37.0004
   -116739.15247    -55006.32845
                  23340311.9614                                   23340308.5164
                                                                        46.2504
        31.7504
    963440.58648    769965.87546
                  21656909.3524                                   21656903.6094
                                                                        50.5004
        37.2504
   1239089.53547    975213.19545
                  22768640.1884                                   22768637.1684
                                                                        47.5004
        34.0004
   1918285.52046   1489347.99643
                  23866059.4064                                   23866057.1954
                                                                        40.7504
        22.5004
  -1172915.80146   -816118.48842
                  24908143.8914                                   24908142.1724
                                                                        38.0004
        17.7504
   1599378.05947   1247021.41044
                  23215065.6884                                   23215061.9224
                                                                        43.5004
        24.2504
 09  5 10 18 17  0.0000000  0 10G09G11G12G14G17G22G27G26G32G18
    909466.05148    725055.32446
                  20515778.1954                                   20515774.5124
                                                                        51.5004
        41.5004
    301720.79747    273253.73844
                  23513957.1724                                   23513953.2934
                                                                        44.0004
        24.5004
  -1176096.25848   -881144.71946
                  22576090.0784                                   22576086.1414
                                                                        49.2504
        36.2504
   -881532.54347   -646939.88746
                  21320673.2344                                   21320669.5274
                                                                        47.7504
        37.7504
   -228360.66447   -141984.05945
                  23319071.1564                                   23319067.8754
                                                                        45.5004
        30.5004
    928405.28548    742665.62946
                  21650242.2974                                   21650236.7734
                                                                        50.5004
        37.2504
   1222912.95347    962608.06345
                  22765561.9144                                   22765559.1414
                                                                        47.7504
        33.0004
   1947342.70347   1511989.88744
                  23871589.1564                                   23871586.7814
                                                                        42.0004
        26.5004
  -1367486.17646   -967731.78143
                  24871119.0084                                   24871116.4654
                                                                        38.5004
        18.2504
   1607540.62147   1253381.80144
                  23216618.4614                                   23216615.3834
                                                                        43.5004
        24.5004
 09  5 10 18 17 30.0000000  0 10G09G11G12G14G17G22G27G26G32G18
    875322.30148    698449.81347
                  20509281.1414                                   20509277.0634
                                                                        51.5004
        42.0004
    219287.38747    209020.07443
                  23498270.2734                                   23498266.1254
                                                                        43.5004
        22.7504
  -1355869.57848  -1021227.81246
                  22541880.5084                                   22541876.7734
                                                                        49.0004
        36.0004
  -1037701.10547   -768629.67646
                  21290955.2894                                   21290951.0784
                                                                        47.0004
        38.2504
   -338998.33647   -228195.11345
                  23298017.3914                                   23298013.4964
                                                                        46.2504
        31.5004
    894250.50048    716051.48446
                  21643742.8674                                   21643737.0744
                                                                        49.0004
        37.5004
   1207392.64847    950514.30945
                  22762608.4844                                   22762605.6484
                                                                        47.5004
        33.5004
   1976904.02047   1535024.62544
                  23877214.5314                                   23877212.1844
                                                                        42.0004
        26.0004
  -1561498.25046  -1118909.98443
                  24834198.8674                                   24834197.0554
                                                                        37.7504
        18.5004
   1616350.96147   1260246.95744
                  23218295.4454                                   23218292.1524
                                                                        43.5004
        25.7504
 09  5 10 18 18  0.0000000  0 10G09G11G12G14G17G22G27G26G32G18
    842124.57448    672581.42647
                  20502963.6484                                   20502960.1134
                                                                        51.5004
        42.0004
    137796.52047    145520.87543
                  23482762.3984                                   23482758.3324
                                                                        43.5004
        22.2504
  -1534882.25048  -1160718.16845
                  22507815.0704                                   22507811.4024
                                                                        48.0004
        35.7504
  -1193083.27748   -889706.72346
                  21261387.3204                                   21261382.9064
                                                                        48.2504
        37.2504
   -448680.25047   -313661.47345
                  23277145.7114                                   23277141.8364
                                                                        46.0004
        31.0004
    860945.89148    690099.81346
                  21637405.1414                                   21637399.7934
                                                                        49.2504
        37.7504
   1192498.36747    938908.37145
                  22759774.2504                                   22759771.2894
                                                                        47.7504
        33.0004
   2006938.67646   1558428.20344
                  23882929.9144                                   23882927.5554
                                                                        40.7504
        26.7504
  -1754978.45346  -1269673.71543
                  24797381.2344                                   24797379.1294
                                                                        38.2504
        19.7504
   1625777.89147   1267592.58644
                  23220089.2734                                   23220085.7154
                                                                        44.5004
        25.2504
 09  5 10 18 18 30.0000000  0 10G09G11G12G14G17G22G27G26G32G18
    809843.30548    647427.15646
                  20496820.9454                                   20496817.0434
                                                                        52.0004
        41.7504
     57220.28147     82734.36743
                  23467429.1954                                   23467425.5314
                                                                        43.5004
        22.5004
  -1713159.16848  -1299635.23845
                  22473890.1644                                   22473886.1484
                                                                        48.5004
        35.7504
  -1347704.86747  -1010191.12146
                  21231964.0234                                   21231959.7384
                                                                        47.7504
        38.2504
   -557433.25447   -398404.15645
                  23256450.4224                                   23256446.7074
                                                                        46.0004
        30.0004
    828462.39148    664787.96946
                  21631223.3754                                   21631218.5984
                                                                        49.0004
        37.0004
   1178200.77347    927767.35945
                  22757053.9224                                   22757050.4414
                                                                        47.7504
        33.0004
   2037417.33246   1582177.73444
                  23888729.8594                                   23888727.3364
                                                                        40.5004
        27.0004
  -1947952.00846  -1420042.69543
                  24760659.8984                                   24760657.6994
                                                                        39.0004
        20.5004
   1635791.47347   1275395.30944
                  23221994.5864                                   23221990.7974
                                                                        43.7504
        25.0004
 09  5 10 18 19  0.0000000  0 10G09G11G12G14G17G22G27G26G32G18
   2353872.94148   1850567.09446
                  20790639.5474                                   20790636.1374
                                                                        51.5004
        41.5004
   1552956.21947   1248243.02343
                  23752058.1564                                   23752054.0904
                                                                        43.5004
        23.0004
   -315296.00847   -210391.22345
                  22739894.5234                                   22739890.9264
                                                                        46.7504
        35.7504
     73836.88348     97503.75846
                  21502473.8914                                   21502470.4574
                                                                        48.0004
        37.2504
    910143.25447    745161.85545
                  23535720.5944                                   23535717.6414
                                                                        46.0004
        30.5004
   2372195.27048   1867696.68446
                  21924986.2734                                   21924981.1094
                                                                        49.5004
        37.5004
   2739894.76647   2144671.73045
                  23054233.8914                                   23054231.0864
                                                                        47.0004
        32.2504
   3643732.66846   2833851.96944
                  24194401.9304                                   24194398.7194
                                                                        40.5004
        27.2504
   -565014.55946   -342429.14143
                  25023823.3674                                   25023821.3874
                                                                        40.7504
        19.0004
   3221784.88347   2511234.27344
                  23523799.2344                                   23523795.8054
                                                                        43.7504
        25.2504
 09  5 10 18 19 30.0000000  0 10G09G11G12G14G17G22G27G26G32G18
   2323346.31348   1826780.10946
                  20784830.7664                                   20784827.0704
                                                                        51.0004
        41.2504
   1474135.68047   1186824.53143
                  23737059.3524                                   23737055.3674
                                                                        43.2504
        22.5004
   -492165.07047   -348211.27046
                  22706237.3204                                   22706233.7344
                                                                        46.2504
        36.0004
    -79329.51247    -21846.67246
                  21473327.6334                                   21473323.6054
                                                                        47.0004
        37.7504
    803179.42647    661813.30545
                  23515366.7274                                   23515363.0744
                                                                        45.5004
        30.0004
   2341277.27348   1843604.73446
                  21919102.9614                                   21919097.5944
                                                                        49.2504
        37.2504
   2726714.85547   2134401.64145
                  23051726.1174                                   23051723.5634
                                                                        47.2504
        33.5004
   3675021.61746   2858232.92644
                  24200355.9844                                   24200353.2154
                                                                        41.2504
        26.7504
   -757039.43046   -492059.00843
                  24987282.7974                                   24987281.0744
                                                                        40.5004
        19.5004
   3232893.35947   2519890.18844
                  23525913.1484                                   23525909.5124
                                                                        43.2504
        25.5004
 09  5 10 18 20  0.0000000  0 10G09G11G12G14G17G22G27G26G32G18
   2293660.94148   1803648.63346
                  20779181.9144                                   20779178.6524
                                                                        51.5004
        41.2504
   1396159.24647   1126063.68443
                  23722220.8754                                   23722217.2114
                                                                        43.5004
        22.5004
   -668359.14147   -485505.35546
                  22672708.8914                                   22672705.6254
                                                                        46.5004
        36.5004
   -231798.68047   -140653.84446
                  21444313.4384                                   21444309.5394
                                                                        47.2504
        38.0004
    697078.62547    579137.30545
                  23495176.2194                                   23495172.9104
                                                                        46.2504
        31.0004
   2311106.63348   1820095.13746
                  21913361.6644                                   21913356.4064
                                                                        50.0004
        37.0004
   2714058.57047   2124539.60245
                  23049318.0634                                   23049314.9494
                                                                        47.7504
        32.2504
   3706679.98446   2882901.73444
                  24206380.5234                                   24206377.5594
                                                                        40.5004
        25.0004
   -948619.07846   -641341.80943
                  24950826.3364                                   24950823.8714
                                                                        41.5004
        19.0004
   3244512.53947   2528944.05143
                  23528124.4534                                   23528120.7074
                                                                        44.2504
        23.2504
 09  5 10 18 20 30.0000000  0 10G09G11G12G14G17G22G27G26G32G18
   2264794.49648   1781155.28146
                  20773688.4844                                   20773685.4384
                                                                        51.7504
        41.5004
   1319006.28947   1065944.44143
                  23707538.6564                                   23707535.4654
                                                                        42.5004
        22.7504
   -843895.97747   -622287.27346
                  22639305.4304                                   22639302.1054
                                                                        47.7504
        37.2504
   -383588.95348   -258931.93446
                  21415428.7344                                   21415424.9344
                                                                        48.5004
        38.0004
    591820.94947    497118.18844
                  23475146.3364                                   23475142.6294
                                                                        44.5004
        29.2504
   2281661.20748   1797150.63346
                  21907758.5314                                   21907753.0274
                                                                        49.7504
        36.5004
   2701903.97747   2115068.47745
                  23047004.8444                                   23047001.9574
                                                                        47.2504
        32.7504
   3738685.48846   2907841.02743
                  24212470.4454                                   24212468.1024
                                                                        40.7504
        23.7504
  -1139771.63346   -790291.87543
                  24914450.5864                                   24914449.3674
                                                                        41.7504
        20.0004
   3256620.14547   2538378.46544
                  23530428.8444                                   23530425.0634
                                                                        44.5004
        27.2504
 09  5 10 18 21  0.0000000  0 10G09G11G12G14G17G22G27G26G32G18
   2236725.68448   1759283.46946
                  20768347.1484                                   20768343.6174
                                                                        51.2504
        41.5004
   1242657.03547   1006451.56343
                  23693009.7974                                   23693006.5394
                                                                        42.5004
        22.5004
  -1018792.51247   -758570.25846
                  22606023.5784                                   22606020.5784
                                                                        47.0004
        37.0004
   -534718.09047   -376694.85246
                  21386669.9384                                   21386665.7234
                                                                        47.5004
        38.0004
    487388.10547    415741.99245
                  23455273.4614                                   23455270.4534
                                                                        45.2504
        31.0004
   2252920.19948   1774755.02346
                  21902289.0164                                   21902283.7154
                                                                        49.5004
        36.7504
   2690230.43847   2105972.21145
                  23044783.2584                                   23044780.4184
                                                                        47.5004
        33.0004
   3771016.43856   2933033.91454
                  24218622.8444                                   24218620.8594
                                                                        40.5004
        25.5004
  -1330513.94146   -938922.27343
                  24878154.8984                                   24878152.3204
                                                                        41.2504
        19.0004
   3269194.24247   2548176.43843
                  23532821.3054                                   23532817.4494
                                                                        43.5004
        23.7504
 09  5 10 18 21 30.0000000  0 10G09G11G12G14G17G22G27G26G32G18
   2209436.89148   1738019.48446
                  20763154.6644                                   20763150.9064
                                                                        51.0004
        41.5004
   1167095.42247    947572.14843
                  23678630.9454                                   23678627.4694
                                                                        43.5004
        22.0004
  -1193060.89848   -894363.77046
                  22572861.8524                                   22572858.0704
                                                                        48.0004
        37.0004
   -685199.25847   -493952.89546
                  21358033.9694                                   21358030.0084
                                                                        47.0004
        37.5004
    383765.55547    334997.27745
                  23435555.2274                                   23435551.6914
                                                                        44.7504
        30.5004
   2224866.91048   1752895.30146
                  21896950.7734                                   21896945.3134
                                                                        49.7504
        37.0004
   2679021.25847   2097237.77045
                  23042650.5234                                   23042647.1764
                                                                        47.0004
        32.2504
   3803656.02346   2958467.30943
                  24224833.9614                                   24224831.7704
                                                                        40.5004
        23.0004
  -1520858.78146  -1087242.89843
                  24841932.9774                                   24841930.9064
                                                                        41.7504
        20.5004
   3282217.26647   2558324.21143
                  23535299.1804                                   23535295.6134
                                                                        43.2504
        23.0004
 09  5 10 18 22  0.0000000  0 10G09G11G12G14G17G22G27G26G32G18
   2182916.92248   1717354.48846
                  20758108.2734                                   20758104.2194
                                                                        51.7504
        41.5004
   1092312.36747    889299.47743
                  23664401.0554                                   23664396.9734
                                                                        43.0004
        22.7504
  -1366707.76647  -1029673.02346
                  22539817.4384                                   22539814.9064
                                                                        47.0004
        36.7504
   -835039.51247   -610711.58646
                  21329520.7584                                   21329516.2664
                                                                        47.2504
        37.5004
    280944.54747    254876.85945
                  23415988.9144                                   23415985.6254
                                                                        46.0004
        31.5004
   2197490.47348   1731563.00046
                  21891741.3594                                   21891735.5514
                                                                        49.5004
        36.7504
   2668266.06347   2088857.08645
                  23040603.2034                                   23040600.7274
                                                                        46.5004
        32.2504
   3836593.53146   2984132.84044
                  24231101.9064                                   24231099.9614
                                                                        40.5004
        24.0004
  -1710812.69946  -1235259.00043
                  24805785.6644                                   24805783.4414
                                                                        41.5004
        20.7504
   3295677.90647   2568812.97743
                  23537861.6644                                   23537857.5944
                                                                        43.2504
        23.5004
 09  5 10 18 22 30.0000000  0  9G09G11G12G14G17G22G27G26G18
   2157154.14148   1697279.52346
                  20753205.5084                                   20753202.0004
                                                                        52.5004
        41.2504
   1018297.44147    831625.54343
                  23650315.8674                                   23650312.8244
                                                                        42.2504
        22.7504
  -1539740.30147  -1164503.56246
                  22506890.5314                                   22506887.0394
                                                                        47.5004
        36.5004
   -984246.96547   -726977.21946
                  21301127.6334                                   21301123.7274
                                                                        47.5004
        38.0004
    178916.07847    175373.88345
                  23396573.5554                                   23396570.2814
                                                                        45.5004
        30.5004
   2170779.32448   1710749.10246
                  21886658.3914                                   21886652.6764
                                                                        49.0004
        36.2504
   2657953.65647   2080821.46545
                  23038641.1804                                   23038638.4734
                                                                        46.2504
        33.0004
   3869817.02046   3010021.20744
                  24237424.8284                                   24237422.4774
                                                                        41.5004
        25.7504
   3309563.98847   2579633.28144
                  23540503.7584                                   23540500.2194
                                                                        43.5004
        25.5004
 09  5 10 18 23  0.0000000  0  9G09G11G12G14G17G22G27G26G18
   2132129.54748   1677779.85247
                  20748443.6254                                   20748440.2344
                                                                        51.5004
        42.0004
    945033.10947    774536.38743
                  23636374.3834                                   23636371.0554
                                                                        42.0004
        22.5004
  -1712172.55147  -1298866.35946
                  22474077.7734                                   22474074.2154
                                                                        46.7504
        36.5004
  -1132836.44148   -842761.26646
                  21272851.7974                                   21272847.9144
                                                                        48.7504
        37.7504
     77663.60947     96475.33245
                  23377306.3364                                   23377302.5864
                                                                        46.0004
        31.7504
   2144714.98848   1690439.20746
                  21881698.0864                                   21881692.8834
                                                                        48.7504
        36.5004
   2648065.48447   2073116.41045
                  23036759.7424                                   23036757.5594
                                                                        47.0004
        32.5004
   3903307.80546   3036117.89144
                  24243797.2424                                   24243795.3714
                                                                        41.7504
        26.0004
   3323856.28147   2590770.07443
                  23543223.3754                                   23543219.1884
                                                                        43.7504
        22.5004
 09  5 10 18 23 30.0000000  0  9G09G11G12G14G17G22G27G26G18
   2107834.49248   1658848.68846
                  20743820.2034                                   20743816.4024
                                                                        51.5004
        41.5004
    872512.17647    718026.56644
                  23622573.7814                                   23622570.3444
                                                                        42.0004
        24.5004
  -1884008.34448  -1432764.35546
                  22441378.5164                                   22441374.8754
                                                                        48.7504
        37.0004
  -1280812.63348   -958067.34446
                  21244693.1254                                   21244688.7194
                                                                        48.0004
        37.7504
    -22817.32047     18178.35945
                  23358185.2424                                   23358182.5944
                                                                        45.2504
        31.5004
   2119289.29748   1670626.95345
                  21876860.2194                                   21876854.5474
                                                                        49.5004
        35.5004
   2638593.74647   2065735.83645
                  23034957.2504                                   23034954.4574
                                                                        46.5004
        32.0004
   3937057.60246   3062416.35544
                  24250219.9384                                   24250217.5864
                                                                        40.0004
        26.7504
   3338546.16447   2602216.69944
                  23546019.0474                                   23546014.6374
                                                                        43.7504
        24.5004
 09  5 10 18 24  0.0000000  0  9G09G11G12G14G17G22G27G26G18
   2084250.89848   1640471.89546
                  20739332.4384                                   20739329.0634
                                                                        51.2504
        41.2504
    800718.25447    662083.25044
                  23608912.1484                                   23608908.6484
                                                                        42.0004
        24.5004
  -2055260.68448  -1566207.70746
                  22408790.2814                                   22408786.4774
                                                                        48.0004
        37.5004
  -1428189.75048  -1072906.61346
                  21216647.8754                                   21216643.8094
                                                                        48.7504
        38.2504
   -122542.08647    -59528.97745
                  23339208.4144                                   23339205.1884
                                                                        46.2504
        31.5004
   2094484.79748   1651298.73046
                  21872140.1174                                   21872134.6484
                                                                        49.2504
        36.0004
   2629520.78147   2058665.99245
                  23033230.4924                                   23033227.6484
                                                                        47.7504
        33.5004
   3971048.54746   3088902.75044
                  24256688.1564                                   24256685.6564
                                                                        41.5004
        25.7504
   3353615.14147   2613958.71544
                  23548886.5704                                   23548882.4104
                                                                        44.5004
        24.5004
 09  5 10 18 24 30.0000000  0  9G09G11G12G14G17G22G27G26G18
   2061355.80948   1622631.62546
                  20734975.5084                                   20734972.4224
                                                                        50.7504
        41.2504
    729630.19947    606690.03944
                  23595384.3984                                   23595380.9104
                                                                        42.7504
        25.0004
  -2225948.52048  -1699211.17646
                  22376309.4064                                   22376305.2974
                                                                        48.0004
        36.2504
  -1574986.67648  -1187293.72746
                  21188713.0704                                   21188709.1174
                                                                        49.0004
        38.0004
   -221532.44147   -136664.51645
                  23320371.2194                                   23320368.3014
                                                                        46.2504
        31.0004
   2070278.91848   1632436.98446
                  21867533.8834                                   21867528.3244
                                                                        48.7504
        36.0004
   2620824.50847   2051889.68445
                  23031575.9144                                   23031572.8794
                                                                        47.2504
        32.7504
   4005258.20347   3115559.57044
                  24263198.7344                                   24263196.0044
                                                                        42.0004
        28.0004
   3369040.71547   2625978.60543
                  23551821.9224                                   23551817.5514
                                                                        43.5004
        22.7504
 09  5 10 18 25  0.0000000  0  9G09G11G12G14G17G22G27G26G18
   2039129.73048   1605312.60547
                  20730746.3204                                   20730742.8444
                                                                        49.2504
        42.0004
    659229.46147    551832.29343
                  23581987.5234                                   23581984.2664
                                                                        42.5004
        23.2504
  -2396086.25047  -1831786.01646
                  22343933.0784                                   22343929.2424
                                                                        47.5004
        37.0004
  -1721218.95348  -1301240.94946
                  21160885.9064                                   21160882.0514
                                                                        49.0004
        38.0004
   -319803.74247   -213239.55545
                  23301670.7894                                   23301667.7734
                                                                        47.0004
        32.2504
   2046652.78547   1614026.99246
                  21863037.7894                                   21863032.0944
                                                                        46.7504
        36.5004
   2612486.44148   2045392.48445
                  23029989.2734                                   23029986.3364
                                                                        48.5004
        32.2504
   4039667.46546   3142371.90644
                  24269746.1334                                   24269743.8874
                                                                        41.7504
        27.0004
   3384802.84047   2638260.72743
                  23554820.6644                                   23554816.9964
                                                                        43.2504
        22.5004
 09  5 10 18 25 30.0000000  0 10G30G09G11G12G14G17G22G27G26G18
   2736872.17256   2318472.52053
                  24122161.2894                                   24122158.2304
                                                                        41.7504
        22.0004
   2017553.77048   1588500.14546
                  20726640.3834                                   20726637.3874
                                                                        49.0004
        41.2504
    589499.20347    497497.04344
                  23568718.4304                                   23568714.8134
                                                                        42.2504
        24.0004
  -2565687.62548  -1963942.87146
                  22311659.1954                                   22311655.5944
                                                                        48.2504
        37.2504
  -1866901.19948  -1414759.59446
                  21133163.7974                                   21133159.9774
                                                                        48.7504
        38.5004
   -417372.26247   -289266.89845
                  23283104.4454                                   23283101.0234
                                                                        46.7504
        31.5004
   2023588.41047   1596054.73445
                  21858648.8674                                   21858643.3714
                                                                        47.0004
        35.5004
   2604488.82447   2039160.57845
                  23028467.2274                                   23028464.3754
                                                                        46.7504
        32.0004
   4074257.70746   3169325.24644
                  24276328.9774                                   24276325.9224
                                                                        41.5004
        25.7504
   3400882.69947   2650790.42243
                  23557881.1254                                   23557877.1094
                                                                        42.5004
        22.7504
 09  5 10 18 26  0.0000000  0 10G30G09G11G12G14G17G22G27G26G18
   2524843.40246   2153255.37243
                  24081813.3364                                   24081810.7034
                                                                        41.0004
        21.7504
   1996612.75448   1572182.45746
                  20722655.3204                                   20722651.9774
                                                                        51.5004
        41.0004
    520425.25847    443673.06344
                  23555574.0944                                   23555570.5394
                                                                        42.7504
        24.5004
  -2734763.10547  -2095689.94946
                  22279485.2664                                   22279481.1294
                                                                        47.7504
        36.5004
  -2012044.82448  -1527858.51246
                  21105544.0084                                   21105539.9454
                                                                        49.7504
        38.5004
   -514250.57047   -364756.43045
                  23264668.9064                                   23264665.8364
                                                                        46.0004
        32.2504
   2001070.40248   1578508.24245
                  21854363.5784                                   21854358.0744
                                                                        49.0004
        35.7504
   2596816.84447   2033182.41045
                  23027007.4064                                   23027004.4384
                                                                        47.7504
        31.7504
   4109014.09047   3196408.09044
                  24282942.7114                                   24282939.8634
                                                                        42.5004
        26.0004
   3417264.33647   2663555.30143
                  23560998.8204                                   23560994.9654
                                                                        43.5004
        22.7504
 09  5 10 18 26 30.0000000  0 10G30G09G11G12G14G17G22G27G26G18
   2313018.14146   1988196.77343
                  24041503.9384                                   24041501.8054
                                                                        41.5004
        21.5004
   1976295.02348   1556350.48446
                  20718788.8444                                   20718785.7114
                                                                        51.5004
        41.2504
    451997.78947    390352.87543
                  23542553.1644                                   23542549.6644
                                                                        43.5004
        23.5004
  -2903319.93448  -2227032.91846
                  22247409.6804                                   22247405.9924
                                                                        48.0004
        37.0004
  -2156657.49648  -1640543.71946
                  21078024.7344                                   21078021.2544
                                                                        49.5004
        39.0004
   -610447.52047   -439714.89845
                  23246363.4454                                   23246359.6644
                                                                        46.5004
        31.7504
   1979087.71548   1561378.84845
                  21850180.4844                                   21850174.6764
                                                                        48.5004
        35.5004
   2589459.35248   2027449.26645
                  23025607.6804                                   23025604.4024
                                                                        48.2504
        33.0004
   4143925.36747   3223611.64143
                  24289585.8054                                   24289583.1564
                                                                        43.0004
        22.5004
   3433936.69547   2676546.69943
                  23564171.1024                                   23564167.6054
                                                                        44.0004
        23.0004
 09  5 10 18 27  0.0000000  0 10G30G09G11G12G14G17G22G27G26G18
   2101395.21546   1823295.87143
                  24001234.0474                                   24001231.3594
                                                                        41.5004
        21.7504
   1956594.02348   1540999.09846
                  20715039.8054                                   20715036.7814
                                                                        50.0004
        40.2504
    384211.73447    337532.53143
                  23529653.9534                                   23529650.4574
                                                                        43.0004
        23.5004
  -3071359.60548  -2357972.91846
                  22215433.1724                                   22215428.9144
                                                                        48.0004
        37.2504
  -2300741.50448  -1752816.98046
                  21050606.7894                                   21050602.7504
                                                                        49.7504
        38.5004
   -705966.87147   -514145.21545
                  23228185.9694                                   23228182.3874
                                                                        45.7504
        31.7504
   1957634.18447   1544661.77745
                  21846097.9384                                   21846091.9884
                                                                        47.5004
        35.2504
   2582410.89847   2021956.93845
                  23024266.2344                                   23024262.9734
                                                                        47.2504
        32.2504
   4178985.46147   3250931.13744
                  24296257.4534                                   24296254.6334
                                                                        42.0004
        24.7504
   3450892.88347   2689759.25444
                  23567398.2894                                   23567394.1094
                                                                        44.5004
        24.0004
 09  5 10 18 27 30.0000000  0 10G30G09G11G12G14G17G22G27G26G18
   1889973.48046   1658551.73043
                  23961001.1254                                   23960999.0984
                                                                        40.7504
        22.5004
   1937503.51648   1526123.41046
                  20711406.9454                                   20711403.3444
                                                                        50.2504
        40.2504
    317062.38747    285208.37144
                  23516875.6414                                   23516872.1484
                                                                        43.5004
        24.2504
  -3238883.73048  -2488511.18046
                  22183554.3054                                   22183550.1414
                                                                        48.7504
        37.5004
  -2444299.43448  -1864680.30546
                  21023288.3204                                   21023284.6294
                                                                        48.7504
        38.0004
   -800813.73447   -588052.23045
                  23210137.2894                                   23210134.0044
                                                                        46.2504
        31.5004
   1936703.93048   1528352.49645
                  21842114.9844                                   21842109.3204
                                                                        48.5004
        35.7504
   2575665.94547   2016701.06345
                  23022982.5164                                   23022979.3054
                                                                        46.7504
        32.0004
   4214188.38746   3278361.92643
                  24302956.0004                                   24302954.0634
                                                                        41.2504
        22.5004
   3468126.64147   2703188.10543
                  23570677.3594                                   23570673.4384
                                                                        44.5004
        22.5004
 09  5 10 18 28  0.0000000  0 10G30G09G11G12G14G17G22G27G26G18
   3254180.54347   2721570.30144
                  24220601.2114                                   24220598.5204
                                                                        42.5004
        25.0004
   3494439.47348   2739320.24646
                  21007682.2584                                   21007678.4104
                                                                        48.7504
        40.0004
   1825968.65647   1460979.53144
                  23804010.6094                                   23804007.4774
                                                                        43.0004
        25.2504
  -1830466.46548  -1391043.14846
                  22451567.0234                                   22451563.1414
                                                                        48.7504
        37.5004
  -1011907.18048   -748530.53146
                  21295863.6724                                   21295859.8134
                                                                        49.0004
        39.0004
    680435.09047    566167.68045
                  23492009.3284                                   23492006.5664
                                                                        45.0004
        31.0004
   3491713.60547   2740048.34445
                  22138023.6564                                   22138018.2194
                                                                        46.2504
        35.5004
   4144640.75847   3239278.80145
                  23321548.0634                                   23321545.8874
                                                                        47.0004
        32.0004
   5824948.66046   4533499.74643
                  24609473.8674                                   24609471.6764
                                                                        40.5004
        21.5004
   5061052.67247   3944429.11744
                  23873801.3204                                   23873797.5434
                                                                        44.0004
        24.2504
 09  5 10 18 28 30.0000000  0 10G30G09G11G12G14G17G22G27G26G18
   3043158.07047   2557137.27744
                  24180445.4144                                   24180442.6724
                                                                        42.5004
        24.5004
   3476550.93448   2725381.13346
                  21004278.4384                                   21004274.8244
                                                                        50.7504
        40.2504
   1760077.60247   1409635.81644
                  23791472.5944                                   23791468.9574
                                                                        43.5004
        25.5004
  -1996963.96148  -1520781.45346
                  22419883.7814                                   22419879.5004
                                                                        48.2504
        37.7504
  -1154419.69148   -859579.25846
                  21268744.2814                                   21268740.5944
                                                                        49.5004
        38.2504
    586925.83647    493303.43445
                  23474215.8204                                   23474212.2154
                                                                        44.5004
        31.0004
   3471812.60948   2724541.06345
                  22134236.8444                                   22134230.9964
                                                                        48.7504
        35.5004
   4138486.11347   3234482.93845
                  23320377.7504                                   23320374.4264
                                                                        46.5004
        31.0004
   5860419.45346   4561139.23043
                  24616224.3984                                   24616221.5554
                                                                        40.0004
        22.0004
   5078822.04347   3958275.34043
                  23877182.9534                                   23877178.6644
                                                                        43.2504
        22.0004
 09  5 10 18 29  0.0000000  0 10G30G09G11G12G14G17G22G27G26G18
   2832331.28547   2392856.71143
                  24140326.0784                                   24140323.2584
                                                                        42.5004
        23.7504
   3459251.74648   2711901.25046
                  21000986.7194                                   21000983.1214
                                                                        50.7504
        41.0004
   1694805.77047   1358774.57044
                  23779051.8754                                   23779048.6054
                                                                        43.7504
        24.5004
  -2162952.80948  -1650123.39846
                  22388297.3054                                   22388292.9414
                                                                        48.2504
        38.0004
  -1296415.13348   -970225.09446
                  21241723.5004                                   21241719.8834
                                                                        49.5004
        38.0004
    494076.66047    420953.40245
                  23456546.6024                                   23456543.7344
                                                                        44.7504
        31.7504
   3452414.91047   2709425.94945
                  22130545.5084                                   22130539.9184
                                                                        46.7504
        35.7504
   4132616.37547   3229909.10545
                  23319260.6094                                   23319257.1254
                                                                        46.7504
        31.2504
   5896013.29346   4588874.64543
                  24622997.4534                                   24622994.8834
                                                                        40.7504
        22.7504
   5096847.39547   3972321.03543
                  23880612.8754                                   23880608.8634
                                                                        42.2504
        22.5004
 09  5 10 18 29 30.0000000  0 10G30G09G11G12G14G17G22G27G32G18
   2621697.34447   2228726.38744
                  24100244.3054                                   24100241.6134
                                                                        44.0004
        24.7504
   3442533.78948   2698874.32846
                  20997805.2344                                   20997801.4884
                                                                        49.2504
        41.0004
   1630146.57047   1308390.65644
                  23766747.7034                                   23766744.4024
                                                                        44.0004
        26.5004
  -2328436.51248  -1779071.71546
                  22356806.2974                                   22356802.1214
                                                                        49.0004
        37.5004
  -1437897.84048  -1080471.33646
                  21214800.4144                                   21214796.4344
                                                                        49.0004
        38.2504
    401882.72747    349114.08645
                  23439002.6644                                   23438999.6374
                                                                        45.0004
        30.7504
   3433513.19947   2694697.31645
                  22126948.8204                                   22126943.0634
                                                                        46.0004
        35.0004
   4127024.16047   3225551.52345
                  23318196.5634                                   23318193.2624
                                                                        46.7504
        31.7504
   4553252.59856   3584842.98453
                  24570940.6334                                   24570939.0314
                                                                        40.5004
        22.0004
   5115120.57446   3986559.82043
                  23884090.4694                                   23884086.4534
                                                                        41.7504
        22.7504
 09  5 10 18 30  0.0000000  0 10G30G09G11G12G14G17G22G27G32G18
   2411257.57847   2064747.38344
                  24060198.2664                                   24060196.0514
                                                                        44.5004
        24.0004
   3426392.80948   2686296.97746
                  20994733.4924                                   20994729.6954
                                                                        51.5004
        40.2504
   1566098.10247   1258482.64144
                  23754560.0944                                   23754556.2034
                                                                        44.0004
        26.0004
  -2493413.86348  -1907625.47746
                  22325412.2344                                   22325408.2504
                                                                        48.5004
        36.7504
  -1578867.38748  -1190317.72746
                  21187974.4924                                   21187971.0044
                                                                        48.7504
        38.5004
    310342.38347    277784.01245
                  23421583.1254                                   23421579.8834
                                                                        45.7504
        30.7504
   3415103.87147   2680352.37545
                  22123445.3054                                   22123439.9184
                                                                        47.5004
        34.7504
   4121706.02747   3221407.36345
                  23317184.3594                                   23317181.3914
                                                                        45.7504
        31.7504
   4368259.75046   3440692.77743
                  24535738.0394                                   24535735.7894
                                                                        40.7504
        20.7504
   5133637.55146   4000988.56643
                  23887613.4304                                   23887610.5944
                                                                        41.0004
        22.5004
 09  5 10 18 30 30.0000000  0 10G30G09G11G12G14G17G22G27G32G18
   2201009.43847   1900917.66844
                  24020189.2734                                   24020186.8834
                                                                        44.5004
        24.7504
   3410821.13748   2674163.23846
                  20991770.3204                                   20991766.7774
                                                                        51.7504
        41.0004
   1502653.57047   1209045.25844
                  23742486.7344                                   23742483.4104
                                                                        43.5004
        25.7504
  -2657887.86348  -2035787.01646
                  22294113.8204                                   22294109.6994
                                                                        48.7504
        37.2504
  -1719327.43748  -1299767.12146
                  21161246.0164                                   21161242.4224
                                                                        49.2504
        38.7504
    219451.11747    206959.79745
                  23404287.0234                                   23404283.6134
                                                                        46.0004
        31.5004
   3397179.56648   2666385.37145
                  22120034.5944                                   22120029.2464
                                                                        48.5004
        34.5004
   4116655.61347   3217471.94945
                  23316223.4924                                   23316220.5864
                                                                        46.0004
        31.0004
   4183537.83647   3296753.62143
                  24500586.6644                                   24500584.6604
                                                                        42.0004
        22.7504
   5152390.64846   4015601.28943
                  23891182.6254                                   23891179.2114
                                                                        41.5004
        22.5004
 09  5 10 18 31  0.0000000  0 10G30G09G11G12G14G17G22G27G32G18
   1990953.56347   1737237.81344
                  23980217.3364                                   23980214.9694
                                                                        44.7504
        25.2504
   3395813.84848   2662469.23846
                  20988914.3754                                   20988910.8834
                                                                        51.5004
        40.0004
   1439809.73047   1160075.92244
                  23730528.3754                                   23730524.5164
                                                                        43.2504
        27.7504
  -2821858.79748  -2163556.53546
                  22262911.2424                                   22262907.3834
                                                                        49.0004
        37.5004
  -1859279.19148  -1408820.43046
                  21134614.2584                                   21134610.2704
                                                                        49.5004
        38.7504
    129205.45747    136638.32845
                  23387113.9454                                   23387111.0234
                                                                        45.0004
        31.0004
   3379735.88348   2652792.87145
                  22116715.2584                                   22116709.5084
                                                                        48.7504
        35.5004
   4111868.27047   3213741.34445
                  23315312.9924                                   23315310.1484
                                                                        45.7504
        31.2504
   3999086.85246   3153025.60544
                  24465487.1804                                   24465485.0514
                                                                        41.7504
        25.0004
   5171374.77046   4030394.04343
                  23894794.5234                                   23894791.3634
                                                                        41.7504
        23.7504
 09  5 10 18 31 30.0000000  0 10G30G09G11G12G14G17G22G27G32G18
   1781092.07847   1573709.40643
                  23940281.9694                                   23940278.9574
                                                                        44.0004
        22.7504
   3381367.67648   2651212.44146
                  20986165.2114                                   20986161.9144
                                                                        48.5004
        39.7504
   1377564.12547   1111572.77044
                  23718683.2504                                   23718679.6254
                                                                        44.5004
        26.2504
  -2985325.32448  -2290933.02346
                  22231804.2894                                   22231800.6334
                                                                        48.7504
        37.0004
  -1998721.86348  -1517477.08246
                  21108079.1564                                   21108075.1054
                                                                        49.2504
        38.7504
     39605.68847     66820.39845
                  23370063.8754                                   23370060.7704
                                                                        46.7504
        31.5004
   3362769.73447   2639572.46545
                  22113486.6884                                   22113481.0354
                                                                        46.0004
        34.7504
   4107342.34847   3210214.70745
                  23314451.3674                                   23314448.0434
                                                                        45.7504
        30.5004
   3814908.27346   3009509.92243
                  24430438.1024                                   24430436.3554
                                                                        40.5004
        21.2504
   5190586.65646   4045364.28943
                  23898450.6174                                   23898447.1604
                                                                        41.2504
        22.2504
 09  5 10 18 32  0.0000000  0 10G30G09G11G12G14G17G22G27G32G18
   1571421.88747   1410330.08244
                  23900383.3754                                   23900380.9224
                                                                        44.2504
        25.5004
   3367474.19148   2640386.29346
                  20983521.7194                                   20983517.5204
                                                                        51.5004
        40.0004
   1315910.02047   1063530.59844
                  23706950.9224                                   23706947.4064
                                                                        43.5004
        27.0004
  -3148290.86348  -2417919.14846
                  22200792.8914                                   22200789.5004
                                                                        48.7504
        37.2504
  -2137659.67648  -1625740.30946
                  21081640.0314                                   21081636.2734
                                                                        50.0004
        38.2504
    -49354.27747     -2499.00445
                  23353135.0164                                   23353132.2664
                                                                        46.5004
        31.5004
   3346273.32048   2626718.08645
                  22110347.6254                                   22110342.1214
                                                                        48.2504
        34.5004
   4103069.91047   3206885.53145
                  23313638.0634                                   23313635.0044
                                                                        45.5004
        31.0004
   3630998.47746   2866203.64543
                  24395441.2814                                   24395439.9574
                                                                        40.2504
        22.5004
   5210017.98446   4060505.54343
                  23902149.4534                                   23902145.1094
                                                                        41.2504
        22.7504
 09  5 10 18 32 30.0000000  0 10G30G09G11G12G14G17G22G27G32G18
   1361945.34047   1247101.62944
                  23860520.6334                                   23860518.6454
                                                                        44.0004
        26.2504
   3354130.54748   2629988.61346
                  20980982.4534                                   20980978.6134
                                                                        48.5004
        39.7504
   1254845.93047   1015948.14544
                  23695330.8444                                   23695327.2424
                                                                        44.7504
        26.5004
  -3310753.80948  -2544513.62946
                  22169877.6254                                   22169873.7114
                                                                        49.2504
        37.5004
  -2276091.77048  -1733609.46546
                  21055297.2894                                   21055293.6254
                                                                        50.0004
        39.0004
   -137675.09447    -71320.34445
                  23336328.0784                                   23336324.8794
                                                                        46.0004
        31.5004
   3330244.42247   2614228.01645
                  22107297.5314                                   22107291.9534
                                                                        45.5004
        34.0004
   4099048.87147   3203752.23045
                  23312873.2584                                   23312870.0124
                                                                        46.0004
        30.2504
   3447359.17646   2723108.09843
                  24360495.9774                                   24360494.5204
                                                                        41.2504
        22.5004
   5229665.90646   4075815.55543
                  23905887.8364                                   23905884.1524
                                                                        39.0004
        21.5004
 09  5 10 18 33  0.0000000  0 10G30G09G11G12G14G17G22G27G32G18
   1152659.73847   1084021.98844
                  23820694.8754                                   23820692.9104
                                                                        42.0004
        25.0004
   3341329.03148   2620013.39146
                  20978546.3984                                   20978542.9414
                                                                        51.5004
        40.0004
   1194365.48847    968820.57844
                  23683821.5704                                   23683818.2504
                                                                        44.7504
        26.7504
  -3472717.12548  -2670718.77746
                  22139056.9454                                   22139053.2074
                                                                        49.7504
        37.5004
  -2414022.02048  -1841087.56246
                  21029050.1484                                   21029046.1804
                                                                        50.0004
        39.0004
   -225361.87547   -139647.69945
                  23319641.9694                                   23319638.6054
                                                                        45.7504
        31.5004
   3314675.59447   2602096.44145
                  22104334.7894                                   22104329.2504
                                                                        47.7504
        34.0004
   4095272.27347   3200809.37145
                  23312154.5864                                   23312151.8324
                                                                        45.0004
        30.0004
   3263987.55946   2580221.18443
                  24325601.3674                                   24325599.3674
                                                                        41.5004
        22.2504
   5249522.20746   4091287.94943
                  23909666.8834                                   23909662.5664
                                                                        39.7504
        20.7504
 09  5 10 18 33 30.0000000  0 10G30G09G11G12G14G17G22G27G32G18
    943568.24647    921093.59844
                  23780905.7894                                   23780903.6174
                                                                        42.0004
        24.0004
   3329067.25848   2610458.73846
                  20976213.1334                                   20976209.5944
                                                                        49.0004
        39.7504
   1134467.30147    922146.69944
                  23672423.6254                                   23672420.2704
                                                                        44.2504
        26.0004
  -3634178.43448  -2796532.73446
                  22108331.7504                                   22108328.1374
                                                                        49.5004
        37.2504
  -2551448.72748  -1948173.28146
                  21002898.7734                                   21002894.5784
                                                                        50.5004
        38.5004
   -312414.69547   -207481.10245
                  23303076.3524                                   23303072.8094
                                                                        44.5004
        32.7504
   3299564.50047   2590321.55545
                  22101459.0634                                   22101453.5944
                                                                        45.7504
        34.2504
   4091738.89147   3198056.10245
                  23311482.1094                                   23311479.1254
                                                                        45.5004
        30.0004
   3080886.02047   2437544.69943
                  24290758.3834                                   24290756.5984
                                                                        42.0004
        22.0004
   5269584.52346   4106920.90643
                  23913484.2664                                   23913479.9654
                                                                        40.2504
        20.0004
 09  5 10 18 34  0.0000000  0 10G30G09G11G12G14G17G22G27G32G18
    734670.84047    758316.47744
                  23741153.8754                                   23741152.3484
                                                                        42.2504
        24.7504
   3317339.40648   2601320.04346
                  20973981.4694                                   20973978.1334
                                                                        51.2504
        40.2504
   1075147.49647    875923.55544
                  23661135.0634                                   23661131.7234
                                                                        45.5004
        26.0004
  -3795138.39548  -2921956.07046
                  22077702.2974                                   22077698.2894
                                                                        49.5004
        37.5004
  -2688372.91448  -2054867.42246
                  20976842.8984                                   20976838.8364
                                                                        50.0004
        39.0004
   -398835.86747   -274822.27745
                  23286630.8674                                   23286627.9264
                                                                        45.7504
        31.5004
   3284906.11748   2578899.41845
                  22098669.7894                                   22098664.1054
                                                                        48.5004
        34.7504
   4088444.03947   3195488.66045
                  23310854.9454                                   23310852.2304
                                                                        46.5004
        31.2504
   2898054.12547   2295078.36343
                  24255966.5864                                   24255964.3364
                                                                        42.0004
        22.5004
   5289847.55146   4122710.22743
                  23917339.9774                                   23917335.9884
                                                                        40.5004
        20.0004
 09  5 10 18 34 30.0000000  0 10G30G09G11G12G14G17G22G27G32G18
    525963.03147    595687.09043
                  23701437.8364                                   23701436.7584
                                                                        42.5004
        22.7504
   3306135.57448   2592589.61746
                  20971849.6724                                   20971846.2274
                                                                        48.5004
        40.0004
   1016396.93847    830143.82444
                  23649955.3674                                   23649952.3954
                                                                        44.5004
        26.5004
  -3955602.18748  -3046992.78546
                  22047167.2814                                   22047162.6604
                                                                        50.0004
        37.5004
  -2824800.97748  -2161174.98446
                  20950881.6334                                   20950877.7504
                                                                        50.0004
        38.7504
   -484633.32447   -341677.45745
                  23270304.3284                                   23270301.1334
                                                                        45.0004
        31.0004
   3270691.07447   2567822.71945
                  22095965.0234                                   22095959.0354
                                                                        46.2504
        35.5004
   4085378.36347   3193099.60945
                  23310272.2584                                   23310268.9774
                                                                        46.0004
        30.5004
   2715486.66847   2152817.99643
                  24221225.3984                                   24221222.8404
                                                                        42.2504
        22.5004
   5310301.51646   4138648.35943
                  23921231.9304                                   23921228.1954
                                                                        37.7504
        20.7504
 09  5 10 18 35  0.0000000  0 10G30G09G11G12G14G17G22G27G32G18
    317450.25446    433209.64844
                  23661759.2814                                   23661757.3714
                                                                        41.5004
        24.5004
   3295457.11748   2584268.99646
                  20969817.7194                                   20969813.9804
                                                                        51.0004
        40.0004
    958217.48447    784809.13344
                  23638884.1954                                   23638880.6644
                                                                        44.7504
        26.2504
  -4115565.20748  -3171639.33646
                  22016727.1254                                   22016722.6254
                                                                        50.0004
        38.0004
  -2960728.55948  -2267092.56646
                  20925015.2894                                   20925011.1094
                                                                        50.0004
        39.0004
   -569804.02047   -408044.22745
                  23254096.8054                                   23254093.6174
                                                                        45.5004
        32.2504
   3256920.19948   2557092.15245
                  22093344.5864                                   22093338.9774
                                                                        48.2504
        35.0004
   4082543.66047   3190890.64545
                  23309732.7734                                   23309729.6024
                                                                        46.0004
        30.7504
   2533188.54347   2010767.50843
                  24186534.9384                                   24186532.7974
                                                                        42.7504
        23.0004
   5330946.44146   4154735.23843
                  23925160.8594                                   23925157.2774
                                                                        40.7504
        20.0004
 09  5 10 18 35 30.0000000  0 10G30G09G11G12G14G17G22G27G32G18
    109130.95347    270882.96544
                  23622117.8594                                   23622115.5784
                                                                        43.5004
        25.0004
   3285295.73848   2576351.09846
                  20967883.6724                                   20967879.9344
                                                                        52.2504
        39.2504
    900603.48847    739915.17644
                  23627920.1414                                   23627917.0784
                                                                        44.5004
        26.2504
  -4275029.27748  -3295897.05146
                  21986382.0474                                   21986377.7344
                                                                        50.2504
        37.5004
  -3096158.57848  -2372622.44546
                  20899244.2194                                   20899239.6684
                                                                        50.5004
        39.0004
   -654352.78547   -473926.39845
                  23238007.3834                                   23238004.6214
                                                                        45.2504
        31.2504
   3243586.75848   2546702.42245
                  22090807.0784                                   22090801.4774
                                                                        49.0004
        34.7504
   4079934.09847   3188857.32045
                  23309235.8594                                   23309233.2034
                                                                        46.0004
        31.0004
   2351157.92247   1868925.53943
                  24151895.7274                                   24151893.2584
                                                                        43.0004
        22.0004
   5351775.40646   4170965.54343
                  23929124.1334                                   23929120.8674
                                                                        41.0004
        19.7504
 09  5 10 18 36  0.0000000  0 10G30G09G11G12G14G17G22G27G32G18
    -98993.72747    108707.95343
                  23582512.7034                                   23582509.8714
                                                                        43.5004
        22.7504
   3275647.05548   2568832.57046
                  20966047.5864                                   20966043.9384
                                                                        51.7504
        39.5004
    843551.62547    695459.19144
                  23617064.0474                                   23617060.7384
                                                                        44.5004
        25.5004
  -4433994.05948  -3419765.68746
                  21956131.7584                                   21956127.4774
                                                                        49.7504
        37.5004
  -3231091.18448  -2477764.72746
                  20873567.1334                                   20873563.1334
                                                                        50.5004
        38.5004
   -738281.57047   -539325.46945
                  23222036.7974                                   23222033.1214
                                                                        45.0004
        31.0004
   3230686.85948   2536650.51645
                  22088352.3284                                   22088347.0314
                                                                        49.0004
        35.0004
   4077545.73447   3186996.28945
                  23308781.2734                                   23308778.5664
                                                                        46.0004
        30.2504
   2169395.34447   1727292.39543
                  24117307.6564                                   24117305.4734
                                                                        42.2504
        22.2504
   5372784.62546   4187336.30143
                  23933122.3594                                   23933118.8594
                                                                        40.5004
        20.2504
 09  5 10 18 36 30.0000000  0 10G30G09G11G12G14G17G22G27G32G18
   1268503.16447   1174289.96544
                  23842738.5234                                   23842736.5514
                                                                        44.2504
        25.5004
   4841926.67248   3789310.18446
                  21264101.0314                                   21264097.0164
                                                                        51.2504
        39.0004
   2362479.54747   1879039.32444
                  23906105.9384                                   23906102.7734
                                                                        44.2504
        25.5004
  -3017035.21948  -2315641.88746
                  22225770.3754                                   22225765.6764
                                                                        51.0004
        38.0004
  -1790103.35948  -1354917.00846
                  21147778.1484                                   21147773.6174
                                                                        50.7504
        38.5004
    753829.36347    623358.38345
                  23505975.9224                                   23505972.6684
                                                                        45.0004
        31.2504
   4793635.75447   3754532.73445
                  22385771.7424                                   22385766.1374
                                                                        46.7504
        34.0004
   5650794.48047   4412904.50044
                  23608160.3204                                   23608158.0044
                                                                        45.5004
        29.0004
   3563326.00047   2813472.15643
                  24382563.8674                                   24382561.3984
                                                                        42.0004
        22.2504
   6969387.25447   5431442.18843
                  24236946.9454                                   24236942.2734
                                                                        42.0004
        20.0004
 09  5 10 18 37  0.0000000  0 10G30G09G11G12G14G17G22G27G32G18
   1060770.62947   1012420.50044
                  23803209.0634                                   23803205.8794
                                                                        44.0004
        26.0004
   4833290.12548   3782580.05546
                  21262457.6954                                   21262454.2234
                                                                        52.2504
        39.7504
   2306542.16047   1835451.68044
                  23895461.8524                                   23895458.5044
                                                                        44.5004
        27.0004
  -3175001.31248  -2438732.35246
                  22195710.3674                                   22195705.9224
                                                                        50.5004
        37.7504
  -1924043.18448  -1459285.64146
                  21122290.0554                                   21122285.8324
                                                                        51.0004
        38.7504
    671134.18447    558920.56345
                  23490239.4064                                   23490236.0594
                                                                        43.5004
        30.5004
   4781589.96148   3745146.35245
                  22383479.2894                                   22383474.1484
                                                                        48.2504
        33.5004
   5648836.87947   4411378.67244
                  23607787.9064                                   23607785.4734
                                                                        45.5004
        29.7504
   3382099.97746   2672257.06343
                  24348077.4924                                   24348075.3914
                                                                        41.7504
        22.0004
   6990742.19547   5448082.33643
                  24241010.3204                                   24241006.5904
                                                                        42.0004
        22.0004
 09  5 10 18 37 30.0000000  0 10G30G09G11G12G14G17G22G27G32G18
    853238.27747    850707.02344
                  23763716.4064                                   23763713.8404
                                                                        43.0004
        26.2504
   4825156.03948   3776241.60546
                  21260909.7424                                   21260906.4494
                                                                        51.0004
        39.0004
   2251159.84447   1792296.62144
                  23884923.1724                                   23884919.4774
                                                                        44.2504
        26.0004
  -3332465.03948  -2561431.31646
                  22165746.1024                                   22165741.7114
                                                                        50.7504
        37.5004
  -2057485.16848  -1563266.50446
                  21096896.7504                                   21096892.6294
                                                                        50.5004
        39.5004
    589055.44547    494963.05545
                  23474620.4144                                   23474617.3014
                                                                        45.5004
        31.0004
   4769968.41447   3736090.57045
                  22381267.9694                                   22381262.7504
                                                                        47.7504
        34.5004
   5647093.06347   4410019.56345
                  23607456.7194                                   23607453.7274
                                                                        45.5004
        30.0004
   3201145.57046   2531253.57043
                  24313643.1804                                   24313640.7074
                                                                        41.0004
        21.2504
   7012266.57046   5464854.54343
                  24245105.5084                                   24245102.6804
                                                                        40.5004
        20.7504
 09  5 10 18 38  0.0000000  0 10G30G09G11G12G14G17G22G27G32G18
    645906.29747    689149.68844
                  23724262.1804                                   23724260.0234
                                                                        44.0004
        26.5004
   4817520.04748   3770291.83646
                  21259456.4694                                   21259453.1484
                                                                        50.7504
        39.0004
   2196328.51247   1749570.85244
                  23874488.9844                                   23874485.8054
                                                                        44.5004
        27.0004
  -3489426.71148  -2683739.06646
                  22135877.1024                                   22135872.7664
                                                                        49.7504
        37.7504
  -2190429.73048  -1666859.73446
                  21071598.3524                                   21071594.1454
                                                                        49.7504
        38.7504
    507590.43447    431483.83245
                  23459118.3674                                   23459114.9104
                                                                        45.0004
        31.5004
   4758766.06348   3727361.44945
                  22379136.1334                                   22379130.9774
                                                                        48.0004
        34.5004
   5645558.98847   4408824.19544
                  23607164.6954                                   23607162.3244
                                                                        45.7504
        29.0004
   3020462.81646   2390461.84843
                  24279259.9454                                   24279257.7934
                                                                        41.5004
        21.5004
   7033954.55146   5481754.22743
                  24249233.1724                                   24249229.0354
                                                                        39.7504
        22.0004
 09  5 10 18 38 30.0000000  0 10G30G09G11G12G14G17G22G27G32G18
    438777.64547    527750.77744
                  23684847.3834                                   23684844.8324
                                                                        44.7504
        26.0004
   4810377.62148   3764726.23046
                  21258097.0864                                   21258093.9844
                                                                        50.7504
        39.2504
   2142046.46547   1707272.93444
                  23864159.9384                                   23864156.1374
                                                                        43.5004
        25.5004
  -3645884.50048  -2805654.20746
                  22106103.9774                                   22106099.6524
                                                                        49.7504
        37.7504
  -2322875.64848  -1770064.39846
                  21046394.9924                                   21046390.2344
                                                                        50.0004
        39.0004
    426738.40647    368482.29345
                  23443732.4304                                   23443729.1564
                                                                        45.2504
        30.7504
   4747980.50847   3718957.10545
                  22377083.9384                                   22377078.5164
                                                                        47.2504
        34.5004
   5644233.24647   4407791.57444
                  23606912.3674                                   23606909.4964
                                                                        46.2504
        29.7504
   2840053.68446   2249883.30543
                  24244929.4534                                   24244927.1884
                                                                        41.5004
        21.5004
   7055803.95746   5498779.62143
                  24253390.6644                                   24253387.1214
                                                                        39.5004
        20.2504
 09  5 10 18 39  0.0000000  0 10G30G09G11G12G14G17G22G27G32G18
    231852.93847    366510.76644
                  23645470.9304                                   23645468.3874
                                                                        44.7504
        25.7504
   4803724.27048   3759541.43046
                  21256831.7424                                   21256828.4184
                                                                        51.2504
        40.0004
   2088310.93847   1665401.08644
                  23853934.4454                                   23853930.8634
                                                                        43.7504
        25.5004
  -3801838.49248  -2927176.80546
                  22076427.0704                                   22076422.9384
                                                                        49.2504
        37.7504
  -2454823.92248  -1872881.34446
                  21021285.9534                                   21021281.8554
                                                                        50.2504
        38.5004
    346497.33647    305956.79344
                  23428463.3754                                   23428459.7544
                                                                        44.5004
        29.5004
   4737607.50048   3710874.21945
                  22375109.6884                                   22375104.8714
                                                                        48.5004
        34.2504
   5643111.10247   4406917.35544
                  23606698.7344                                   23606695.3164
                                                                        46.2504
        29.7504
   2659918.28547   2109518.02343
                  24210651.2664                                   24210648.3914
                                                                        42.0004
        22.0004
   7077810.30946   5515927.39843
                  24257578.4064                                   24257575.2814
                                                                        39.2504
        20.2504
 09  5 10 18 39 30.0000000  0 10G30G09G11G12G14G17G22G27G32G18
     25134.69947    205431.66444
                  23606133.8754                                   23606131.3164
                                                                        44.7504
        26.2504
   4797558.69548   3754737.29346
                  21255657.9844                                   21255655.0554
                                                                        52.0004
        39.5004
   2035119.89547   1623953.59444
                  23843812.2344                                   23843808.8284
                                                                        44.0004
        24.2504
  -3957286.56648  -3048305.12946
                  22046846.2814                                   22046842.3134
                                                                        50.2504
        38.7504
  -2586272.88348  -1975309.02746
                  20996272.1564                                   20996267.6334
                                                                        50.7504
        38.7504
    266866.82047    243907.02045
                  23413309.6884                                   23413306.4064
                                                                        44.5004
        30.5004
   4727644.83648   3703111.07045
                  22373214.1724                                   22373208.6884
                                                                        48.5004
        34.7504
   5642190.79747   4406200.23044
                  23606523.7664                                   23606520.9614
                                                                        44.5004
        29.5004
   2480058.99646   1969367.93443
                  24176424.8524                                   24176422.5634
                                                                        41.0004
        21.5004
   7099970.82446   5533195.27743
                  24261796.0554                                   24261791.4454
                                                                        38.5004
        19.0004
 09  5 10 18 40  0.0000000  0  9G30G09G11G12G14G17G22G27G32
   -181375.09447     44514.95744
                  23566836.1414                                   23566833.7384
                                                                        45.0004
        28.2504
   4791876.03948   3750309.42646
                  21254576.8134                                   21254573.2074
                                                                        50.5004
        39.0004
   1982470.27747   1582927.78944
                  23833793.4064                                   23833790.2584
                                                                        43.5004
        25.5004
  -4112228.09848  -3169038.75846
                  22017361.9924                                   22017357.6094
                                                                        51.0004
        39.0004
  -2717222.61348  -2077347.71546
                  20971353.2344                                   20971348.8094
                                                                        50.2504
        39.0004
    187845.33247    182331.82445
                  23398272.5474                                   23398269.2544
                                                                        44.5004
        30.5004
   4718088.63747   3695664.64845
                  22371395.7344                                   22371390.6054
                                                                        47.0004
        34.5004
   5641469.75847   4405638.34844
                  23606386.3754                                   23606383.1844
                                                                        45.5004
        29.2504
   2300476.60247   1829433.46943
                  24142251.1174                                   24142249.3244
                                                                        42.0004
        22.7504
 09  5 10 18 40 30.0000000  0  9G30G09G11G12G14G17G22G27G32
   -387674.43047   -116237.75444
                  23527578.5634                                   23527576.4574
                                                                        44.5004
        26.5004
   4786672.65648   3746254.85546
                  21253586.7974                                   21253582.9964
                                                                        51.2504
        39.2504
   1930361.12947   1542323.66444
                  23823877.0554                                   23823873.1684
                                                                        43.2504
        25.5004
  -4266661.72748  -3289376.62146
                  21987973.9924                                   21987970.1334
                                                                        51.0004
        39.2504
  -2847673.33648  -2178997.80946
                  20946529.3984                                   20946525.0744
                                                                        50.2504
        39.0004
    109431.34047    121229.98845
                  23383351.0704                                   23383348.1024
                                                                        45.2504
        30.7504
   4708935.91847   3688532.63745
                  22369653.8054                                   22369649.0204
                                                                        47.2504
        34.0004
   5640945.48047   4405229.76245
                  23606286.4614                                   23606284.0594
                                                                        45.7504
        30.0004
   2121173.68846   1689717.21143
                  24108130.7504                                   24108128.8484
                                                                        41.0004
        22.7504
 09  5 10 18 41  0.0000000  0  9G30G09G11G12G14G17G22G27G32
   -593757.08247   -276821.61344
                  23488362.6484                                   23488360.0514
                                                                        45.0004
        26.0004
   4781949.27748   3742574.17646
                  21252687.6884                                   21252684.3794
                                                                        51.5004
        39.0004
   1878792.74647   1502140.60244
                  23814063.7734                                   23814060.0084
                                                                        43.7504
        25.7504
  -4420582.10948  -3409314.57446
                  21958683.9614                                   21958680.0044
                                                                        50.7504
        39.2504
  -2977619.66448  -2280254.91846
                  20921801.3204                                   20921797.4414
                                                                        50.2504
        39.0004
     31628.23447     60604.22745
                  23368545.1414                                   23368542.2504
                                                                        44.5004
        30.7504
   4700187.91048   3681715.97745
                  22367989.2734                                   22367984.3754
                                                                        48.0004
        33.5004
   5640619.61747   4404975.76644
                  23606225.0474                                   23606222.0944
                                                                        45.0004
        28.7504
   1942154.68846   1550222.00044
                  24074064.5474                                   24074062.8914
                                                                        41.5004
        24.5004
 09  5 10 18 41 30.0000000  0  9G30G09G11G12G14G17G22G27G32
   -799622.58647   -437236.26644
                  23449187.4304                                   23449184.9614
                                                                        44.0004
        26.2504
   4777701.09848   3739263.76646
                  21251879.6094                                   21251875.7584
                                                                        51.5004
        38.7504
   1827761.65247   1462376.13744
                  23804353.4614                                   23804349.0474
                                                                        43.7504
        24.5004
  -4573989.50048  -3528852.76646
                  21929491.9384                                   21929487.8364
                                                                        50.5004
        39.2504
  -3107062.75048  -2381119.80146
                  20897169.3984                                   20897165.6374
                                                                        49.5004
        38.7504
    -45566.74247       452.36745
                  23353855.7424                                   23353852.5004
                                                                        44.5004
        31.5004
   4691840.28147   3675211.29345
                  22366400.9614                                   22366395.4964
                                                                        47.5004
        33.5004
   5640488.74247   4404873.72344
                  23606200.2584                                   23606197.3594
                                                                        43.0004
        27.7504
   1763419.93847   1410948.27044
                  24040052.6644                                   24040049.9844
                                                                        42.2504
        25.0004
 09  5 10 18 42  0.0000000  0  9G30G09G11G12G14G17G22G27G32
  -1005266.84447   -597478.52744
                  23410054.3754                                   23410052.5044
                                                                        44.0004
        27.7504
   4773926.80548   3736322.69946
                  21251161.0084                                   21251157.7504
                                                                        51.0004
        39.5004
   1777267.63347   1423030.12943
                  23794744.7114                                   23794740.4924
                                                                        44.2504
        22.5004
  -4726880.90648  -3647988.91446
                  21900397.3134                                   21900393.7274
                                                                        50.0004
        39.0004
  -3235999.59048  -2481590.20346
                  20872633.7344                                   20872629.6294
                                                                        49.7504
        39.0004
   -122152.90247    -59225.10545
                  23339281.9144                                   23339278.3984
                                                                        44.5004
        30.5004
   4683891.49248   3669017.36745
                  22364888.3364                                   22364883.0234
                                                                        48.2504
        34.2504
   5640552.29747   4404923.19144
                  23606211.6954                                   23606209.2344
                                                                        43.0004
        28.5004
   1584972.95747   1271898.81644
                  24006094.4924                                   24006092.8324
                                                                        43.0004
        24.5004
 09  5 10 18 42 30.0000000  0  9G30G09G11G12G14G17G22G27G32
  -1210697.65647   -757554.44544
                  23370962.0944                                   23370960.4964
                                                                        43.2504
        26.5004
   4770613.64148   3733741.22346
                  21250530.5394                                   21250527.1414
                                                                        50.5004
        39.2504
   1727298.37147   1384093.03544
                  23785235.3834                                   23785231.5394
                                                                        44.2504
        24.0004
  -4879265.01248  -3766729.75846
                  21871399.6724                                   21871395.6954
                                                                        50.0004
        39.0004
  -3364439.50448  -2581673.12946
                  20848192.2344                                   20848188.5664
                                                                        50.0004
        39.0004
   -198141.59447   -118437.05144
                  23324821.4694                                   23324818.0044
                                                                        45.0004
        29.7504
   4676329.09848   3663124.57045
                  22363449.4534                                   22363443.8484
                                                                        49.0004
        34.0004
   5640797.74247   4405114.37544
                  23606258.2584                                   23606256.0664
                                                                        42.5004
        28.0004
   1406805.16447   1133066.84044
                  23972191.0314                                   23972188.3754
                                                                        42.5004
        25.0004
 09  5 10 18 43  0.0000000  0  9G30G09G11G12G14G17G22G27G32
  -1415911.37947   -917461.20344
                  23331911.1254                                   23331909.0664
                                                                        44.2504
        26.5004
   4767758.87548   3731516.88346
                  21249987.3204                                   21249983.5354
                                                                        49.2504
        39.0004
   1677853.12147   1345564.22744
                  23775826.1414                                   23775822.6134
                                                                        44.2504
        24.5004
  -5031139.16848  -3885073.25846
                  21842498.7114                                   21842494.9884
                                                                        50.5004
        38.2504
  -3492380.94948  -2681367.65646
                  20823845.4924                                   20823841.8634
                                                                        50.5004
        39.5004
   -273532.55947   -177183.23845
                  23310475.1564                                   23310472.2074
                                                                        45.5004
        31.0004
   4669150.82848   3657531.08645
                  22362083.6174                                   22362078.1334
                                                                        48.5004
        34.0004
   5641224.35946   4405446.81344
                  23606339.8834                                   23606337.1094
                                                                        41.2504
        29.2504
   1228919.69547    994454.82044
                  23938340.6174                                   23938338.1604
                                                                        42.5004
        25.7504
 09  5 10 18 43 30.0000000  0  9G30G09G11G12G14G17G22G27G32
  -1620907.81247  -1077198.64844
                  23292901.5554                                   23292899.8874
                                                                        43.5004
        24.7504
   4765357.10248   3729645.46146
                  21249529.9774                                   21249526.5394
                                                                        50.0004
        39.0004
   1628927.05947   1307439.87544
                  23766515.7894                                   23766511.8984
                                                                        44.5004
        24.5004
  -5182504.34448  -4003020.12946
                  21813694.8594                                   21813690.8594
                                                                        49.5004
        39.2504
  -3619825.56248  -2780674.93746
                  20799593.4144                                   20799589.7234
                                                                        50.5004
        40.0004
   -348328.83247   -235465.96145
                  23296242.1724                                   23296239.0634
                                                                        45.2504
        30.7504
   4662352.14547   3652233.39845
                  22360789.4454                                   22360784.4774
                                                                        47.7504
        33.2504
   5641827.71947   4405916.94544
                  23606454.7734                                   23606452.1844
                                                                        43.5004
        28.2504
   1051315.98046    856062.30544
                  23904543.8134                                   23904541.2584
                                                                        41.5004
        25.7504
 09  5 10 18 44  0.0000000  0  9G30G09G11G12G14G17G22G27G32
  -1825687.54347  -1236767.23044
                  23253933.0704                                   23253931.2734
                                                                        45.0004
        27.0004
   4763401.77748   3728121.81646
                  21249158.0164                                   21249154.8364
                                                                        50.5004
        38.7504
   1580515.60947   1269716.58244
                  23757304.0394                                   23757300.5744
                                                                        44.5004
        24.5004
  -5333361.89148  -4120571.43746
                  21784987.8524                                   21784983.6294
                                                                        50.0004
        39.0004
  -3746775.61748  -2879597.09846
                  20775435.7814                                   20775431.3524
                                                                        50.7504
        39.0004
   -422534.61747   -293288.63345
                  23282120.8444                                   23282117.9694
                                                                        44.7504
        30.7504
   4655927.18848   3647226.91845
                  22359566.9224                                   22359561.8914
                                                                        49.0004
        33.5004
   5642602.76247   4406520.83644
                  23606602.0474                                   23606599.5314
                                                                        43.7504
        29.2504
    873993.09446    717888.68444
                  23870799.3284                                   23870797.9344
                                                                        41.5004
        24.7504
 09  5 10 18 44 30.0000000  0  9G30G09G11G12G14G17G22G27G32
  -2030243.32847  -1396161.31644
                  23215007.0634                                   23215005.6334
                                                                        44.5004
        26.7504
   4761894.70348   3726947.39846
                  21248871.4614                                   21248868.1604
                                                                        48.5004
        39.0004
   1532620.92647   1232396.02044
                  23748189.6174                                   23748186.5864
                                                                        43.7504
        25.2504
  -5483705.79348  -4237722.50846
                  21756378.0004                                   21756373.9884
                                                                        49.5004
        38.5004
  -3873225.39548  -2978129.36346
                  20751373.1564                                   20751369.1214
                                                                        50.2504
        39.0004
   -496146.23047   -350648.37945
                  23268113.6094                                   23268110.0824
                                                                        45.7504
        30.7504
   4649877.55948   3642512.89545
                  22358415.9064                                   22358410.4184
                                                                        48.0004
        33.0004
   5643552.06646   4407260.53944
                  23606782.8674                                   23606780.0434
                                                                        41.5004
        29.2504
    696957.18046    579938.63743
                  23837111.0554                                   23837109.0984
                                                                        41.0004
        23.2504
 09  5 10 18 45  0.0000000  0  9G30G09G11G12G14G17G22G27G32
  -2234569.79347  -1555376.70344
                  23176125.1254                                   23176123.2504
                                                                        44.0004
        26.5004
   4760836.23048   3726122.61746
                  21248669.7584                                   21248666.9654
                                                                        50.5004
        38.2504
   1485244.83647   1195479.57444
                  23739174.0314                                   23739170.8244
                                                                        44.2504
        24.2504
  -5633531.35948  -4354469.68746
                  21727867.6804                                   21727863.1254
                                                                        50.5004
        38.7504
  -3999170.78148  -3076268.49246
                  20727406.4304                                   20727402.5744
                                                                        51.0004
        39.5004
   -569161.61347   -407543.57045
                  23254219.3284                                   23254215.9964
                                                                        45.5004
        31.2504
   4644204.03148   3638091.95745
                  22357336.6174                                   22357330.5744
                                                                        49.0004
        32.7504
   5644677.11347   4408137.20744
                  23606996.7034                                   23606994.7584
                                                                        44.0004
        28.5004
    520213.43846    442216.19944
                  23803478.7664                                   23803475.5044
                                                                        41.2504
        24.0004
 09  5 10 18 45 30.0000000  0  9G30G09G11G12G14G17G22G27G32
   -863244.91847   -486811.82844
                  23437079.5704                                   23437077.4694
                                                                        44.5004
        26.5004
   6335635.75848   4953239.12546
                  21548344.0634                                   21548340.7624
                                                                        49.2504
        38.0004
   3013798.83647   2386560.59843
                  24030048.4064                                   24030045.1994
                                                                        44.5004
        23.7504
  -4207419.39548  -3243213.57846
                  21999247.1884                                   21999243.3524
                                                                        49.5004
        39.0004
  -2549194.14548  -1946416.46546
                  21003327.6024                                   21003323.7424
                                                                        50.2504
        38.7504
    933833.77347    763621.64545
                  23540229.5164                                   23540225.7854
                                                                        45.0004
        30.0004
   6214316.72748   4861556.35545
                  22656118.6564                                   22656112.9414
                                                                        48.5004
        32.2504
   7221388.31647   5636743.33244
                  23907034.8134                                   23907032.3834
                                                                        42.0004
        28.2504
   1919182.38346   1532321.83643
                  24069693.4384                                   24069690.5164
                                                                        40.5004
        23.5004
 09  5 10 18 46  0.0000000  0  9G30G09G11G12G14G17G22G27G32
  -1067119.13747   -645674.81644
                  23398284.5634                                   23398281.8134
                                                                        44.5004
        27.7504
   6335451.21948   4953095.30946
                  21548308.7114                                   21548305.3874
                                                                        48.5004
        38.2504
   2967438.75447   2350435.82043
                  24021226.2274                                   24021223.0594
                                                                        44.5004
        22.7504
  -4356217.60548  -3359160.19146
                  21970931.5784                                   21970928.2704
                                                                        49.5004
        39.2504
  -2674142.66448  -2043779.03546
                  20979550.4534                                   20979546.7384
                                                                        49.7504
        39.5004
    861994.89847    707643.33245
                  23526558.7274                                   23526555.8674
                                                                        45.0004
        30.7504
   6209373.46947   4857704.45745
                  22655177.7814                                   22655172.8554
                                                                        47.5004
        31.0004
   7222844.89847   5637878.28144
                  23907311.9924                                   23907309.3244
                                                                        43.5004
        29.0004
   1743015.31346   1395048.87544
                  24036169.4534                                   24036167.7704
                                                                        40.0004
        25.2504
 09  5 10 18 46 30.0000000  0  9G30G09G11G12G14G17G22G27G32
  -1270761.35547   -804357.03144
                  23359532.2034                                   23359529.8134
                                                                        45.5004
        27.5004
   6335700.98448   4953289.87146
                  21548356.8834                                   21548353.0984
                                                                        49.2504
        38.7504
   2921585.68847   2314706.14144
                  24012500.7974                                   24012497.0124
                                                                        44.0004
        24.7504
  -4504497.96148  -3474703.29346
                  21942715.2274                                   21942711.4774
                                                                        50.5004
        39.5004
  -2798589.61748  -2140750.91046
                  20955869.3524                                   20955865.7304
                                                                        49.7504
        39.0004
    790744.34447    652123.37945
                  23513000.7274                                   23512997.3484
                                                                        45.0004
        31.0004
   6204792.72348   4854135.00845
                  22654305.7894                                   22654301.3954
                                                                        48.0004
        31.5004
   7224466.19947   5639141.53544
                  23907620.7344                                   23907618.0944
                                                                        43.5004
        28.7504
   1567140.91446   1258003.81643
                  24002702.2504                                   24002699.7154
                                                                        41.2504
        22.7504
 09  5 10 18 47  0.0000000  0  9G30G09G11G12G14G17G22G27G32
  -1474169.70747   -962857.02044
                  23320824.9454                                   23320822.0274
                                                                        45.5004
        28.0004
   6336381.40648   4953820.03946
                  21548486.3594                                   21548483.0594
                                                                        50.2504
        38.2504
   2876236.75847   2279369.23443
                  24003870.9454                                   24003868.0234
                                                                        44.5004
        23.0004
  -4652259.94548  -3589842.47746
                  21914596.8754                                   21914592.8914
                                                                        50.0004
        39.0004
  -2922534.30148  -2237331.27046
                  20932284.0004                                   20932279.7664
                                                                        50.0004
        39.5004
    720080.54347    597060.57845
                  23499553.7814                                   23499550.7114
                                                                        45.0004
        31.0004
   6200571.69547   4850845.82845
                  22653502.7584                                   22653497.6804
                                                                        47.7504
        33.0004
   7226249.77347   5640531.29344
                  23907960.2034                                   23907957.4534
                                                                        43.0004
        28.7504
   1391560.93846   1121188.28143
                  23969290.1254                                   23969287.9734
                                                                        41.2504
        22.7504
 09  5 10 18 47 30.0000000  0  9G30G09G11G12G14G17G22G27G32
  -1677340.42647  -1121171.82044
                  23282162.8594                                   23282160.0314
                                                                        45.2504
        28.5004
   6337490.68848   4954684.45346
                  21548697.3054                                   21548693.6524
                                                                        49.0004
        38.7504
   2831391.15647   2244424.62943
                  23995337.3754                                   23995334.1454
                                                                        43.7504
        22.5004
  -4799500.74648  -3704575.55146
                  21886577.8984                                   21886573.7854
                                                                        49.7504
        38.5004
  -3045974.59048  -2333518.29746
                  20908793.7424                                   20908789.7934
                                                                        49.0004
        39.5004
    650003.78947    542455.25045
                  23486218.5944                                   23486215.3014
                                                                        44.2504
        30.0004
   6196708.81348   4847835.75445
                  22652767.8594                                   22652762.6604
                                                                        48.0004
        32.2504
   7228194.68447   5642046.75044
                  23908329.8914                                   23908327.6254
                                                                        42.2504
        27.5004
   1216278.32446    984604.42643
                  23935934.4534                                   23935932.8324
                                                                        40.7504
        23.0004
 09  5 10 18 48  0.0000000  0  9G30G09G11G12G14G17G22G27G32
  -1880272.77347  -1279300.88744
                  23243546.3754                                   23243543.0864
                                                                        45.5004
        28.7504
   6339023.90648   4955879.22746
                  21548988.9454                                   21548985.2774
                                                                        49.5004
        38.0004
   2787045.26647   2209869.54743
                  23986898.8594                                   23986895.3954
                                                                        44.5004
        23.2504
  -4946220.54748  -3818902.63746
                  21858658.0164                                   21858654.2034
                                                                        49.2504
        38.7504
  -3168912.22348  -2429313.97746
                  20885399.6954                                   20885396.0204
                                                                        50.0004
        39.7504
    580511.12547    488304.98445
                  23472994.5554                                   23472991.5314
                                                                        45.0004
        30.0004
   6193199.53948   4845101.23445
                  22652100.1484                                   22652095.1134
                                                                        48.5004
        33.0004
   7230297.38747   5643685.18044
                  23908730.9224                                   23908728.2114
                                                                        43.2504
        28.0004
   1041293.22346    848252.39844
                  23902636.3834                                   23902634.3284
                                                                        41.2504
        24.5004
 09  5 10 18 48 30.0000000  0  9G30G09G11G12G14G17G22G27G32
  -2082964.31247  -1437242.30544
                  23204975.3134                                   23204972.8164
                                                                        46.0004
        29.5004
   6340977.67648   4957401.67646
                  21549360.8204                                   21549357.0274
                                                                        49.2504
        37.5004
   2743196.50847   2175701.80543
                  23978554.9454                                   23978550.8324
                                                                        44.0004
        22.7504
  -5092418.19948  -3932822.85546
                  21830837.3754                                   21830833.4344
                                                                        49.2504
        39.0004
  -3291345.43048  -2524716.16446
                  20862101.2974                                   20862096.8794
                                                                        49.0004
        40.0004
    511601.55947    434609.11345
                  23459881.8364                                   23459878.3054
                                                                        45.2504
        31.0004
   6190041.16047   4842640.15645
                  22651499.4304                                   22651494.2774
                                                                        47.7504
        32.2504
   7232555.78947   5645444.89544
                  23909160.7584                                   23909157.9144
                                                                        43.7504
        27.5004
    866607.40246    712133.57843
                  23869395.0164                                   23869392.5164
                                                                        40.7504
        22.5004
 09  5 10 18 49  0.0000000  0  9G30G09G11G12G14G17G22G27G32
  -2285412.13747  -1594993.80944
                  23166450.9144                                   23166448.3204
                                                                        46.5004
        29.5004
   6343349.44548   4959249.77046
                  21549812.1334                                   21549808.6764
                                                                        49.0004
        37.7504
   2699842.87547   2141919.80144
                  23970304.6334                                   23970301.0394
                                                                        43.5004
        24.5004
  -5238091.95348  -4046334.87146
                  21803116.8674                                   21803112.8404
                                                                        49.5004
        39.2504
  -3413274.13748  -2619725.44546
                  20838898.9224                                   20838895.0164
                                                                        49.5004
        39.5004
    443274.25047    381367.00445
                  23446879.5164                                   23446876.2344
                                                                        45.0004
        31.0004
   6187231.08247   4840450.42645
                  22650964.4694                                   22650959.7704
                                                                        47.0004
        32.5004
   7234968.06647   5647324.37144
                  23909619.5234                                   23909616.4884
                                                                        43.0004
        27.0004
    692223.55946    576250.16044
                  23836210.7504                                   23836208.1524
                                                                        41.0004
        25.2504
 09  5 10 18 49 30.0000000  0  9G30G09G11G12G14G17G22G27G32
  -2487614.10247  -1752553.75444
                  23127972.9224                                   23127970.0824
                                                                        45.5004
        29.5004
   6346135.77048   4961420.90646
                  21550342.4694                                   21550339.0234
                                                                        48.7504
        37.5004
   2656982.18847   2108521.91843
                  23962148.2894                                   23962144.7074
                                                                        43.7504
        22.7504
  -5383240.66448  -4159437.76246
                  21775495.4384                                   21775491.5314
                                                                        49.5004
        39.7504
  -3534697.60948  -2714341.07446
                  20815792.5394                                   20815788.5824
                                                                        50.0004
        39.5004
    375527.75847    328577.54745
                  23433987.8914                                   23433985.0784
                                                                        45.2504
        30.0004
   6184766.28547   4838529.75045
                  22650495.5864                                   22650490.4614
                                                                        46.5004
        32.0004
   7237532.12547   5649322.13744
                  23910107.7974                                   23910105.0234
                                                                        42.0004
        26.7504
    518142.52047    440602.52343
                  23803084.3054                                   23803081.8484
                                                                        42.0004
        22.7504
 09  5 10 18 50  0.0000000  0  9G30G09G11G12G14G17G22G27G32
  -2689570.79747  -1909922.57444
                  23089541.9144                                   23089539.0904
                                                                        45.5004
        29.7504
   6349330.46548   4963910.24646
                  21550950.0164                                   21550946.6804
                                                                        48.0004
        37.5004
   2614608.94147   2075503.91044
                  23954084.8444                                   23954081.4804
                                                                        43.7504
        24.2504
  -5527866.10948  -4272132.89546
                  21747974.6414                                   21747970.8134
                                                                        50.2504
        39.5004
  -3655617.97748  -2808564.67246
                  20792782.3754                                   20792777.8164
                                                                        49.2504
        39.5004
    308357.77747    276237.34045
                  23421205.9144                                   23421202.7504
                                                                        44.7504
        31.0004
   6182640.91047   4836873.57845
                  22650091.2274                                   22650085.7624
                                                                        47.0004
        32.0004
   7240243.28946   5651434.64544
                  23910623.8364                                   23910620.8324
                                                                        41.5004
        25.2504
    344363.80147    305190.59044
                  23770015.1644                                   23770012.8914
                                                                        42.2504
        25.0004
 09  5 10 18 50 30.0000000  0  9G30G09G11G12G14G17G22G27G32
  -2891279.27747  -2067097.97344
                  23051158.1484                                   23051155.5274
                                                                        45.0004
        29.2504
   6352930.94547   4966715.75446
                  21551635.4064                                   21551632.3634
                                                                        47.7504
        37.2504
   2572721.15647   2042864.02043
                  23946114.0554                                   23946110.4264
                                                                        44.0004
        23.0004
  -5671966.68748  -4384419.07846
                  21720553.0164                                   21720548.8874
                                                                        49.2504
        39.5004
  -3776034.14848  -2902395.36346
                  20769867.5164                                   20769863.3874
                                                                        50.0004
        39.7504
    241763.38747    224345.59445
                  23408533.0554                                   23408530.2154
                                                                        45.5004
        30.5004
   6180852.37547   4835479.89545
                  22649750.7814                                   22649745.9104
                                                                        47.0004
        32.5004
   7243100.13346   5653660.86744
                  23911167.3204                                   23911164.5664
                                                                        41.7504
        24.7504
    170889.89847    170016.49244
                  23737003.6804                                   23737001.1484
                                                                        42.0004
        25.0004
 09  5 10 18 51  0.0000000  0  9G30G09G11G12G14G17G22G27G32
  -3092733.94547  -2224075.61744
                  23012822.3444                                   23012819.4144
                                                                        45.2504
        29.7504
   6356937.32448   4969837.54746
                  21552397.8204                                   21552394.2424
                                                                        48.5004
        36.7504
   2531320.13347   2010603.48843
                  23938235.8914                                   23938232.5514
                                                                        43.5004
        22.7504
  -5815537.64548  -4496292.54346
                  21693232.6024                                   21693228.6644
                                                                        49.5004
        39.2504
  -3895942.26248  -2995830.19946
                  20747049.7974                                   20747045.8834
                                                                        49.2504
        40.0004
    175746.52047    172903.75045
                  23395970.5554                                   23395967.5904
                                                                        45.2504
        30.0004
   6179401.44147   4834349.26245
                  22649475.0164                                   22649469.7154
                                                                        46.2504
        31.5004
   7246103.28147   5656000.92644
                  23911738.9304                                   23911736.1374
                                                                        42.5004
        25.0004
     -2275.09047     35082.83644
                  23704051.0084                                   23704048.8404
                                                                        42.7504
        25.5004
 09  5 10 18 51 30.0000000  0  9G30G09G11G12G14G17G22G27G32
  -3293934.93747  -2380855.59844
                  22974534.7894                                   22974532.2734
                                                                        45.5004
        28.7504
   6361343.91447   4973271.23846
                  21553236.5784                                   21553232.9614
                                                                        47.2504
        37.5004
   2490400.94147   1978718.35543
                  23930448.9384                                   23930445.5824
                                                                        43.2504
        22.0004
  -5958580.60948  -4607754.58646
                  21666012.2734                                   21666008.3714
                                                                        49.5004
        39.5004
  -4015344.15248  -3088870.58646
                  20724328.5084                                   20724324.6214
                                                                        49.2504
        40.2504
    110303.60547    121909.23045
                  23383517.5784                                   23383514.1374
                                                                        45.5004
        31.0004
   6178282.52047   4833477.33245
                  22649262.1954                                   22649256.7114
                                                                        46.0004
        31.7504
   7249248.59846   5658451.85244
                  23912337.5554                                   23912334.2774
                                                                        40.2504
        24.0004
   -175131.46147    -99610.35544
                  23671158.1884                                   23671155.3554
                                                                        42.0004
        24.5004
 09  5 10 18 52  0.0000000  0  9G30G09G11G12G14G17G22G27G32
  -3494877.50847  -2537434.19544
                  22936296.6644                                   22936293.9534
                                                                        43.2504
        28.5004
   6366149.41847   4977015.76646
                  21554151.0164                                   21554148.3834
                                                                        47.7504
        36.5004
   2449963.34047   1947208.53143
                  23922754.0084                                   23922750.5354
                                                                        42.7504
        22.5004
  -6101091.96148  -4718802.36746
                  21638893.3594                                   21638889.6214
                                                                        50.2504
        39.5004
  -4134237.11748  -3181514.39846
                  20701704.1334                                   20701699.7234
                                                                        49.2504
        40.0004
     45435.28147     71362.51645
                  23371172.8914                                   23371170.3324
                                                                        45.2504
        30.2504
   6177494.91047   4832863.56345
                  22649111.9144                                   22649106.7304
                                                                        46.5004
        31.7504
   7252536.21546   5661013.68044
                  23912962.9304                                   23912960.4414
                                                                        40.5004
        25.7504
   -347675.33647   -234060.09044
                  23638323.9534                                   23638321.2464
                                                                        42.5004
        26.0004
 09  5 10 18 52 30.0000000  0  9G30G09G11G12G14G17G22G27G32
  -3695557.62947  -2693808.27044
                  22898109.0004                                   22898106.2464
                                                                        43.5004
        28.7504
   6371351.89547   4981069.60246
                  21555140.9844                                   21555137.8524
                                                                        47.5004
        37.0004
   2410006.05547   1916072.96143
                  23915150.1804                                   23915146.4574
                                                                        42.5004
        21.5004
  -6243069.37548  -4829434.10546
                  21611875.7194                                   21611872.0164
                                                                        50.0004
        39.5004
  -4252619.41848  -3273760.30946
                  20679176.3524                                   20679172.4804
                                                                        49.5004
        39.5004
    -18858.16447     21263.78944
                  23358938.7424                                   23358935.8594
                                                                        44.5004
        29.7504
   6177036.99647   4832506.71545
                  22649024.9384                                   22649019.7384
                                                                        46.2504
        31.5004
   7255964.77747   5663685.12544
                  23913615.3914                                   23913612.8444
                                                                        42.5004
        25.2504
   -519903.51247   -368263.84044
                  23605550.1024                                   23605547.7154
                                                                        43.0004
        26.5004
 09  5 10 18 53  0.0000000  0  9G30G09G11G12G14G17G22G27G32
  -3895976.85547  -2849979.08244
                  22859970.0704                                   22859967.6254
                                                                        44.5004
        28.0004
   6376944.42247   4985427.28546
                  21556205.3984                                   21556202.4144
                                                                        47.5004
        36.7504
   2370522.89847   1885306.75843
                  23907636.9694                                   23907633.4304
                                                                        43.0004
        22.0004
  -6384515.59848  -4939651.92246
                  21584959.6954                                   21584955.7584
                                                                        50.2504
        39.7504
  -4370494.24248  -3365610.78946
                  20656745.3364                                   20656741.1054
                                                                        49.0004
        40.0004
    -82582.30147    -28391.33244
                  23346812.4064                                   23346809.6764
                                                                        45.5004
        29.5004
   6176902.24647   4832401.68845
                  22648999.2344                                   22648994.3444
                                                                        45.7504
        32.0004
   7259528.66046   5666461.80544
                  23914294.1334                                   23914291.2934
                                                                        41.7504
        25.7504
   -691818.16847   -502223.26644
                  23572835.8444                                   23572832.4804
                                                                        43.0004
        25.5004
 09  5 10 18 53 30.0000000  0  9G30G09G11G12G14G17G22G27G32
  -4096132.92647  -3005944.79744
                  22821881.6024                                   22821878.9694
                                                                        45.0004
        27.2504
   6382924.07047   4990086.66846
                  21557343.3674                                   21557340.3874
                                                                        47.5004
        36.5004
   2331511.70347   1854908.42243
                  23900213.4144                                   23900209.8364
                                                                        43.2504
        21.5004
  -6525429.48448  -5049454.91446
                  21558144.7584                                   21558140.5004
                                                                        50.5004
        39.7504
  -4487860.96548  -3457065.32846
                  20634411.3524                                   20634407.0594
                                                                        49.0004
        39.7504
   -145738.45347    -77603.78945
                  23334794.2034                                   23334790.9064
                                                                        44.7504
        30.5004
   6177087.49647   4832546.02345
                  22649034.4224                                   22649029.4804
                                                                        45.2504
        31.7504
   7263226.94547   5669343.69144
                  23914997.2734                                   23914994.9414
                                                                        42.0004
        26.5004
   -863417.22347   -635936.73044
                  23540181.5164                                   23540179.0234
                                                                        42.5004
        26.0004
 09  5 10 18 54  0.0000000  0  9G30G09G11G12G14G17G22G27G32
  -2720594.12147  -1934096.35244
                  23083637.9144                                   23083635.3524
                                                                        45.7504
        29.7504
   7964710.06647   6222647.10546
                  21858347.2114                                   21858344.0044
                                                                        47.7504
        36.5004
   3868393.79747   3052478.78143
                  24192672.8754                                   24192668.9844
                                                                        42.7504
        22.2504
  -5090382.36748  -3931236.34446
                  21831225.2114                                   21831220.9614
                                                                        51.2504
        40.0004
  -3029292.32448  -2320518.31646
                  20911967.6334                                   20911963.3914
                                                                        49.7504
        39.5004
   1367096.44947   1101228.66045
                  23622676.4064                                   23622673.9144
                                                                        45.0004
        30.2504
   7753013.23447   6060540.06345
                  22948923.0554                                   22948918.0784
                                                                        44.5004
        30.5004
   8842480.48847   6899931.35944
                  24215518.7114                                   24215516.8634
                                                                        43.2504
        26.0004
    540729.22747    458203.34044
                  23807381.4924                                   23807378.9734
                                                                        43.0004
        26.2504
 09  5 10 18 54 30.0000000  0  9G30G09G11G12G14G17G22G27G32
  -2920212.27047  -2089642.93444
                  23045651.8594                                   23045649.6484
                                                                        44.5004
        29.2504
   7971458.45347   6227905.45346
                  21859631.4614                                   21859628.5124
                                                                        47.5004
        36.2504
   3830323.64547   3022813.64543
                  24185428.2114                                   24185424.3014
                                                                        43.0004
        21.5004
  -5230223.72748  -4040203.62146
                  21804613.8754                                   21804609.6294
                                                                        50.7504
        40.2504
  -3145636.43748  -2411176.03946
                  20889827.9304                                   20889823.8914
                                                                        49.7504
        40.0004
   1305076.18847   1052901.32045
                  23610874.8284                                   23610871.6644
                                                                        45.5004
        31.0004
   7753835.03547   6061180.37945
                  22949079.4844                                   22949074.7774
                                                                        45.2504
        30.7504
   8846444.56347   6903020.20744
                  24216273.3914                                   24216271.0664
                                                                        43.5004
        24.7504
    369770.68047    324988.90644
                  23774849.3524                                   23774846.3284
                                                                        42.7504
        27.2504
 09  5 10 18 55  0.0000000  0  9G30G09G11G12G14G17G22G27G32
  -3119563.90647  -2244981.84044
                  23007716.3754                                   23007713.7854
                                                                        44.5004
        29.2504
   7978580.20747   6233454.65246
                  21860986.8674                                   21860983.6564
                                                                        46.5004
        36.0004
   3792714.12147   2993507.43443
                  24178271.6334                                   24178267.7814
                                                                        42.5004
        22.5004
  -5369533.02048  -4148756.30546
                  21778104.1564                                   21778099.9804
                                                                        51.0004
        40.0004
  -3261474.80148  -2501439.66846
                  20867784.8134                                   20867781.1334
                                                                        49.5004
        39.7504
   1243615.48847   1005009.93845
                  23599179.2734                                   23599175.6994
                                                                        45.2504
        31.0004
   7754964.06647   6062060.09045
                  22949294.4534                                   22949289.2504
                                                                        44.5004
        30.7504
   8850532.20346   6906205.35244
                  24217051.6024                                   24217048.8444
                                                                        40.5004
        26.0004
    199129.16047    192021.55944
                  23742377.1484                                   23742374.4614
                                                                        42.5004
        26.5004
 09  5 10 18 55 30.0000000  0  9G30G09G11G12G14G17G22G27G32
  -3318644.93447  -2400109.87544
                  22969832.7194                                   22969829.9694
                                                                        46.0004
        29.5004
   7986074.03148   6239293.87946
                  21862412.9844                                   21862410.3324
                                                                        48.0004
        36.5004
   3755564.36347   2964559.53943
                  24171202.3754                                   24171198.5904
                                                                        43.2504
        21.7504
  -5508307.81648  -4256892.44946
                  21751696.3754                                   21751692.3484
                                                                        50.2504
        39.7504
  -3376805.21148  -2591307.52046
                  20845837.9924                                   20845833.6414
                                                                        49.0004
        39.0004
   1182714.30947    957554.49645
                  23587589.9304                                   23587586.6414
                                                                        44.7504
        31.5004
   7756399.38747   6063178.48444
                  22949568.0164                                   22949562.4344
                                                                        45.0004
        29.5004
   8854743.22347   6909486.61744
                  24217852.9774                                   24217849.9804
                                                                        43.2504
        27.0004
     28807.73846     59303.57844
                  23709966.1954                                   23709963.8554
                                                                        41.0004
        25.7504
 09  5 10 18 56  0.0000000  0  9G30G09G11G12G14G17G22G27G32
  -3517448.03147  -2555021.34845
                  22932002.1174                                   22931999.3014
                                                                        46.2504
        30.0004
   7993941.43048   6245424.36746
                  21863909.8284                                   21863906.7704
                                                                        48.0004
        36.5004
   3718876.77047   2935971.85943
                  24164220.2194                                   24164217.1804
                                                                        43.0004
        20.7504
  -5646542.47348  -4364607.71946
                  21725391.1724                                   21725386.5704
                                                                        51.0004
        39.5004
  -3491622.37148  -2680775.43746
                  20823989.2194                                   20823984.6374
                                                                        49.2504
        39.5004
   1122375.83647    910537.52045
                  23576108.3204                                   23576104.4144
                                                                        45.5004
        31.5004
   7758142.66447   6064536.85245
                  22949899.3834                                   22949894.3524
                                                                        45.2504
        31.2504
   8859079.60947   6912865.23044
                  24218678.0944                                   24218676.0124
                                                                        42.7504
        26.7504
   -141186.93747    -73159.78144
                  23677617.3754                                   23677615.2624
                                                                        42.5004
        27.0004
 09  5 10 18 56 30.0000000  0  9G30G09G11G12G14G17G22G27G32
  -3715973.45747  -2709716.46545
                  22894223.7894                                   22894220.8324
                                                                        47.0004
        30.2504
   8002175.62948   6251840.27346
                  21865476.8834                                   21865474.0274
                                                                        48.2504
        36.7504
   3682646.01647   2907740.12143
                  24157326.4774                                   24157322.4964
                                                                        43.0004
        20.2504
  -5784238.77348  -4471903.56246
                  21699188.4614                                   21699183.8954
                                                                        51.5004
        40.0004
  -3605928.43448  -2769845.12546
                  20802237.7424                                   20802232.9694
                                                                        49.5004
        40.0004
   1062596.14147    863955.94145
                  23564732.5634                                   23564729.5474
                                                                        45.0004
        31.7504
   7760188.50447   6066130.93845
                  22950289.0084                                   22950283.3014
                                                                        45.0004
        30.0004
   8863537.49247   6916338.52744
                  24219527.1724                                   24219524.7384
                                                                        42.0004
        26.0004
   -310855.60246   -205369.10544
                  23645329.9064                                   23645327.8094
                                                                        40.7504
        26.0004
 09  5 10 18 57  0.0000000  0  9G30G09G11G12G14G17G22G27G32
  -3914217.91047  -2864192.63345
                  22856499.0314                                   22856496.0634
                                                                        45.7504
        30.2504
   8010776.02348   6258542.03946
                  21867113.6484                                   21867110.6724
                                                                        48.0004
        36.0004
   3646870.38747   2879862.96543
                  24150517.9534                                   24150514.6954
                                                                        42.5004
        20.0004
  -5921394.19548  -4578777.91446
                  21673088.4534                                   21673084.0904
                                                                        51.0004
        40.0004
  -3719722.63348  -2858516.14146
                  20780583.1804                                   20780578.9144
                                                                        49.5004
        40.0004
   1003374.57847    817809.27345
                  23553462.4224                                   23553459.3794
                                                                        45.7504
        30.7504
   7762534.75847   6067959.14145
                  22950735.1644                                   22950730.5274
                                                                        45.7504
        30.5004
   8868117.01247   6919907.37144
                  24220398.0164                                   24220395.5824
                                                                        42.2504
        28.0004
   -480196.01646   -337322.70344
                  23613105.5554                                   23613103.7774
                                                                        40.5004
        26.2504
 09  5 10 18 57 30.0000000  0  9G30G09G11G12G14G17G22G27G32
  -4112179.81647  -3018448.64545
                  22818828.4064                                   22818824.9774
                                                                        45.2504
        30.2504
   8019738.55947   6265526.47345
                  21868818.8984                                   21868815.5904
                                                                        47.2504
        35.2504
   3611546.71547   2852337.98443
                  24143796.4614                                   24143792.8634
                                                                        42.0004
        21.5004
  -6058009.02048  -4685231.01246
                  21647091.6954                                   21647087.4224
                                                                        50.7504
        39.7504
  -3833004.78548  -2946788.26246
                  20759026.5474                                   20759022.5664
                                                                        48.7504
        39.2504
    944708.82047    772095.69545
                  23542299.1564                                   23542295.7154
                                                                        46.2504
        31.2504
   7765177.67247   6070018.53544
                  22951237.9774                                   22951233.0514
                                                                        45.7504
        29.5004
   8872813.43447   6923566.97344
                  24221291.6094                                   24221289.7584
                                                                        42.0004
        26.0004
   -649206.71946   -469019.33244
                  23580944.3594                                   23580941.8094
                                                                        40.7504
        26.0004
 09  5 10 18 58  0.0000000  0  9G30G09G11G12G14G17G22G27G32
  -4309855.02747  -3172481.25045
                  22781211.5164                                   22781208.6414
                                                                        46.5004
        31.2504
   8029059.96147   6272790.08245
                  21870592.5634                                   21870589.1914
                                                                        47.0004
        35.5004
   3576674.28147   2825164.64843
                  24137160.3674                                   24137156.9804
                                                                        42.0004
        20.7504
  -6194080.66448  -4791260.87946
                  21621197.8284                                   21621193.8984
                                                                        51.5004
        40.2504
  -3945772.03148  -3034658.91446
                  20737567.9534                                   20737563.6094
                                                                        49.2504
        39.0004
    886598.82047    726815.21945
                  23531241.0554                                   23531237.6994
                                                                        46.0004
        31.2504
   7768116.00047   6072308.08645
                  22951797.5944                                   22951792.3054
                                                                        45.7504
        30.5004
   8877627.26246   6927318.06644
                  24222207.6254                                   24222205.1374
                                                                        41.5004
        27.0004
   -817884.38747   -600456.44944
                  23548845.8914                                   23548843.2814
                                                                        42.0004
        25.5004
 09  5 10 18 58 30.0000000  0  9G30G09G11G12G14G17G22G27G32
  -4507242.97747  -3326290.02045
                  22743649.9694                                   22743647.1644
                                                                        45.5004
        30.2504
   8038735.81348   6280329.67646
                  21872433.6724                                   21872430.2304
                                                                        48.2504
        36.2504
   3542248.74247   2798339.55143
                  24130608.9224                                   24130605.8134
                                                                        42.0004
        19.7504
  -6329609.71148  -4896867.94146
                  21595407.4384                                   21595403.6214
                                                                        51.2504
        40.5004
  -4058025.58248  -3122129.00846
                  20716206.3754                                   20716202.4224
                                                                        49.2504
        40.0004
    829041.09447    681965.05545
                  23520288.4064                                   23520284.8874
                                                                        46.2504
        31.0004
   7771345.14147   6074824.27044
                  22952412.5474                                   22952406.9104
                                                                        45.2504
        29.7504
   8882554.40246   6931157.33244
                  24223145.6414                                   24223142.6954
                                                                        41.0004
        26.5004
   -986229.15247   -731634.15644
                  23516810.5944                                   23516808.3364
                                                                        42.0004
        27.0004
 09  5 10 18 59  0.0000000  0  9G30G09G11G12G14G17G22G27G32
  -4704338.94947  -3479871.25845
                  22706143.6094                                   22706141.2154
                                                                        45.0004
        31.0004
   8048765.54347   6288144.96545
                  21874342.0704                                   21874339.0514
                                                                        47.2504
        35.0004
   3508269.52346   2771862.16843
                  24124143.3754                                   24124140.3554
                                                                        41.7504
        20.0004
  -6464593.05148  -5002049.76646
                  21569721.2344                                   21569717.3554
                                                                        51.5004
        40.2504
  -4169764.80148  -3209198.92646
                  20694943.6954                                   20694939.6604
                                                                        49.0004
        39.5004
    772036.23447    637545.68045
                  23509440.5704                                   23509437.4184
                                                                        46.0004
        31.5004
   7774864.43847   6077566.55545
                  22953082.1564                                   22953076.6764
                                                                        46.0004
        30.7504
   8887595.27347   6935085.16444
                  24224105.3284                                   24224102.0554
                                                                        42.5004
        25.5004
  -1154236.94546   -862549.30944
                  23484839.8444                                   23484837.0124
                                                                        41.0004
        25.2504
 09  5 10 18 59 30.0000000  0  9G30G09G11G12G14G17G22G27G32
  -4901140.32047  -3633222.94545
                  22668693.5634                                   22668691.0594
                                                                        45.5004
        30.5004
   8059146.64847   6296234.21145
                  21876318.2344                                   21876314.2894
                                                                        47.7504
        35.7504
   3474734.59847   2745730.98843
                  24117762.0704                                   24117758.2624
                                                                        42.0004
        20.2504
  -6599029.70348  -5106805.72746
                  21544138.8984                                   21544135.2734
                                                                        51.0004
        40.7504
  -4280987.03948  -3295865.59046
                  20673778.6884                                   20673774.8554
                                                                        48.7504
        38.7504
    715583.19147    593556.31645
                  23498697.9774                                   23498694.4774
                                                                        46.2504
        30.5004
   7778671.07047   6080532.73445
                  22953806.1644                                   22953800.9654
                                                                        47.0004
        30.0004
   8892748.34047   6939100.44144
                  24225085.4694                                   24225082.5984
                                                                        42.5004
        24.7504
  -1321905.89847   -993200.45344
                  23452933.4924                                   23452931.2814
                                                                        42.2504
        26.5004
 09  5 10 19  0  0.0000000  0  9G30G09G11G12G14G17G22G27G32
  -5097645.84847  -3786344.11745
                  22631299.8444                                   22631297.1374
                                                                        46.0004
        31.2504
   8069874.05547   6304593.25845
                  21878359.3984                                   21878355.6134
                                                                        47.5004
        35.7504
   3441639.91847   2719942.85943
                  24111463.6564                                   24111460.6094
                                                                        42.0004
        19.7504
  -6732919.58248  -5211135.48446
                  21518660.2894                                   21518656.5554
                                                                        51.7504
        40.2504
  -4391693.25848  -3382129.84846
                  20652711.7734                                   20652707.0274
                                                                        49.0004
        39.7504
    659678.84847    549994.51645
                  23488059.4304                                   23488056.1294
                                                                        46.0004
        31.2504
   7782760.77347   6083719.48845
                  22954584.0864                                   22954579.0124
                                                                        45.7504
        30.5004
   8898010.09847   6943200.34844
                  24226086.8524                                   24226084.0824
                                                                        42.0004
        25.2504
  -1489235.29347  -1123586.94544
                  23421092.2274                                   23421089.2424
                                                                        42.5004
        27.0004
 09  5 10 19  0 30.0000000  0  9G30G09G11G12G14G17G22G27G32
  -5293849.96147  -3939230.41845
                  22593963.5234                                   22593960.9224
                                                                        45.5004
        32.5004
   8080947.36347   6313221.65645
                  21880466.5704                                   21880462.9344
                                                                        47.5004
        35.0004
   3408985.85547   2694498.12143
                  24105249.8984                                   24105246.9344
                                                                        42.0004
        19.5004
  -6866258.99648  -5315036.36746
                  21493286.7974                                   21493282.8094
                                                                        51.0004
        40.0004
  -4501881.15248  -3467990.51646
                  20631743.7344                                   20631739.4884
                                                                        49.0004
        39.7504
    604324.17647    506861.02345
                  23477525.5394                                   23477522.5864
                                                                        46.0004
        30.7504
   7787133.54747   6087126.81645
                  22955416.3834                                   22955411.8554
                                                                        46.5004
        30.7504
   8903381.28547   6947385.34043
                  24227109.0234                                   24227106.4774
                                                                        43.0004
        23.2504
  -1656220.38347  -1253705.09044
                  23389315.4454                                   23389312.8364
                                                                        42.5004
        26.0004
 09  5 10 19  1  0.0000000  0  9G30G09G11G12G14G17G22G27G32
  -5489748.23847  -4091878.38745
                  22556684.9064                                   22556682.8014
                                                                        46.0004
        32.0004
   8092365.47347   6322118.62545
                  21882639.7664                                   21882635.9804
                                                                        47.7504
        35.7504
   3376771.97746   2669396.37943
                  24099119.9614                                   24099116.8954
                                                                        41.7504
        19.2504
  -6999044.75448  -5418505.84446
                  21468018.3674                                   21468014.8794
                                                                        51.7504
        40.0004
  -4611548.49648  -3553445.86346
                  20610874.7814                                   20610870.3834
                                                                        49.5004
        39.5004
    549519.74647    464156.26645
                  23467096.7504                                   23467093.5234
                                                                        45.7504
        30.7504
   7791788.70347   6090754.14145
                  22956302.4304                                   22956297.5744
                                                                        46.2504
        30.7504
   8908862.72347   6951656.35243
                  24228152.8594                                   24228149.9884
                                                                        42.2504
        23.0004
  -1822857.52047  -1383552.14144
                  23357606.0314                                   23357603.1294
                                                                        43.5004
        28.0004
 09  5 10 19  1 30.0000000  0  9G30G09G11G12G14G17G22G27G32
  -5685342.50447  -4244289.46545
                  22519464.6804                                   22519462.7464
                                                                        45.7504
        32.2504
   8104120.73447   6331278.09845
                  21884877.0084                                   21884873.7074
                                                                        47.7504
        35.2504
   3344991.44947   2644632.32043
                  24093072.7974                                   24093069.0204
                                                                        42.0004
        19.5004
  -7131280.56648  -5521546.65646
                  21442854.8754                                   21442850.7274
                                                                        51.5004
        40.5004
  -4720697.83648  -3638497.39846
                  20590104.5314                                   20590100.1374
                                                                        48.5004
        39.2504
    495259.38747    421875.44545
                  23456771.7114                                   23456768.1484
                                                                        45.5004
        30.2504
   7796718.93047   6094595.80945
                  22957240.8054                                   22957235.6914
                                                                        46.0004
        30.2504
   8914448.65246   6956009.10243
                  24229214.5314                                   24229212.7424
                                                                        39.7504
        22.5004
  -1989149.30147  -1513130.06244
                  23325961.7034                                   23325958.8404
                                                                        43.2504
        27.2504
 09  5 10 19  2  0.0000000  0  9G30G09G11G12G14G17G22G27G32
  -5880631.96147  -4396462.97345
                  22482302.4694                                   22482300.0664
                                                                        45.5004
        32.7504
   8116209.84847   6340698.20745
                  21887177.0234                                   21887174.0084
                                                                        47.5004
        35.5004
   3313639.99247   2620202.56343
                  24087106.5004                                   24087103.0514
                                                                        42.0004
        19.5004
  -7262967.16848  -5624159.50846
                  21417795.6414                                   21417791.5314
                                                                        52.0004
        40.0004
  -4829330.35948  -3723145.84446
                  20569432.3674                                   20569427.9844
                                                                        49.5004
        39.7504
    441540.02747    380016.18445
                  23446549.3834                                   23446545.7894
                                                                        45.5004
        30.5004
   7801919.52747   6098648.17244
                  22958230.2734                                   22958225.1094
                                                                        46.0004
        28.5004
   8920134.70346   6960439.82043
                  24230296.3674                                   24230295.1484
                                                                        39.7504
        21.7504
  -2155095.66447  -1642438.86344
                  23294382.8984                                   23294379.8134
                                                                        43.0004
        26.5004
 09  5 10 19  2 30.0000000  0 10G30G09G11G12G14G17G22G27G32G31
  -6075613.98047  -4548396.96145
                  22445198.5864                                   22445195.7664
                                                                        45.2504
        32.0004
   8128629.46947   6350375.96945
                  21889540.3674                                   21889537.1884
                                                                        46.5004
        35.0004
   3282715.74647   2596105.78943
                  24081221.6804                                   24081218.3444
                                                                        42.2504
        20.7504
  -7394104.03148  -5726344.39546
                  21392841.1094                                   21392837.1604
                                                                        51.5004
        40.7504
  -4937446.19148  -3807391.80546
                  20548858.2504                                   20548854.0394
                                                                        48.7504
        40.0004
    388360.34847    338577.49245
                  23436429.0634                                   23436426.2544
                                                                        45.7504
        31.0004
   7807388.36347   6102909.57445
                  22959270.8204                                   22959265.9454
                                                                        45.0004
        30.0004
   8925919.84846   6964947.89543
                  24231397.4924                                   24231395.7584
                                                                        38.5004
        22.2504
  -2320694.08247  -1771476.54344
                  23262870.4144                                   23262867.8404
                                                                        42.7504
        25.2504
   9060581.11756   7107129.75454
                  24185191.1884                                   24185188.2234
                                                                        39.2504
        24.0004
 09  5 10 19  3  0.0000000  0 10G30G09G11G12G14G17G22G27G32G31
  -4694859.55147  -3472484.39545
                  22707947.2034                                   22707944.5164
                                                                        45.5004
        32.0004
   9716795.19547   7587907.57445
                  22191758.6024                                   22191755.2734
                                                                        46.7504
        34.7504
   4827636.47747   3799940.08243
                  24375210.3594                                   24375207.3594
                                                                        42.2504
        19.2504
  -5949264.09848  -4600494.72746
                  21667785.0944                                   21667780.7544
                                                                        51.2504
        40.5004
  -3469621.40248  -2663632.16846
                  20828176.1414                                   20828171.7194
                                                                        49.5004
        40.0004
   1911140.01647   1525159.04744
                  23726204.7034                                   23726201.1484
                                                                        45.2504
        29.5004
   9388542.14147   7334977.42244
                  23260154.8524                                   23260149.9534
                                                                        44.7504
        29.2504
  10507221.54746   8197131.19543
                  24532309.7814                                   24532307.6454
                                                                        39.5004
        22.5004
   -910517.57447   -672637.65644
                  23531217.9384                                   23531215.5594
                                                                        43.5004
        27.0004
  10435462.89846   8178466.26243
                  24446822.4384                                   24446819.2194
                                                                        38.7504
        23.0004
 09  5 10 19  3 30.0000000  0 10G30G09G11G12G14G17G22G27G32G31
  -4889218.02047  -3623932.51645
                  22670962.1254                                   22670959.5204
                                                                        46.0004
        32.2504
   9729865.83647   7598092.12545
                  22194246.0314                                   22194243.0904
                                                                        47.5004
        34.2504
   4797558.53147   3776502.63743
                  24369486.4534                                   24369483.7704
                                                                        42.5004
        21.0004
  -6079295.98448  -4701818.17246
                  21643040.6724                                   21643036.3594
                                                                        51.5004
        40.5004
  -3576701.64848  -2747071.30146
                  20807799.5004                                   20807795.2624
                                                                        49.2504
        39.5004
   1859034.76647   1484557.56345
                  23716289.4534                                   23716286.0354
                                                                        45.2504
        30.7504
   9394539.14847   7339650.38344
                  23261295.5634                                   23261290.8524
                                                                        44.5004
        29.2504
  10513199.10946   8201789.10943
                  24533447.1564                                   24533444.4884
                                                                        40.0004
        22.7504
  -1075414.44547   -801128.73044
                  23499839.0234                                   23499836.3984
                                                                        43.2504
        26.2504
  10235017.15246   8022274.79343
                  24408678.5314                                   24408675.7774
                                                                        40.0004
        22.5004
 09  5 10 19  4  0.0000000  0 10G30G09G11G12G14G17G22G27G32G31
  -5083260.09847  -3775134.08245
                  22634037.0864                                   22634034.4574
                                                                        45.0004
        31.7504
   9743260.07047   7608529.56345
                  22196794.7814                                   22196791.1564
                                                                        47.0004
        34.0004
   4767901.33647   3753393.10943
                  24363843.5164                                   24363840.2114
                                                                        43.2504
        20.2504
  -6208773.75448  -4802709.93746
                  21618401.9774                                   21618397.4574
                                                                        51.2504
        40.0004
  -3683262.52048  -2830105.78946
                  20787521.6024                                   20787517.5354
                                                                        48.7504
        39.2504
   1807465.05147   1444373.33645
                  23706475.9454                                   23706472.5004
                                                                        45.0004
        30.0004
   9400796.80547   7344526.42644
                  23262486.6564                                   23262481.6294
                                                                        45.5004
        29.0004
  10519270.95346   8206520.42644
                  24534602.9454                                   24534600.2774
                                                                        40.5004
        24.7504
  -1239956.82847   -929343.56644
                  23468528.0084                                   23468524.7464
                                                                        42.5004
        27.2504
  10034672.56646   7866162.15243
                  24370554.7974                                   24370551.3284
                                                                        40.0004
        22.0004
 09  5 10 19  4 30.0000000  0 10G30G09G11G12G14G17G22G27G32G31
  -5276981.73447  -3926085.96545
                  22597173.4454                                   22597170.4534
                                                                        45.5004
        32.0004
   9756974.64147   7619216.55945
                  22199403.9224                                   22199400.6884
                                                                        47.0004
        34.0004
   4738662.97347   3730609.92243
                  24358279.1484                                   24358276.4064
                                                                        42.0004
        21.0004
  -6337695.31648  -4903168.67646
                  21593869.4614                                   21593865.2034
                                                                        51.5004
        40.5004
  -3789302.50448  -2912734.49246
                  20767342.8444                                   20767338.9064
                                                                        48.5004
        39.0004
   1756430.37147   1404606.05545
                  23696764.2894                                   23696760.8094
                                                                        45.0004
        30.5004
   9407313.63347   7349604.45744
                  23263727.0314                                   23263722.0474
                                                                        45.5004
        28.7504
  10525436.75447   8211324.93044
                  24535775.5474                                   24535773.5044
                                                                        42.5004
        25.0004
  -1404141.76247  -1057279.88744
                  23437284.2274                                   23437281.7154
                                                                        43.0004
        27.2504
   9834431.77646   7710130.38543
                  24332450.7194                                   24332447.2074
                                                                        41.7504
        22.0004
 09  5 10 19  5  0.0000000  0 10G30G09G11G12G14G17G22G27G32G31
  -5470370.05547  -4076778.13745
                  22560372.7274                                   22560369.4774
                                                                        47.0004
        32.2504
   9771016.84847   7630158.73445
                  22202075.8204                                   22202072.2384
                                                                        46.5004
        33.5004
   4709851.94947   3708159.75843
                  24352796.7424                                   24352794.0514
                                                                        43.0004
        20.0004
  -6466048.54348  -5003184.03946
                  21569444.1174                                   21569439.8834
                                                                        51.0004
        40.7504
  -3894810.87548  -2994949.11746
                  20747265.7504                                   20747261.1684
                                                                        49.0004
        39.0004
   1705939.83647   1365262.75445
                  23687156.7734                                   23687153.1724
                                                                        45.5004
        30.5004
   9414097.35947   7354890.48044
                  23265017.9614                                   23265012.1954
                                                                        46.0004
        28.7504
  10531705.37147   8216209.59844
                  24536968.6804                                   24536966.1644
                                                                        42.7504
        24.5004
  -1567956.66047  -1184927.84844
                  23406111.2894                                   23406108.7154
                                                                        43.7504
        28.0004
   9634306.73446   7554188.84043
                  24294367.2584                                   24294363.8524
                                                                        41.5004
        20.7504
 09  5 10 19  5 30.0000000  0 10G30G09G11G12G14G17G22G27G32G31
  -5663425.53947  -4227210.96945
                  22523635.0474                                   22523632.5984
                                                                        45.7504
        32.5004
   9785380.68447   7641351.40245
                  22204809.2424                                   22204805.5944
                                                                        45.7504
        33.5004
   4681462.27747   3686037.95743
                  24347394.9304                                   24347391.2584
                                                                        43.5004
        20.7504
  -6593837.26248  -5102760.08646
                  21545127.2034                                   21545123.5434
                                                                        51.2504
        40.0004
  -3999789.53948  -3076750.70746
                  20727288.9534                                   20727284.5944
                                                                        48.5004
        39.5004
   1655988.51247   1326339.63345
                  23677651.4304                                   23677647.8914
                                                                        45.5004
        30.2504
   9421141.79347   7360379.62144
                  23266358.4144                                   23266353.0784
                                                                        46.0004
        29.0004
  10538071.98447   8221170.60244
                  24538180.5164                                   24538177.7814
                                                                        43.0004
        24.5004
  -1731402.97347  -1312288.62944
                  23375008.8834                                   23375005.9144
                                                                        44.7504
        27.7504
   9434295.78146   7398336.15243
                  24256306.7504                                   24256303.5664
                                                                        41.0004
        21.5004
 09  5 10 19  6  0.0000000  0 10G30G09G11G12G14G17G22G27G32G31
  -5856145.81247  -4377382.56645
                  22486961.8594                                   22486958.9344
                                                                        45.5004
        32.2504
   9800063.41447   7652792.52745
                  22207603.1724                                   22207599.9064
                                                                        45.5004
        34.0004
   4653491.50047   3664242.51643
                  24342072.4844                                   24342068.9414
                                                                        43.5004
        21.0004
  -6721060.05548  -5201895.34446
                  21520918.1724                                   21520914.1914
                                                                        51.5004
        40.7504
  -4104238.30948  -3158139.32446
                  20707412.9694                                   20707409.1684
                                                                        48.0004
        39.5004
   1606574.46947   1287835.17245
                  23668248.2504                                   23668244.8164
                                                                        45.7504
        30.0004
   9428444.13747   7366069.71944
                  23267748.0234                                   23267742.8164
                                                                        46.0004
        29.2504
  10544534.56647   8226206.38344
                  24539409.5004                                   24539408.0394
                                                                        43.7504
        25.0004
  -1894478.78947  -1439360.67244
                  23343976.3284                                   23343973.7114
                                                                        43.5004
        27.2504
   9234400.46946   7242573.58243
                  24218268.2034                                   24218264.7114
                                                                        39.7504
        22.5004
 09  5 10 19  6 30.0000000  0 10G30G09G11G12G14G17G22G27G32G31
  -6048521.43747  -4527285.62145
                  22450353.8524                                   22450350.7854
                                                                        47.0004
        32.2504
   9815068.92647   7664485.23845
                  22210458.8754                                   22210455.3954
                                                                        46.2504
        33.5004
   4625943.80547   3642776.82043
                  24336829.3984                                   24336827.0394
                                                                        43.2504
        22.0004
  -6847706.39148  -5300580.17646
                  21496817.6414                                   21496813.5594
                                                                        52.0004
        41.0004
  -4208149.60548  -3239108.88746
                  20687639.2274                                   20687634.7304
                                                                        49.0004
        39.7504
   1557702.82447   1249753.37944
                  23658948.1334                                   23658944.8484
                                                                        45.2504
        29.5004
   9436008.57047   7371964.04744
                  23269187.2734                                   23269182.1954
                                                                        46.5004
        28.7504
  10551098.23447   8231320.93044
                  24540659.4774                                   24540657.0164
                                                                        43.7504
        24.0004
  -2057175.42247  -1566137.23844
                  23313016.3834                                   23313013.2974
                                                                        43.5004
        27.0004
   9034629.13746   7086907.65244
                  24180252.3054                                   24180249.9224
                                                                        40.7504
        24.5004
 09  5 10 19  7  0.0000000  0 10G30G09G11G12G14G17G22G27G32G31
  -6240557.41847  -4676924.01245
                  22413810.8594                                   22413807.4024
                                                                        47.0004
        33.0004
   9830386.19147   7676420.82845
                  22213373.5944                                   22213370.0664
                                                                        46.0004
        34.0004
   4598808.48047   3621632.20743
                  24331666.3754                                   24331663.3914
                                                                        43.5004
        21.5004
  -6973785.55548  -5398823.13746
                  21472824.9304                                   21472821.1054
                                                                        51.0004
        41.0004
  -4311531.50048  -3319666.11346
                  20667966.2424                                   20667961.6524
                                                                        49.0004
        40.2504
   1509364.02347   1212086.76244
                  23649749.2664                                   23649746.2464
                                                                        45.0004
        29.0004
   9443824.66847   7378054.49644
                  23270675.0004                                   23270669.7424
                                                                        46.5004
        28.2504
  10557753.66047   8236506.93843
                  24541925.6174                                   24541923.1684
                                                                        43.5004
        23.7504
  -2219498.54347  -1692622.66844
                  23282126.7734                                   23282124.3244
                                                                        44.0004
        28.0004
   8834975.64546   6931333.52744
                  24142260.0164                                   24142256.9494
                                                                        41.0004
        26.5004
 09  5 10 19  7 30.0000000  0 10G30G09G11G12G14G17G22G27G32G31
  -6432251.34847  -4826295.87145
                  22377332.4534                                   22377329.3014
                                                                        46.7504
        33.2504
   9846012.28147   7688597.02345
                  22216346.8594                                   22216343.6484
                                                                        46.5004
        34.0004
   4572083.73847   3600807.60943
                  24326580.7344                                   24326578.1884
                                                                        43.2504
        22.2504
  -7099297.89848  -5496624.94146
                  21448940.7034                                   21448936.7974
                                                                        51.0004
        40.7504
  -4414384.11348  -3399811.18746
                  20648394.0004                                   20648389.8754
                                                                        49.0004
        40.0004
   1461556.01247   1174833.74244
                  23640651.7274                                   23640648.3954
                                                                        44.5004
        28.5004
   9451889.38747   7384338.66844
                  23272209.3754                                   23272204.6254
                                                                        45.5004
        28.0004
  10564498.58247   8241762.61343
                  24543209.1724                                   24543206.7234
                                                                        42.7504
        22.5004
  -2381446.66847  -1818815.98444
                  23251309.0944                                   23251306.7464
                                                                        43.7504
        28.2504
   8635441.39147   6775852.35244
                  24104289.8834                                   24104286.7854
                                                                        42.5004
        26.5004
 09  5 10 19  8  0.0000000  0 10G30G09G11G12G14G17G22G27G32G31
  -6623597.73447  -4975396.91845
                  22340920.5084                                   22340917.7424
                                                                        47.7504
        33.0004
   9861946.95347   7701013.64545
                  22219378.9224                                   22219375.8554
                                                                        45.5004
        34.0004
   4545769.38347   3580302.96143
                  24321573.6484                                   24321569.9654
                                                                        43.5004
        22.7504
  -7224238.78548  -5593981.40246
                  21425165.3914                                   21425161.5004
                                                                        52.0004
        41.0004
  -4516703.08648  -3479540.21546
                  20628923.4844                                   20628918.9694
                                                                        48.7504
        39.5004
   1414280.00847   1137995.27044
                  23631655.1334                                   23631651.9734
                                                                        44.0004
        28.0004
   9460202.69547   7390816.51644
                  23273791.1884                                   23273786.7934
                                                                        45.0004
        28.2504
  10571334.55146   8247089.30943
                  24544509.7194                                   24544507.3054
                                                                        41.2504
        22.2504
  -2543015.07447  -1944713.44944
                  23220563.8834                                   23220561.1644
                                                                        44.0004
        28.7504
   8436030.78147   6620467.55944
                  24066343.1254                                   24066340.0004
                                                                        42.0004
        27.5004
 09  5 10 19  8 30.0000000  0 10G30G09G11G12G14G17G22G27G32G31
  -6814594.57448  -5124225.55145
                  22304575.3204                                   22304572.0704
                                                                        48.2504
        33.7504
   9878186.71547   7713667.99645
                  22222469.6564                                   22222466.2774
                                                                        46.0004
        34.7504
   4519862.16047   3560115.45743
                  24316644.0704                                   24316640.1644
                                                                        43.7504
        22.5004
  -7348608.23048  -5690892.64146
                  21401498.8284                                   21401494.5394
                                                                        51.7504
        41.0004
  -4618489.71148  -3558854.67646
                  20609554.1884                                   20609549.6254
                                                                        48.7504
        39.7504
   1367533.61747   1101569.51644
                  23622760.2034                                   23622756.5394
                                                                        44.5004
        26.7504
   9468761.40247   7397485.58644
                  23275420.0314                                   23275415.7304
                                                                        45.5004
        28.0004
  10578259.04347   8252485.01243
                  24545827.7034                                   24545825.1174
                                                                        42.0004
        22.7504
  -2704202.52747  -2070314.08644
                  23189891.4144                                   23189888.1954
                                                                        44.5004
        28.5004
   8236744.67647   6465179.77044
                  24028420.3984                                   24028417.2894
                                                                        42.5004
        27.7504
 09  5 10 19  9  0.0000000  0 10G30G09G11G12G14G17G22G27G32G31
  -7005237.95347  -5272778.82845
                  22268297.0004                                   22268293.6804
                                                                        47.7504
        33.5004
   9894730.15647   7726558.96545
                  22225617.8444                                   22225614.5744
                                                                        45.5004
        33.5004
   4494361.22747   3540244.57443
                  24311790.9064                                   24311787.7464
                                                                        44.2504
        22.7504
  -7472403.74248  -5787356.65246
                  21377941.3204                                   21377936.8204
                                                                        51.2504
        41.0004
  -4719741.57048  -3637752.42246
                  20590286.8754                                   20590282.6214
                                                                        48.7504
        39.5004
   1321316.52047   1065556.18444
                  23613965.0394                                   23613961.6724
                                                                        43.5004
        27.0004
   9477563.95747   7404344.67244
                  23277095.3984                                   23277090.3594
                                                                        45.0004
        28.2504
  10585271.94946   8257949.54744
                  24547162.4614                                   24547159.8134
                                                                        41.2504
        25.2504
  -2865005.57447  -2195615.16044
                  23159291.1174                                   23159288.3134
                                                                        44.0004
        28.5004
   8037585.90247   6309991.18044
                  23990521.7034                                   23990518.3484
                                                                        43.0004
        28.2504
 09  5 10 19  9 30.0000000  0 10G30G09G11G12G14G17G22G27G32G31
  -7195526.52347  -5421055.62945
                  22232086.1884                                   22232082.9884
                                                                        47.7504
        33.5004
   9911573.10547   7739683.36345
                  22228822.7814                                   22228819.2274
                                                                        45.7504
        33.5004
   4469262.30547   3520686.93443
                  24307014.9694                                   24307011.5864
                                                                        43.5004
        22.2504
  -7595625.95748  -5883373.90646
                  21354492.6644                                   21354488.6564
                                                                        51.2504
        40.7504
  -4820459.45348  -3716233.84846
                  20571120.5084                                   20571116.3634
                                                                        49.2504
        39.0004
   1275625.74247   1029952.97744
                  23605270.2974                                   23605266.7974
                                                                        43.7504
        27.5004
   9486606.48047   7411390.75444
                  23278815.8204                                   23278811.2814
                                                                        44.7504
        28.7504
  10592370.27046   8263480.67643
                  24548512.8444                                   24548510.5904
                                                                        41.0004
        22.7504
  -3025423.47347  -2320615.99644
                  23128764.5944                                   23128761.7934
                                                                        45.0004
        29.0004
   7838554.94947   6154902.20744
                  23952647.0554                                   23952644.0004
                                                                        43.0004
        28.7504
 09  5 10 19 10  0.0000000  0  9G30G09G12G14G17G22G27G32G31
  -7385454.80547  -5569051.66445
                  22195944.1564                                   22195941.1954
                                                                        47.5004
        33.2504
   9928715.18847   7753040.80145
                  22232084.9384                                   22232081.7194
                                                                        45.7504
        34.2504
  -7718271.93448  -5978942.46146
                  21331153.9844                                   21331150.1134
                                                                        51.2504
        40.7504
  -4920640.32448  -3794296.73046
                  20552057.1094                                   20552052.7344
                                                                        49.7504
        39.7504
   1230461.91847    994760.35944
                  23596676.0234                                   23596672.3324
                                                                        43.2504
        28.0004
   9495888.69147   7418623.60944
                  23280582.2274                                   23280576.9304
                                                                        45.5004
        28.5004
  10599554.85246   8269078.93843
                  24549880.4534                                   24549877.7034
                                                                        41.0004
        22.7504
  -3185452.10247  -2445313.60944
                  23098312.1954                                   23098309.2894
                                                                        44.7504
        28.5004
   7639656.20347   5999916.24644
                  23914797.8204                                   23914794.7464
                                                                        43.2504
        28.0004
 09  5 10 19 10 30.0000000  0  9G30G09G12G14G17G22G27G32G31
  -7575018.78547  -5716763.78945
                  22159870.8524                                   22159867.9804
                                                                        47.5004
        32.7504
   9946155.30547   7766630.45345
                  22235403.7034                                   22235400.4804
                                                                        46.0004
        33.5004
  -7840337.85548  -6074058.46146
                  21307925.5314                                   21307921.2074
                                                                        51.5004
        40.2504
  -5020282.47748  -3871939.85946
                  20533095.5004                                   20533091.4574
                                                                        48.5004
        39.2504
   1185824.74247    959978.09844
                  23588181.9144                                   23588178.3634
                                                                        43.0004
        26.2504
   9505409.41447   7426042.32844
                  23282394.5004                                   23282389.2034
                                                                        46.0004
        27.2504
  10606825.65646   8274744.34043
                  24551264.0004                                   24551261.6724
                                                                        40.7504
        22.5004
  -3345088.06647  -2569705.34044
                  23067934.1414                                   23067931.8404
                                                                        45.2504
        29.0004
   7440892.98847   5845035.93844
                  23876974.7034                                   23876971.2854
                                                                        44.0004
        29.0004
 09  5 10 19 11  0.0000000  0  9G30G09G12G14G17G22G27G32G31
  -7764214.23047  -5864188.77745
                  22123868.1644                                   22123864.9104
                                                                        47.5004
        33.0004
   9963891.89547   7780451.11345
                  22238778.9924                                   22238775.7814
                                                                        46.7504
        33.2504
  -7961822.98448  -6168722.13346
                  21284807.5784                                   21284803.4064
                                                                        51.5004
        41.0004
  -5119384.32448  -3949162.03546
                  20514236.8984                                   20514232.8364
                                                                        48.7504
        40.0004
   1141713.87547    925605.96544
                  23579788.6334                                   23579784.3914
                                                                        42.5004
        25.7504
   9515167.44147   7433645.95744
                  23284251.2274                                   23284246.5354
                                                                        46.0004
        29.0004
  10614182.89546   8280477.13343
                  24552663.9304                                   24552662.2074
                                                                        40.0004
        23.7504
  -3504327.59447  -2693788.13344
                  23037632.0164                                   23037629.3984
                                                                        45.0004
        29.2504
   7242267.83647   5690263.19144
                  23839177.5084                                   23839173.9734
                                                                        44.7504
        29.2504
 09  5 10 19 11 30.0000000  0  8G30G09G12G14G17G22G32G31
  -6377610.26247  -4783718.14145
                  22387729.8914                                   22387727.0514
                                                                        47.0004
        33.5004
  11557341.71547   9022099.13345
                  22542003.1174                                   22541999.8244
                                                                        44.7504
        32.5004
  -6507299.79348  -5035327.36746
                  21561594.2664                                   21561589.7774
                                                                        51.5004
        40.7504
  -3642519.42648  -2798358.14546
                  20795275.0314                                   20795270.6954
                                                                        49.0004
        39.5004
   2673551.38747   2119245.54344
                  23871286.6174                                   23871283.4614
                                                                        42.5004
        27.0004
  11100582.05547   8669033.93444
                  23585945.2894                                   23585940.7854
                                                                        45.7504
        28.2504
  -2087741.17247  -1589954.55944
                  23307200.3134                                   23307196.8484
                                                                        44.5004
        29.2504
   8619211.35247   6763206.28144
                  24101200.6954                                   24101197.3524
                                                                        44.7504
        29.0004
 09  5 10 19 12  0.0000000  0  8G30G09G12G14G17G22G32G31
  -6566059.83247  -4930561.94545
                  22351869.3364                                   22351866.0944
                                                                        47.2504
        33.2504
  11575661.65647   9036373.32045
                  22545490.5554                                   22545487.4024
                                                                        45.7504
        32.5004
  -6627619.06248  -5129082.58246
                  21538698.1094                                   21538693.9304
                                                                        52.0004
        41.0004
  -3740537.73848  -2874735.99646
                  20776622.5784                                   20776618.7074
                                                                        48.7504
        40.2504
   2630488.57047   2085690.05144
                  23863092.4224                                   23863088.9344
                                                                        42.7504
        25.7504
  11110808.07447   8677002.22744
                  23587891.5554                                   23587886.6134
                                                                        45.0004
        27.5004
  -2246180.96947  -1713414.05544
                  23277049.5004                                   23277046.8404
                                                                        44.2504
        29.2504
   8420868.71547   6608653.64544
                  24063457.5704                                   24063454.2584
                                                                        44.5004
        28.0004
 09  5 10 19 12 30.0000000  0  8G30G09G12G14G17G22G32G31
  -6754133.77747  -5077113.15645
                  22316080.2034                                   22316077.0004
                                                                        46.2504
        33.5004
  11594272.46547   9050875.73845
                  22549031.8204                                   22549028.4024
                                                                        45.0004
        32.2504
  -6747355.44548  -5222383.60246
                  21515913.0554                                   21515908.9454
                                                                        51.7504
        40.7504
  -3838014.91848  -2950692.24646
                  20758073.2034                                   20758069.5434
                                                                        48.2504
        39.2504
   2587946.25047   2052540.10244
                  23854996.8754                                   23854993.6524
                                                                        42.0004
        26.5004
  11121262.76247   8685148.69544
                  23589881.1254                                   23589876.1334
                                                                        45.2504
        27.5004
  -2404219.24647  -1836560.73444
                  23246976.1414                                   23246972.7934
                                                                        45.0004
        28.5004
   8222668.93447   6454212.35244
                  24025741.1644                                   24025737.7154
                                                                        45.0004
        27.2504
 09  5 10 19 13  0.0000000  0  8G30G09G12G14G17G22G32G31
  -6941829.47747  -5223369.48445
                  22280363.2344                                   22280359.8754
                                                                        45.0004
        33.0004
  11613167.51247   9065599.58245
                  22552626.8914                                   22552623.5864
                                                                        45.7504
        33.0004
  -6866508.87148  -5315230.43046
                  21493238.9384                                   21493234.8324
                                                                        51.7504
        41.2504
  -3934951.38348  -3026227.24246
                  20739627.2504                                   20739622.6024
                                                                        48.5004
        40.0004
   2545922.30146   2019794.11744
                  23846999.7664                                   23846996.3364
                                                                        41.5004
        25.7504
  11131943.07847   8693470.97344
                  23591913.9844                                   23591908.4454
                                                                        44.5004
        27.2504
  -2561854.54747  -1959393.37544
                  23216978.6174                                   23216975.8754
                                                                        45.7504
        28.7504
   8024612.85547   6299883.00444
                  23988052.5704                                   23988048.7114
                                                                        44.7504
        28.5004
 09  5 10 19 13 30.0000000  0  8G30G09G12G14G17G22G32G31
  -7129148.25047  -5369332.10945
                  22244717.1564                                   22244714.0944
                                                                        46.5004
        33.5004
  11632340.09847   9080539.76245
                  22556274.6884                                   22556271.3444
                                                                        45.7504
        32.5004
  -6985082.96548  -5407626.19146
                  21470675.0474                                   21470671.3404
                                                                        52.2504
        41.5004
  -4031350.64847  -3101343.64846
                  20721283.0314                                   20721278.5354
                                                                        47.7504
        40.0004
   2504410.52346   1987447.27344
                  23839100.6954                                   23839097.3634
                                                                        41.7504
        26.5004
  11142842.17647   8701963.72344
                  23593987.3834                                   23593982.7774
                                                                        44.0004
        26.7504
  -2719088.99647  -2081913.69544
                  23187057.8364                                   23187055.4454
                                                                        44.0004
        29.7504
   7826698.53147   6145664.09844
                  23950390.2894                                   23950386.8244
                                                                        43.7504
        27.5004
 09  5 10 19 14  0.0000000  0  8G30G09G12G14G17G22G32G31
  -7316094.24247  -5515004.24645
                  22209142.7974                                   22209139.5824
                                                                        47.0004
        33.5004
  11651779.82447   9095687.69945
                  22559973.9614                                   22559970.4494
                                                                        45.7504
        32.5004
  -7103082.68048  -5499574.17246
                  21448220.7114                                   21448216.7774
                                                                        52.0004
        41.2504
  -4127218.94148  -3176046.20746
                  20703039.8524                                   20703035.7464
                                                                        49.0004
        40.0004
   2463402.06346   1955492.58244
                  23831296.6094                                   23831294.2544
                                                                        41.0004
        26.5004
  11153950.87147   8710619.79344
                  23596100.8364                                   23596096.2234
                                                                        44.0004
        26.5004
  -2875927.38747  -2204125.41844
                  23157212.6644                                   23157209.7624
                                                                        44.2504
        29.0004
   7628920.64847   5991551.40244
                  23912754.1564                                   23912751.2304
                                                                        43.2504
        27.0004
 09  5 10 19 14 30.0000000  0  8G30G09G12G14G17G22G32G31
  -7502663.31647  -5660382.72745
                  22173639.8204                                   22173636.3484
                                                                        47.0004
        34.5004
  11671485.32847   9111042.25445
                  22563724.4454                                   22563720.2734
                                                                        46.2504
        33.2504
  -7220506.38348  -5591073.34046
                  21425876.0394                                   21425871.8094
                                                                        52.2504
        41.5004
  -4222554.12948  -3250333.35546
                  20684897.9384                                   20684894.2274
                                                                        49.0004
        39.5004
   2422897.10247   1923930.23044
                  23823589.0164                                   23823585.9384
                                                                        42.2504
        26.2504
  11165267.98847   8719438.29744
                  23598254.9774                                   23598250.2344
                                                                        44.2504
        26.5004
  -3032366.20747  -2326025.79744
                  23127442.8834                                   23127440.3244
                                                                        44.2504
        29.2504
   7431282.86747   5837547.94544
                  23875145.3444                                   23875141.3794
                                                                        42.7504
        26.5004
 09  5 10 19 15  0.0000000  0  8G30G09G12G14G17G22G32G31
  -7688852.33647  -5805465.05945
                  22138209.1254                                   22138206.0434
                                                                        47.5004
        34.0004
  11691455.21947   9126602.81345
                  22567524.3594                                   22567521.2114
                                                                        46.5004
        32.2504
  -7337352.70348  -5682122.38346
                  21403640.6254                                   21403636.4574
                                                                        52.0004
        40.7504
  -4317355.65248  -3324204.62546
                  20666857.8914                                   20666853.6564
                                                                        48.2504
        40.0004
   2382893.77746   1892758.73444
                  23815976.7734                                   23815973.8984
                                                                        41.7504
        27.0004
  11176791.26247   8728417.42644
                  23600447.8284                                   23600443.3204
                                                                        44.7504
        27.5004
  -3188403.00847  -2447612.85944
                  23097750.3284                                   23097748.1564
                                                                        44.2504
        29.0004
   7233787.30947   5683655.49244
                  23837563.0944                                   23837560.0234
                                                                        44.2504
        26.0004
 09  5 10 19 15 30.0000000  0  8G30G09G12G14G17G22G32G31
  -7874662.53948  -5950252.22345
                  22102850.6174                                   22102847.4804
                                                                        48.0004
        34.7504
  11711683.35947   9142364.83245
                  22571373.7664                                   22571370.4224
                                                                        46.0004
        32.2504
  -7453624.63348  -5772723.63346
                  21381514.3444                                   21381510.7894
                                                                        51.5004
        40.7504
  -4411627.23848  -3397662.96146
                  20648918.3524                                   20648914.6804
                                                                        48.7504
        39.5004
   2343386.39847   1861973.71544
                  23808459.0704                                   23808455.6524
                                                                        42.2504
        27.2504
  11188514.05947   8737552.01644
                  23602678.3594                                   23602673.8284
                                                                        45.0004
        26.0004
  -3344039.93747  -2568888.28944
                  23068133.4844                                   23068130.7424
                                                                        45.5004
        29.2504
   7036431.27347   5529871.55544
                  23800007.2664                                   23800003.8874
                                                                        43.2504
        26.7504
 09  5 10 19 16  0.0000000  0  8G30G09G12G14G17G22G32G31
  -8060092.69947  -6094743.22345
                  22067563.8054                                   22067561.1764
                                                                        47.5004
        34.2504
  11732165.83247   9158325.25845
                  22575271.3134                                   22575268.7344
                                                                        45.7504
        32.0004
  -7569323.64148  -5862878.59046
                  21359498.1094                                   21359493.7384
                                                                        51.5004
        41.0004
  -4505369.79348  -3470709.09846
                  20631080.0394                                   20631076.1994
                                                                        48.7504
        40.0004
   2304372.01646   1831572.88344
                  23801034.5234                                   23801031.5124
                                                                        41.5004
        27.7504
  11200432.73847   8746839.24644
                  23604946.7734                                   23604941.8094
                                                                        44.5004
        25.5004
  -3499276.46547  -2689851.80944
                  23038593.3134                                   23038590.3364
                                                                        44.5004
        29.7504
   6839215.34847   5376196.66444
                  23762478.2734                                   23762475.6764
                                                                        43.2504
        26.0004
 09  5 10 19 16 30.0000000  0  8G30G09G12G14G17G22G32G31
  -8245132.94947  -6238930.41045
                  22032352.2424                                   22032349.6724
                                                                        47.0004
        34.2504
  11752906.15247   9174486.52345
                  22579218.4384                                   22579215.5594
                                                                        46.0004
        32.0004
  -7684442.25048  -5952581.29746
                  21337591.3054                                   21337587.2114
                                                                        51.0004
        40.7504
  -4598576.28548  -3543337.53546
                  20613343.4924                                   20613339.4534
                                                                        48.0004
        40.2504
   2265855.23846   1801559.78144
                  23793705.3754                                   23793702.2624
                                                                        40.2504
        27.5004
  11212551.11347   8756282.09444
                  23607252.5704                                   23607248.0744
                                                                        45.5004
        26.5004
  -3654103.75047  -2810496.44544
                  23009130.7664                                   23009127.6054
                                                                        45.0004
        29.7504
   6642148.30147   5222637.93044
                  23724977.4454                                   23724974.3914
                                                                        43.7504
        25.5004
 09  5 10 19 17  0.0000000  0  8G30G09G12G14G17G22G32G31
  -8429780.11348  -6382811.30545
                  21997215.1954                                   21997212.1484
                                                                        48.0004
        34.5004
  11773902.61747   9190847.66045
                  22583213.5634                                   22583210.7894
                                                                        46.5004
        31.7504
  -7798979.41848  -6041830.99246
                  21315795.4454                                   21315791.3524
                                                                        51.5004
        40.2504
  -4691245.87548  -3615547.56646
                  20595708.8984                                   20595704.6564
                                                                        48.2504
        39.7504
   2227835.14547   1771933.70344
                  23786470.2344                                   23786467.3284
                                                                        42.0004
        28.7504
  11224867.28147   8765879.09844
                  23609597.0554                                   23609591.5084
                                                                        46.0004
        26.7504
  -3808519.09047  -2930820.06244
                  22979745.5944                                   22979743.3634
                                                                        44.2504
        28.7504
   6445231.93447   5069196.37944
                  23687505.9454                                   23687502.4184
                                                                        43.7504
        26.2504
 09  5 10 19 17 30.0000000  0  8G30G09G12G14G17G22G32G31
  -8614033.05148  -6526385.00445
                  21962153.1094                                   21962150.5204
                                                                        48.0004
        35.5004
  11795150.38347   9207404.61345
                  22587256.7734                                   22587253.5594
                                                                        46.5004
        31.7504
  -7912935.57048  -6130627.95346
                  21294110.4534                                   21294106.1454
                                                                        51.0004
        40.0004
  -4783379.84047  -3687340.23046
                  20578176.2504                                   20578172.3794
                                                                        47.7504
        39.7504
   2190307.46946   1742691.30944
                  23779328.8284                                   23779325.8364
                                                                        41.5004
        28.2504
  11237376.90247   8775626.81644
                  23611977.3754                                   23611972.1644
                                                                        45.5004
        25.7504
  -3962522.51247  -3050822.70744
                  22950440.6954                                   22950437.4304
                                                                        44.2504
        29.5004
   6248467.35947   4915873.44544
                  23650062.6804                                   23650059.5514
                                                                        44.0004
        26.5004
 09  5 10 19 18  0.0000000  0  8G30G09G12G14G17G22G32G31
  -8797887.47347  -6669648.16845
                  21927166.5784                                   21927163.5664
                                                                        47.5004
        35.5004
  11816648.57447   9224156.50845
                  22591347.6564                                   22591344.7304
                                                                        46.0004
        31.2504
  -8026308.79348  -6218970.79346
                  21272536.1884                                   21272531.9494
                                                                        51.5004
        40.0004
  -4874976.10248  -3758713.92646
                  20560745.9384                                   20560742.0634
                                                                        48.0004
        40.0004
   2153272.74247   1713833.03944
                  23772282.2814                                   23772278.4574
                                                                        42.2504
        29.2504
  11250079.45747   8785524.85944
                  23614394.7274                                   23614389.7704
                                                                        45.2504
        26.0004
  -4116110.12547  -3170501.39545
                  22921213.2114                                   22921210.8284
                                                                        44.2504
        30.0004
   6051857.52347   4762670.94144
                  23612649.7194                                   23612645.7624
                                                                        44.7504
        29.5004
 09  5 10 19 18 30.0000000  0  8G30G09G12G14G17G22G32G31
  -8981341.09848  -6812599.03945
                  21892256.5944                                   21892253.3874
                                                                        48.5004
        35.0004
  11838393.38347   9241100.15245
                  22595485.6094                                   22595482.6334
                                                                        47.0004
        31.5004
  -8139098.60948  -6306859.12546
                  21251073.3754                                   21251069.0514
                                                                        50.5004
        41.0004
  -4966034.79747  -3829668.75846
                  20543418.1024                                   20543414.6094
                                                                        47.0004
        40.0004
   2116728.17647   1685356.71145
                  23765327.9844                                   23765324.3874
                                                                        43.0004
        30.0004
  11262971.85547   8795570.83644
                  23616847.6954                                   23616843.2974
                                                                        44.7504
        27.2504
  -4269280.21547  -3289854.69545
                  22892066.5704                                   22892063.4774
                                                                        45.0004
        30.2504
   5855403.78147   4609589.92644
                  23575265.6094                                   23575262.2934
                                                                        45.2504
        29.0004
 09  5 10 19 19  0.0000000  0  8G30G09G12G14G17G22G32G31
  -9164390.80148  -6955235.14845
                  21857423.4224                                   21857419.9024
                                                                        48.0004
        35.0004
  11860383.17247   9258234.68445
                  22599670.8754                                   22599667.8404
                                                                        46.2504
        30.2504
  -8251304.24248  -6394292.09846
                  21229721.3364                                   21229717.1954
                                                                        51.2504
        40.5004
  -5056555.39547  -3900204.27746
                  20526192.9224                                   20526188.4064
                                                                        46.5004
        39.7504
   2080672.33247   1657261.26644
                  23758467.0784                                   23758463.4304
                                                                        42.0004
        29.7504
  11276051.55547   8805762.73044
                  23619336.9384                                   23619332.0904
                                                                        45.5004
        27.0004
  -4422030.93747  -3408881.19944
                  22862998.6804                                   22862996.0274
                                                                        43.7504
        29.5004
   5659108.08647   4456632.02044
                  23537912.1804                                   23537908.8554
                                                                        46.2504
        29.5004
 09  5 10 19 19 30.0000000  0  8G30G09G12G14G17G22G32G31
  -9347035.06647  -7097555.31645
                  21822667.1954                                   21822664.4344
                                                                        47.7504
        35.0004
  11882615.40247   9275558.65244
                  22603901.7274                                   22603897.8134
                                                                        46.7504
        29.7504
  -8362926.26248  -6481270.25046
                  21208480.1414                                   21208475.9694
                                                                        50.5004
        40.7504
  -5146538.55947  -3970320.98046
                  20509069.5004                                   20509065.1174
                                                                        47.2504
        40.0004
   2045102.19947   1629544.25845
                  23751697.8984                                   23751694.4884
                                                                        43.0004
        30.0004
  11289315.12147   8816097.93844
                  23621860.6804                                   23621855.8054
                                                                        45.0004
        26.2504
  -4574361.24647  -3527580.09045
                  22834010.9384                                   22834008.5944
                                                                        44.7504
        30.5004
   5462972.52347   4303799.40244
                  23500588.4534                                   23500584.9964
                                                                        45.5004
        28.2504
 09  5 10 19 20  0.0000000  0  8G30G09G12G14G17G22G32G31
  -7953841.83248  -6011950.17645
                  22087783.0474                                   22087779.7664
                                                                        48.0004
        34.5004
  13480507.69947  10520669.12145
                  22907970.2194                                   22907967.2974
                                                                        46.0004
        31.0004
  -6898536.76248  -5340187.48846
                  21487144.3444                                   21487140.1994
                                                                        51.0004
        40.7504
  -3660558.11347  -2812414.12146
                  20791842.2114                                   20791837.6994
                                                                        47.2504
        40.0004
   3585440.31647   2829807.70345
                  24044814.6414                                   24044810.8594
                                                                        42.5004
        30.0004
  12878182.73447  10054176.54744
                  23924212.2664                                   23924206.9614
                                                                        44.0004
        25.0004
  -3150841.02747  -2418343.54744
                  23104897.7974                                   23104895.6454
                                                                        44.5004
        29.7504
   6842427.28947   5378699.40644
                  23763089.8524                                   23763086.1684
                                                                        45.5004
        29.5004
 09  5 10 19 20 30.0000000  0  8G30G09G12G14G17G22G32G31
  -8135659.81648  -6153626.48445
                  22053184.2974                                   22053181.1564
                                                                        48.0004
        34.7504
  13503221.71947  10538368.37945
                  22912292.6334                                   22912289.5004
                                                                        46.5004
        30.0004
  -7008982.86348  -5426249.36346
                  21466126.9384                                   21466123.0124
                                                                        50.5004
        41.0004
  -3749458.99248  -2881687.59046
                  20774925.0704                                   20774920.8524
                                                                        48.0004
        40.2504
   3550842.85547   2802848.67645
                  24038230.5704                                   24038227.2074
                                                                        42.2504
        30.2504
  12891813.00047  10064797.50044
                  23926805.7194                                   23926800.7854
                                                                        43.5004
        24.5004
  -3302317.83647  -2536377.39845
                  23076072.9454                                   23076069.9024
                                                                        44.5004
        30.5004
   6646622.00447   5226123.94544
                  23725829.1094                                   23725825.6024
                                                                        45.0004
        28.7504
 09  5 10 19 21  0.0000000  0  8G30G09G12G14G17G22G32G31
  -8317061.05148  -6294978.05145
                  22018664.5394                                   22018661.1764
                                                                        49.0004
        35.0004
  13526172.80947  10556252.48445
                  22916659.7664                                   22916657.0864
                                                                        46.2504
        31.5004
  -7118840.73448  -5511852.98046
                  21445222.0164                                   21445217.7584
                                                                        51.2504
        40.7504
  -3837818.98048  -2950539.67646
                  20758110.7584                                   20758106.5004
                                                                        49.0004
        40.5004
   3516728.35947   2776265.90244
                  24031738.8524                                   24031735.6294
                                                                        42.5004
        29.7504
  12905622.94147  10075558.47344
                  23929433.7584                                   23929428.8594
                                                                        42.5004
        24.2504
  -3453365.32447  -2654076.75045
                  23047329.4304                                   23047326.3244
                                                                        44.0004
        30.0004
   6450984.27347   5073679.05545
                  23688600.6564                                   23688596.8554
                                                                        44.5004
        30.0004
 09  5 10 19 21 30.0000000  0  8G30G09G12G14G17G22G32G31
  -8498044.63747  -6436004.16445
                  21984224.4924                                   21984221.5864
                                                                        47.7504
        35.0004
  13549356.14547  10574317.36345
                  22921071.6414                                   22921068.8524
                                                                        47.0004
        31.5004
  -7228111.48448  -5596999.06246
                  21424428.1804                                   21424424.3594
                                                                        51.0004
        41.0004
  -3925638.72747  -3018970.54346
                  20741399.1094                                   20741394.8014
                                                                        47.0004
        40.0004
   3483093.35947   2750056.77345
                  24025338.4614                                   24025335.2774
                                                                        43.0004
        30.2504
  12919608.00847  10086455.91044
                  23932095.2894                                   23932090.9884
                                                                        42.5004
        25.2504
  -3603983.30547  -2771441.43045
                  23018667.6174                                   23018664.7384
                                                                        45.0004
        30.2504
   6255514.50847   4921365.09045
                  23651403.5944                                   23651400.3364
                                                                        45.0004
        30.5004
 09  5 10 19 22  0.0000000  0  8G30G09G12G14G17G22G32G31
  -8678601.03948  -6576697.43045
                  21949865.6954                                   21949862.8014
                                                                        48.2504
        35.0004
  13572776.39547  10592566.89845
                  22925528.4844                                   22925525.9104
                                                                        46.5004
        31.0004
  -7336787.46948  -5681681.67646
                  21403747.8754                                   21403744.0944
                                                                        50.7504
        41.0004
  -4012911.84447  -3086975.54346
                  20724791.2584                                   20724787.0634
                                                                        47.2504
        40.0004
   3449942.46147   2724224.92245
                  24019030.2974                                   24019026.7114
                                                                        43.5004
        30.2504
  12933772.18046  10097492.87144
                  23934790.3134                                   23934786.0514
                                                                        41.2504
        25.5004
  -3754162.96947  -2888464.50845
                  22990089.9224                                   22990086.8524
                                                                        45.2504
        30.0004
   6060221.00447   4769188.37945
                  23614240.5784                                   23614236.7624
                                                                        44.7504
        30.5004
 09  5 10 19 22 30.0000000  0  8G30G09G12G14G17G22G32G31
  -8858730.86747  -6717058.30946
                  21915588.4844                                   21915585.4224
                                                                        47.7504
        36.5004
  13596427.14147  10610996.02345
                  22930029.3204                                   22930026.2344
                                                                        46.5004
        31.5004
  -7444872.10948  -5765903.46946
                  21383180.1564                                   21383176.2424
                                                                        51.2504
        40.7504
  -4099641.56648  -3154557.14546
                  20708287.3054                                   20708283.1724
                                                                        48.2504
        39.5004
   3417269.70747   2698765.60545
                  24012812.7504                                   24012809.2274
                                                                        43.0004
        30.5004
  12948109.73846  10108664.94144
                  23937518.7734                                   23937514.7934
                                                                        41.5004
        25.2504
  -3903905.98047  -3005147.27745
                  22961594.4224                                   22961591.0594
                                                                        45.5004
        30.2504
   5865102.21947   4617147.89845
                  23577110.4534                                   23577107.1374
                                                                        44.7504
        30.2504
 09  5 10 19 23  0.0000000  0  9G30G09G20G12G14G17G22G32G31
  -9038430.28548  -6857083.80145
                  21881392.4384                                   21881389.2704
                                                                        48.5004
        35.0004
  13620307.31347  10629603.96145
                  22934572.9384                                   22934570.0784
                                                                        46.5004
        30.0004
  13814955.27357  10808628.18853
                  24282264.9454                                   24282261.8244
                                                                        42.0004
        22.5004
  -7552363.91048  -5849663.28146
                  21362725.1334                                   21362720.8754
                                                                        50.5004
        40.7504
  -4185826.59847  -3221714.27346
                  20691886.8284                                   20691882.8674
                                                                        47.5004
        39.7504
   3385074.92247   2673678.74644
                  24006686.0944                                   24006683.4924
                                                                        42.7504
        28.7504
  12962619.03546  10119970.80544
                  23940280.2974                                   23940275.7704
                                                                        41.2504
        27.0004
  -4053209.59447  -3121487.80545
                  22933182.9844                                   22933179.7274
                                                                        45.0004
        30.2504
   5670161.13747   4465245.85245
                  23540014.3674                                   23540011.6414
                                                                        44.0004
        31.5004
 09  5 10 19 23 30.0000000  0  9G30G09G20G12G14G17G22G32G31
  -9217701.55548  -6996775.66445
                  21847278.4454                                   21847275.3014
                                                                        48.0004
        35.7504
  13644409.51247  10648384.83645
                  22939159.3674                                   22939156.7584
                                                                        46.0004
        30.5004
  13628595.50447  10663412.96543
                  24246802.3914                                   24246798.6764
                                                                        42.2504
        22.0004
  -7659267.32048  -5932964.60546
                  21342382.0864                                   21342378.0784
                                                                        50.7504
        41.0004
  -4271471.62947  -3288450.61346
                  20675588.8834                                   20675584.5824
                                                                        47.0004
        39.7504
   3353351.16447   2648958.87145
                  24000649.3914                                   24000646.6644
                                                                        43.5004
        30.0004
  12977292.85547  10131404.88744
                  23943072.3444                                   23943068.4804
                                                                        42.5004
        25.7504
  -4202076.41047  -3237487.92245
                  22904854.4454                                   22904851.9264
                                                                        44.5004
        30.0004
   5475394.97347   4313480.09845
                  23502951.6954                                   23502948.3324
                                                                        43.0004
        30.5004
 09  5 10 19 24  0.0000000  0  9G30G09G20G12G14G17G22G32G31
  -9396542.56648  -7136132.26646
                  21813245.8284                                   21813242.7464
                                                                        48.0004
        36.0004
  13668730.41847  10667336.02345
                  22943787.7344                                   22943785.2384
                                                                        46.2504
        30.7504
  13442542.75847  10518436.88343
                  24211396.6414                                   24211394.1564
                                                                        42.7504
        21.7504
  -7765582.41848  -6015807.55546
                  21322151.2274                                   21322146.8674
                                                                        51.0004
        41.0004
  -4356576.48848  -3354766.00846
                  20659394.1094                                   20659389.7304
                                                                        48.2504
        39.5004
   3322095.77747   2624604.03544
                  23994701.3054                                   23994698.6294
                                                                        43.0004
        29.5004
  12992128.11347  10142964.78944
                  23945895.3914                                   23945891.3984
                                                                        42.5004
        27.0004
  -4350505.03947  -3353146.55945
                  22876609.3204                                   22876606.5514
                                                                        44.0004
        30.2504
   5280804.90247   4161851.48445
                  23465922.6804                                   23465919.0204
                                                                        44.0004
        30.2504
