     2.11           OBSERVATION DATA    G (GPS)             RINEX VERSION / TYPE
teqc  2019Feb25                         20221121 12:28:13UTCPGM / RUN BY / DATE
OSX ker:10.11.6|Core i5|gcc 4.3 -m64|OSX ker:10.10+|=+      COMMENT
BIT 2 OF LLI FLAGS DATA COLLECTED UNDER A/S CONDITION       COMMENT
04712840                                                    MARKER NAME
2840                                                        MARKER NUMBER
-Unknown-           -Unknown-                               OBSERVER / AGENCY
0220400471          TRIMBLE R7          2.30                REC # / TYPE / VERS
-Unknown-           TRM39105.00     NONE                    ANT # / TYPE
  1449460.7454 -1709240.9902  5952440.8300                  APPROX POSITION XYZ
        0.0000        0.0000        0.0000                  ANTENNA: DELTA H/E/N
     1     1                                                WAVELENGTH FACT L1/2
    20    L1    L2    L5    L6    L7    L8    C1    P1    C2# / TYPES OF OBSERV
          P2    C5    C6    C7    C8    S1    S2    S5    S6# / TYPES OF OBSERV
          S7    S8                                          # / TYPES OF OBSERV
    30.0000                                                 INTERVAL
    15                                                      LEAP SECONDS
Forced Modulo Decimation to 30 seconds                      COMMENT
 SNR is mapped to RINEX snr flag value [0-9]                COMMENT
  L1 & L2: min(max(int(snr_dBHz/6), 0), 9)                  COMMENT
teqc edited: Beidou # 1 - 37 excluded                       COMMENT
  2009    10    11     0     0    0.0000000     GPS         TIME OF FIRST OBS
                                                            END OF HEADER
 09 10 11  0  0  0.0000000  0  9G02G04G05G13G29G10G23G30G31
 -13611447.30548 -10554948.03947
                  20520563.9694                                   20520558.7734
                                                                        52.2504
        43.5004
  -5097361.72348  -3945743.45346
                  21375596.2734                                   21375593.1094
                                                                        51.2504
        40.0004
  -4100151.56247  -3146095.98844
                  23963465.4454                                   23963462.0664
                                                                        43.7504
        29.2504
 -15755121.51248 -12222798.26646
                  21415455.5554                                   21415451.5514
                                                                        50.5004
        36.0004
 -10930972.93047  -8471105.78545
                  23409828.8444                                   23409826.2624
                                                                        43.0004
        31.0004
 -10255981.06247  -7969854.49245
                  23120946.8914                                   23120944.2304
                                                                        44.0004
        31.0004
  -7370635.06648  -5709776.83645
                  22232118.7664                                   22232113.3164
                                                                        49.0004
        32.7504
  -4311438.67647  -3335248.98444
                  23519851.8914                                   23519848.7664
                                                                        43.2504
        26.7504
  -5009701.94947  -3879403.52044
                  24500806.2274                                   24500803.2234
                                                                        42.0004
        26.5004
 09 10 11  0  0 30.0000000  0  9G02G04G05G13G29G10G23G30G31
 -13714868.59448 -10635536.04347
                  20500883.7194                                   20500878.2384
                                                                        52.5004
        43.5004
  -5118550.68448  -3962254.35546
                  21371564.1954                                   21371560.9924
                                                                        50.5004
        39.0004
  -4300868.30147  -3302498.65245
                  23925270.4144                                   23925266.7584
                                                                        45.0004
        30.0004
 -15876929.52748 -12317713.59446
                  21392276.0704                                   21392272.1054
                                                                        51.0004
        36.5004
 -11104289.94947  -8606157.93045
                  23376847.6484                                   23376845.5944
                                                                        43.0004
        31.7504
 -10453648.48847  -8123881.01644
                  23083332.0164                                   23083329.3204
                                                                        44.2504
        29.5004
  -7408890.60248  -5739586.32445
                  22224839.0634                                   22224833.2504
                                                                        49.2504
        33.5004
  -4322013.65646  -3343489.18044
                  23517839.5164                                   23517836.8324
                                                                        41.7504
        27.0004
  -5029571.43746  -3894886.25044
                  24497025.4534                                   24497021.5944
                                                                        41.5004
        24.0004
 09 10 11  0  1  0.0000000  0  9G02G04G05G13G29G10G23G30G31
 -13817687.18448 -10715654.42247
                  20481317.7194                                   20481312.6054
                                                                        52.7504
        43.7504
  -5139261.25848  -3978392.46146
                  21367623.2664                                   21367620.0394
                                                                        52.0004
        40.0004
  -4501391.28947  -3458750.27745
                  23887111.2114                                   23887108.6564
                                                                        43.2504
        30.0004
 -15998059.91848 -12412100.94946
                  21369225.7194                                   21369221.9734
                                                                        51.2504
        36.7504
 -11277197.66447  -8740891.15245
                  23343944.4064                                   23343941.8794
                                                                        43.7504
        30.7504
 -10651034.93447  -8277688.65645
                  23045770.5394                                   23045767.6094
                                                                        44.0004
        30.0004
  -7446556.47748  -5768936.36345
                  22217671.4924                                   22217665.5004
                                                                        49.0004
        32.7504
  -4332090.45347  -3351341.21544
                  23515921.9384                                   23515919.1764
                                                                        42.7504
        27.5004
  -5048971.12947  -3910002.92644
                  24493334.7034                                   24493329.9304
                                                                        42.2504
        24.7504
 09 10 11  0  1 30.0000000  0  9G02G04G05G13G29G10G23G30G31
 -13919904.35248 -10795304.14847
                  20461866.6954                                   20461861.2234
                                                                        52.5004
        43.5004
  -5159497.03548  -3994160.59846
                  21363772.5474                                   21363769.5634
                                                                        51.7504
        39.5004
  -4701720.53947  -3614850.87945
                  23848990.4224                                   23848987.5634
                                                                        44.5004
        31.0004
 -16118513.31248 -12505960.75046
                  21346304.4304                                   21346300.6214
                                                                        51.2504
        36.2504
 -11449695.68447  -8875305.15245
                  23311118.3204                                   23311116.5314
                                                                        43.5004
        30.2504
 -10848140.15247  -8431277.12945
                  23008263.2344                                   23008260.2664
                                                                        46.0004
        32.0004
  -7483636.03948  -5797829.52045
                  22210615.5314                                   22210609.3444
                                                                        50.0004
        32.0004
  -4341674.31247  -3358809.14844
                  23514097.9224                                   23514095.4264
                                                                        42.5004
        26.2504
  -5067905.08247  -3924756.63343
                  24489731.5164                                   24489726.8364
                                                                        42.7504
        22.2504
 09 10 11  0  2  0.0000000  0  9G02G04G05G13G29G10G23G30G31
 -14021520.56648 -10874485.58247
                  20442529.5394                                   20442524.1054
                                                                        52.7504
        43.2504
  -5179260.82848  -4009560.95346
                  21360011.5474                                   21360008.6134
                                                                        50.0004
        39.2504
  -4901855.84847  -3770800.45745
                  23810905.4384                                   23810903.0864
                                                                        43.0004
        30.5004
 -16238290.20748 -12599293.38346
                  21323511.4614                                   21323508.0784
                                                                        50.7504
        37.2504
 -11621782.77747  -9009398.94145
                  23278372.0704                                   23278368.9844
                                                                        43.5004
        30.7504
 -11044962.95747  -8584645.56245
                  22970809.4844                                   22970805.6914
                                                                        45.5004
        31.7504
  -7520132.44548  -5826268.24245
                  22203670.5944                                   22203664.5004
                                                                        49.2504
        32.0004
  -4350769.30547  -3365896.14544
                  23512367.0164                                   23512364.6724
                                                                        42.7504
        24.7504
  -5086377.02046  -3939150.28943
                  24486215.6884                                   24486211.1564
                                                                        41.5004
        23.7504
 09 10 11  0  2 30.0000000  0  9G02G04G05G13G29G10G23G30G31
 -14122537.04748 -10953199.72747
                  20423306.7734                                   20423301.6134
                                                                        52.7504
        43.2504
  -5198556.22348  -4024596.32846
                  21356339.5784                                   21356336.3674
                                                                        51.0004
        39.5004
  -5101796.79347  -3926598.63345
                  23772858.5554                                   23772855.4804
                                                                        43.2504
        31.5004
 -16357390.72348 -12692098.96546
                  21300847.5164                                   21300843.4454
                                                                        50.7504
        36.7504
 -11793457.59447  -9143171.46145
                  23245703.0004                                   23245700.3164
                                                                        43.5004
        30.5004
 -11241503.29747  -8737793.86745
                  22933408.5164                                   22933405.6374
                                                                        44.0004
        31.0004
  -7556049.38748  -5854255.48445
                  22196836.0314                                   22196829.8914
                                                                        49.2504
        33.0004
  -4359379.64147  -3372605.51644
                  23510728.6254                                   23510726.4574
                                                                        42.2504
        27.0004
  -5104390.69946  -3953186.90243
                  24482788.3444                                   24482783.6644
                                                                        41.7504
        22.0004
 09 10 11  0  3  0.0000000  0  9G02G04G05G13G29G10G23G30G31
 -14222951.30148 -11031444.52347
                  20404198.5944                                   20404193.3874
                                                                        52.5004
        43.0004
  -5217383.42248  -4039266.86746
                  21352757.0164                                   21352753.9694
                                                                        49.7504
        39.5004
  -5301539.52747  -4082242.34845
                  23734848.3834                                   23734845.6844
                                                                        42.5004
        30.0004
 -16475812.16848 -12784375.41046
                  21278312.6484                                   21278308.7664
                                                                        50.7504
        36.7504
 -11964716.60247  -9276619.97345
                  23213113.4224                                   23213110.8714
                                                                        43.0004
        30.5004
 -11437756.75447  -8890718.54345
                  22896062.5864                                   22896060.4654
                                                                        44.0004
        31.7504
  -7591387.15248  -5881791.40245
                  22190111.0164                                   22190105.4184
                                                                        48.7504
        32.5004
  -4367507.07447  -3378938.58644
                  23509182.4224                                   23509179.4104
                                                                        42.7504
        26.0004
  -5121947.51646  -3966867.53943
                  24479447.5004                                   24479443.0864
                                                                        40.5004
        23.0004
 09 10 11  0  3 30.0000000  0  9G02G04G05G13G29G10G23G30G31
 -14322765.52748 -11109221.85547
                  20385204.4694                                   20385199.1454
                                                                        52.2504
        43.5004
  -5235746.59848  -4053575.83246
                  21349262.5864                                   21349259.5514
                                                                        50.7504
        39.2504
  -5501084.96147  -4237732.32845
                  23696876.2894                                   23696873.3484
                                                                        43.5004
        30.2504
 -16593556.17248 -12876123.97746
                  21255906.7584                                   21255902.7974
                                                                        50.5004
        36.0004
 -12135559.87547  -9409744.53545
                  23180603.1334                                   23180600.2234
                                                                        44.0004
        31.0004
 -11633723.97747  -9043420.20745
                  22858771.2424                                   22858768.3134
                                                                        45.0004
        32.5004
  -7626149.94548  -5908879.25045
                  22183495.7814                                   22183489.9384
                                                                        48.5004
        31.7504
  -4375157.11747  -3384899.64844
                  23507726.2664                                   23507723.4024
                                                                        42.5004
        26.5004
  -5139052.04346  -3980195.75043
                  24476191.9924                                   24476188.7274
                                                                        37.2504
        22.7504
 09 10 11  0  4  0.0000000  0  9G02G04G05G13G29G10G23G30G31
 -14421978.35548 -11186530.56247
                  20366324.9534                                   20366319.8094
                                                                        52.0004
        43.5004
  -5253647.06648  -4067524.23846
                  21345856.0864                                   21345853.3524
                                                                        49.7504
        39.5004
  -5700429.51647  -4393065.66045
                  23658943.0234                                   23658939.2114
                                                                        44.2504
        30.7504
 -16710621.70748 -12967343.89846
                  21233629.8674                                   21233625.9304
                                                                        51.0004
        36.5004
 -12305983.98447  -9542542.48445
                  23148172.7894                                   23148170.2934
                                                                        44.0004
        31.2504
 -11829401.86347  -9195896.48845
                  22821535.0554                                   22821531.8874
                                                                        45.0004
        33.2504
  -7660339.16048  -5935520.17245
                  22176990.0004                                   22176984.1094
                                                                        48.5004
        32.5004
  -4382331.54746  -3390490.13344
                  23506361.3054                                   23506358.7544
                                                                        41.2504
        27.0004
  -5155705.98046  -3993172.89144
                  24473022.5704                                   24473019.3484
                                                                        39.2504
        24.0004
 09 10 11  0  4 30.0000000  0  9G02G04G05G13G29G10G23G30G31
 -14520588.87548 -11263369.94147
                  20347560.1174                                   20347554.7934
                                                                        52.7504
        43.5004
  -5271086.62148  -4081113.50846
                  21342537.5704                                   21342534.3914
                                                                        50.5004
        39.0004
  -5899571.84047  -4548241.43745
                  23621047.2114                                   23621043.1524
                                                                        44.2504
        30.0004
 -16827007.00848 -13058033.74646
                  21211482.6174                                   21211478.4574
                                                                        51.0004
        36.2504
 -12475986.69547  -9675012.07845
                  23115822.3674                                   23115819.7974
                                                                        45.2504
        32.0004
 -12024788.36747  -9348145.68745
                  22784354.5394                                   22784350.9024
                                                                        45.5004
        31.2504
  -7693956.39548  -5961715.41845
                  22170593.0234                                   22170587.5664
                                                                        48.5004
        32.7504
  -4389033.72747  -3395712.60944
                  23505085.7344                                   23505082.9774
                                                                        43.7504
        26.7504
  -5171911.52346  -4005800.60944
                  24469939.0704                                   24469935.8834
                                                                        40.0004
        24.7504
 09 10 11  0  5  0.0000000  0  9G02G04G05G13G29G10G23G30G31
 -14618597.77748 -11339740.52747
                  20328909.7034                                   20328904.2894
                                                                        52.5004
        43.0004
  -5288067.87148  -4094345.64546
                  21339306.0164                                   21339302.8794
                                                                        50.0004
        39.0004
  -6098511.18047  -4703259.08645
                  23583189.8984                                   23583186.5164
                                                                        43.5004
        30.2504
 -16942712.37548 -13148193.78946
                  21189464.4064                                   21189460.6134
                                                                        50.5004
        37.2504
 -12645566.76647  -9807152.35945
                  23083552.9304                                   23083549.5554
                                                                        45.5004
        33.0004
 -12219882.38347  -9500167.02345
                  22747229.1174                                   22747225.7194
                                                                        46.5004
        32.2504
  -7727004.88348  -5987467.50045
                  22164303.9064                                   22164297.9654
                                                                        48.5004
        32.0004
  -4395267.77746  -3400570.34444
                  23503899.3914                                   23503896.9384
                                                                        41.2504
        25.5004
  -5187672.76646  -4018082.10944
                  24466940.8754                                   24466936.7504
                                                                        40.0004
        26.5004
 09 10 11  0  5 30.0000000  0 10G02G04G05G13G29G10G23G30G31G25
 -14716001.31248 -11415639.37147
                  20310374.4384                                   20310368.8874
                                                                        53.0004
        43.0004
  -5304589.62148  -4107219.74646
                  21336162.3984                                   21336159.2234
                                                                        50.0004
        39.2504
  -6297242.56247  -4858114.58245
                  23545371.8524                                   23545369.9964
                                                                        43.7504
        31.2504
 -17057733.60248 -13237820.70346
                  21167576.5784                                   21167572.9804
                                                                        51.0004
        37.2504
 -12814718.72747  -9938959.03545
                  23051363.6484                                   23051360.9734
                                                                        44.5004
        32.2504
 -12414678.65247  -9651956.30145
                  22710160.1954                                   22710157.0664
                                                                        45.5004
        31.0004
  -7759483.25048  -6012775.33245
                  22158123.2584                                   22158117.7584
                                                                        48.2504
        32.2504
  -4401033.56647  -3405063.19944
                  23502802.3914                                   23502799.6884
                                                                        42.5004
        25.7504
  -5202988.85246  -4030016.72344
                  24464025.5164                                   24464021.9184
                                                                        40.5004
        26.2504
   -219785.22356   -128640.02353
                  24060698.5234                                   24060696.0274
                                                                        40.0004
        21.0004
 09 10 11  0  6  0.0000000  0 10G02G04G05G13G29G10G23G30G31G25
 -13237381.88348 -10263468.41447
                  20591746.3444                                   20591741.0004
                                                                        52.7504
        43.2504
  -3745239.11748  -2892141.46146
                  21632896.5314                                   21632893.7854
                                                                        50.5004
        39.0004
  -4920343.05147  -3785205.77345
                  23807387.5314                                   23807384.3594
                                                                        44.5004
        31.5004
 -15596652.19548 -12099315.69946
                  21445611.2114                                   21445607.2464
                                                                        51.2504
        36.2504
 -11408020.60547  -8842830.61745
                  23319049.2734                                   23319046.7584
                                                                        44.5004
        32.2504
 -11033754.20347  -8575911.27045
                  22972941.3204                                   22972938.6804
                                                                        45.0004
        30.7504
  -6215978.55147  -4810044.42645
                  22451842.7274                                   22451836.8984
                                                                        47.2504
        32.5004
  -2830919.93047  -2181598.03944
                  23801585.7114                                   23801583.0434
                                                                        43.5004
        27.5004
  -3642447.59447  -2814010.54744
                  24760986.9844                                   24760982.8634
                                                                        43.0004
        27.5004
   1177780.75046    960372.53943
                  24326646.3834                                   24326644.1214
                                                                        39.5004
        21.2504
 09 10 11  0  6 30.0000000  0  9G02G04G05G13G29G10G23G30G25
 -13333590.48848 -10338436.13747
                  20573438.3444                                   20573433.1254
                                                                        52.0004
        43.2504
  -3760864.66048  -2904317.19146
                  21629923.1094                                   21629920.1214
                                                                        49.7504
        39.0004
  -5118668.95347  -3939745.34845
                  23769647.1334                                   23769644.4694
                                                                        44.7504
        32.2504
 -15710320.26648 -12187888.21946
                  21423980.8594                                   21423977.0784
                                                                        51.0004
        37.0004
 -11576325.84847  -8973977.52745
                  23287022.0394                                   23287019.0204
                                                                        44.7504
        32.0004
 -11227965.19547  -8727244.47745
                  22935984.6724                                   22935981.7154
                                                                        44.7504
        32.5004
  -6247339.78548  -4834481.67245
                  22445874.7504                                   22445869.2704
                                                                        48.0004
        32.2504
  -2835775.12547  -2185381.29344
                  23800661.3134                                   23800658.7234
                                                                        42.7504
        27.0004
   1000226.00446    822018.32843
                  24292858.7664                                   24292856.4024
                                                                        39.7504
        22.0004
 09 10 11  0  7  0.0000000  0  9G02G04G05G13G29G10G23G30G25
 -13429202.49248 -10412938.96947
                  20555244.1174                                   20555238.6884
                                                                        52.5004
        43.2504
  -3776046.04748  -2916146.82846
                  21627034.0474                                   21627031.5084
                                                                        50.5004
        38.7504
  -5316790.73447  -4094125.92645
                  23731945.9064                                   23731942.9804
                                                                        44.7504
        31.2504
 -15823312.21948 -12275933.88746
                  21402479.1724                                   21402475.3054
                                                                        51.0004
        36.5004
 -11744205.72747  -9104792.98445
                  23255075.0314                                   23255073.0164
                                                                        45.0004
        32.0004
 -11421882.00847  -8878348.50845
                  22899083.9614                                   22899080.8754
                                                                        46.2504
        33.2504
  -6278147.17248  -4858487.42245
                  22440012.2034                                   22440006.8984
                                                                        48.5004
        32.2504
  -2840181.25447  -2188814.66844
                  23799822.4844                                   23799819.7544
                                                                        43.5004
        27.0004
    822980.42646    683904.99643
                  24259130.5314                                   24259128.2304
                                                                        41.0004
        22.0004
 09 10 11  0  7 30.0000000  0  9G02G04G05G13G29G10G23G30G25
 -13524211.00848 -10486971.58247
                  20537164.3914                                   20537159.0314
                                                                        53.0004
        43.5004
  -3790779.22748  -2927627.21546
                  21624230.9694                                   21624227.5904
                                                                        50.0004
        39.0004
  -5514700.04347  -4248340.93445
                  23694285.0784                                   23694281.6094
                                                                        45.0004
        31.0004
 -15935620.62948 -12363446.92246
                  21381107.6024                                   21381103.9654
                                                                        50.5004
        37.0004
 -11911651.48847  -9235270.18745
                  23223211.5394                                   23223209.0554
                                                                        43.5004
        31.7504
 -11615496.14147  -9029216.64545
                  22862239.8204                                   22862236.9884
                                                                        45.2504
        33.0004
  -6308396.47748  -4882058.32045
                  22434255.8444                                   22434250.0704
                                                                        48.2504
        32.5004
  -2844135.14147  -2191895.62144
                  23799070.3364                                   23799067.4184
                                                                        42.2504
        25.0004
    646052.82847    546039.38743
                  24225461.7504                                   24225458.9024
                                                                        42.0004
        23.7504
 09 10 11  0  8  0.0000000  0  9G02G04G05G13G29G10G23G30G25
 -13618608.14848 -10560527.82047
                  20519201.1174                                   20519195.9964
                                                                        53.0004
        43.5004
  -3805058.67248  -2938754.09846
                  21621513.4924                                   21621510.7344
                                                                        49.5004
        39.2504
  -5712387.93447  -4402383.38345
                  23656665.8364                                   23656662.5004
                                                                        43.5004
        30.7504
 -16047237.35248 -12450421.00046
                  21359867.5084                                   21359863.6724
                                                                        50.2504
        36.7504
 -12078653.63347  -9365401.71145
                  23191432.0704                                   23191429.3714
                                                                        44.5004
        31.5004
 -11808797.97347  -9179841.44945
                  22825455.7274                                   22825452.9534
                                                                        46.2504
        31.5004
  -6338082.42648  -4905190.21545
                  22428607.4064                                   22428601.2774
                                                                        48.2504
        32.2504
  -2847632.71147  -2194621.06244
                  23798404.2894                                   23798401.9064
                                                                        42.5004
        24.2504
    469453.49647    408429.63343
                  24191856.6094                                   24191853.2464
                                                                        42.2504
        22.5004
 09 10 11  0  8 30.0000000  0  9G02G04G05G13G29G10G23G30G25
 -13712397.61748 -10633610.49647
                  20501353.6024                                   20501348.2704
                                                                        53.0004
        43.2504
  -3818890.16848  -2949531.88746
                  21618881.4304                                   21618878.4264
                                                                        50.0004
        38.2504
  -5909856.45747  -4556254.90245
                  23619088.7344                                   23619086.1844
                                                                        43.0004
        30.5004
 -16158166.04348 -12536858.94546
                  21338758.5234                                   21338754.5204
                                                                        50.5004
        36.7504
 -12245213.92247  -9495188.92245
                  23159736.7504                                   23159733.4184
                                                                        44.0004
        32.5004
 -12001789.40247  -9330224.40645
                  22788730.8054                                   22788727.8634
                                                                        46.2504
        33.0004
  -6367210.66847  -4927887.52745
                  22423064.0704                                   22423058.0594
                                                                        47.0004
        32.2504
  -2850680.65247  -2196996.09044
                  23797824.4924                                   23797821.5554
                                                                        43.7504
        25.0004
    293180.93847    271074.43044
                  24158313.3674                                   24158309.6094
                                                                        42.2504
        25.5004
 09 10 11  0  9  0.0000000  0  9G02G04G05G13G29G10G23G30G25
 -13805579.40248 -10706219.64147
                  20483621.8284                                   20483616.4694
                                                                        51.7504
        43.5004
  -3832276.19548  -2959962.57846
                  21616334.0784                                   21616331.1604
                                                                        51.2504
        39.2504
  -6107104.02747  -4709954.24245
                  23581554.5314                                   23581551.4654
                                                                        45.0004
        33.0004
 -16268406.08648 -12622760.25846
                  21317780.4534                                   21317776.4024
                                                                        50.2504
        36.5004
 -12411329.81247  -9624629.87145
                  23128125.9534                                   23128122.5164
                                                                        45.0004
        30.7504
 -12194468.65247  -9480364.06245
                  22752065.4384                                   22752062.0554
                                                                        46.2504
        32.5004
  -6395783.91048  -4950152.40645
                  22417626.5164                                   22417621.0204
                                                                        48.0004
        31.5004
  -2853282.46147  -2199023.45744
                  23797329.3834                                   23797327.3164
                                                                        44.0004
        24.7504
    117237.45746    133975.64843
                  24124832.1724                                   24124828.6914
                                                                        41.5004
        21.7504
 09 10 11  0  9 30.0000000  0  9G02G04G05G13G29G10G23G30G25
 -13898153.93048 -10778355.65247
                  20466005.5004                                   20465999.9734
                                                                        52.2504
        43.2504
  -3845219.17248  -2970048.01646
                  21613871.1564                                   21613868.1994
                                                                        50.7504
        39.0004
  -6304129.32447  -4863480.44145
                  23544061.8204                                   23544058.2774
                                                                        44.5004
        33.7504
 -16377957.63348 -12708125.09046
                  21296933.6024                                   21296929.8984
                                                                        50.0004
        37.2504
 -12577000.31647  -9753723.72345
                  23096599.6024                                   23096596.3244
                                                                        43.5004
        31.5004
 -12386834.06647  -9630259.15645
                  22715459.1414                                   22715456.2704
                                                                        46.5004
        32.2504
  -6423804.97748  -4971986.98845
                  22412294.6094                                   22412288.5634
                                                                        48.7504
        31.7504
  -2855442.33647  -2200706.45344
                  23796918.7194                                   23796916.0704
                                                                        44.5004
        26.2504
    -58374.57446     -2864.79743
                  24091413.2424                                   24091410.7664
                                                                        39.5004
        20.2504
 09 10 11  0 10  0.0000000  0  9G02G04G05G13G29G10G23G30G25
 -13990123.64848 -10850020.35947
                  20448504.3204                                   20448498.8134
                                                                        52.0004
        43.5004
  -3857724.19548  -2979792.18046
                  21611491.6564                                   21611488.5234
                                                                        50.5004
        38.2504
  -6500933.53947  -5016834.33645
                  23506610.9614                                   23506608.1954
                                                                        45.2504
        32.5004
 -16486823.56648 -12792955.68746
                  21276216.9774                                   21276213.4064
                                                                        50.0004
        36.7504
 -12742225.81247  -9882470.84845
                  23065158.6804                                   23065155.2974
                                                                        43.7504
        32.0004
 -12578886.85247  -9779910.67245
                  22678912.7584                                   22678909.6374
                                                                        46.5004
        33.5004
  -6451279.30947  -4993395.55945
                  22407066.2894                                   22407060.7234
                                                                        47.0004
        31.5004
  -2857166.25047  -2202049.76644
                  23796590.4534                                   23796588.2624
                                                                        44.2504
        26.2504
   -233656.00046   -139447.55143
                  24058058.3834                                   24058055.2464
                                                                        40.5004
        20.0004
 09 10 11  0 10 30.0000000  0  9G02G04G05G13G29G10G23G30G25
 -14081487.67648 -10921213.07447
                  20431117.9694                                   20431112.7814
                                                                        52.5004
        43.2504
  -3869792.35548  -2989195.93046
                  21609194.7584                                   21609192.2464
                                                                        51.5004
        38.7504
  -6697514.02047  -5170013.88345
                  23469203.0314                                   23469199.4964
                                                                        45.0004
        32.5004
 -16595001.81648 -12877250.42246
                  21255631.5084                                   21255627.6524
                                                                        50.5004
        36.5004
 -12907003.69547 -10010869.18045
                  23033801.3674                                   23033799.3794
                                                                        43.0004
        32.2504
 -12770624.43047  -9929316.62145
                  22642426.0314                                   22642423.2034
                                                                        47.0004
        34.0004
  -6478207.78947  -5014378.78145
                  22401941.9224                                   22401935.9454
                                                                        47.0004
        31.2504
  -2858457.16447  -2203055.68444
                  23796345.5474                                   23796342.2304
                                                                        44.2504
        26.2504
   -408602.67246   -275769.50443
                  24024767.4694                                   24024764.1054
                                                                        41.0004
        20.0004
 09 10 11  0 11  0.0000000  0  9G02G04G05G13G29G10G23G30G25
 -14172248.48848 -10991935.78947
                  20413846.9614                                   20413841.4844
                                                                        53.0004
        43.5004
  -3881428.33248  -2998262.92646
                  21606980.6884                                   21606978.1684
                                                                        51.0004
        38.7504
  -6893871.02347  -5323019.32445
                  23431837.1564                                   23431833.7464
                                                                        45.0004
        31.2504
 -16702495.15248 -12961011.46146
                  21235176.2814                                   21235172.2274
                                                                        49.7504
        37.2504
 -13071333.53547 -10138918.37545
                  23002531.1094                                   23002528.7194
                                                                        43.2504
        32.5004
 -12962046.67647 -10078476.79745
                  22605999.8984                                   22605996.8204
                                                                        46.5004
        33.7504
  -6504595.57847  -5034940.67245
                  22396920.5554                                   22396914.9304
                                                                        47.0004
        31.2504
  -2859319.84447  -2203727.90644
                  23796181.2034                                   23796178.3324
                                                                        44.0004
        26.0004
   -583215.27347   -411831.23043
                  23991540.0864                                   23991536.3874
                                                                        43.0004
        22.7504
 09 10 11  0 11 30.0000000  0  9G02G04G05G13G29G10G23G30G25
 -14262407.96148 -11062189.91447
                  20396690.1804                                   20396684.8054
                                                                        53.2504
        43.2504
  -3892636.56648  -3006996.60946
                  21604847.7664                                   21604844.8794
                                                                        50.0004
        38.5004
  -7090005.66847  -5475851.53545
                  23394514.0634                                   23394510.6954
                                                                        44.5004
        31.7504
 -16809304.62548 -13044239.61346
                  21214851.1094                                   21214847.4064
                                                                        50.0004
        36.5004
 -13235216.12547 -10266619.08245
                  22971345.6024                                   22971343.0594
                                                                        44.0004
        34.0004
 -13153154.19947 -10227391.77345
                  22569633.2504                                   22569630.2194
                                                                        46.7504
        33.5004
  -6530447.05147  -5055084.65645
                  22392001.2114                                   22391995.3444
                                                                        47.5004
        31.5004
  -2859760.49247  -2204071.29744
                  23796096.8284                                   23796094.2114
                                                                        43.7504
        24.2504
   -757493.02347   -547632.00444
                  23958376.3754                                   23958372.6484
                                                                        43.2504
        26.2504
 09 10 11  0 12  0.0000000  0  9G02G04G05G13G29G10G23G30G25
 -14351964.38348 -11131974.12547
                  20379648.0864                                   20379642.7814
                                                                        52.5004
        43.0004
  -3903417.28948  -3015397.16846
                  21602796.1564                                   21602793.2074
                                                                        51.0004
        38.5004
  -7285914.48447  -5628507.78145
                  23357234.1484                                   23357230.8404
                                                                        46.0004
        32.2504
 -16915428.56648 -13126933.60546
                  21194656.1954                                   21194652.3984
                                                                        49.5004
        37.0004
 -13398647.87947 -10393968.50045
                  22940245.7974                                   22940242.4734
                                                                        44.2504
        33.5004
 -13343943.18447 -10376058.50445
                  22533327.3594                                   22533324.4104
                                                                        45.7504
        33.5004
  -6555762.98847  -5074811.35545
                  22387183.8674                                   22387178.0594
                                                                        47.5004
        31.7504
  -2859780.86747  -2204087.18744
                  23796093.0554                                   23796090.2734
                                                                        44.2504
        25.2504
   -931432.19147   -683169.01244
                  23925276.2974                                   23925273.4694
                                                                        42.7504
        25.2504
 09 10 11  0 12 30.0000000  0  9G02G04G05G13G29G10G23G30G25
 -14440916.94948 -11201287.78147
                  20362721.0634                                   20362715.7934
                                                                        52.2504
        43.7504
  -3913772.25448  -3023465.96546
                  21600826.0394                                   21600822.3554
                                                                        51.0004
        38.0004
  -7481595.04347  -5780986.21945
                  23319996.8054                                   23319993.9574
                                                                        45.5004
        32.5004
 -17020866.25848 -13209092.86346
                  21174592.2974                                   21174588.1644
                                                                        49.2504
        37.0004
 -13561625.21547 -10520963.79345
                  22909232.2894                                   22909229.1414
                                                                        44.7504
        34.0004
 -13534411.34847 -10524475.21945
                  22497082.0944                                   22497079.5634
                                                                        47.5004
        34.0004
  -6580545.30148  -5094122.25045
                  22382467.9304                                   22382462.3404
                                                                        48.5004
        31.5004
  -2859383.73447  -2203777.73044
                  23796169.3364                                   23796165.8324
                                                                        43.5004
        25.5004
  -1105029.65646   -818439.75443
                  23892241.0944                                   23892238.8874
                                                                        41.5004
        22.7504
 09 10 11  0 13  0.0000000  0  9G02G04G05G13G29G10G23G30G25
 -14529273.47748 -11270137.00847
                  20345907.2424                                   20345901.9614
                                                                        52.2504
        43.7504
  -3923711.25448  -3031210.62146
                  21598934.6024                                   21598931.6414
                                                                        50.0004
        38.0004
  -7677052.30547  -5933290.57445
                  23282803.0314                                   23282800.0744
                                                                        45.7504
        33.7504
 -17125625.34048 -13290723.33246
                  21154657.2894                                   21154653.2934
                                                                        50.0004
        37.7504
 -13724154.21547 -10647609.76645
                  22878303.6484                                   22878300.6564
                                                                        44.5004
        33.5004
 -13724564.20747 -10672646.20345
                  22460897.5944                                   22460894.4694
                                                                        46.5004
        34.0004
  -6604803.76647  -5113024.92645
                  22377852.1094                                   22377845.4184
                                                                        47.2504
        31.5004
  -2858579.58647  -2203151.09043
                  23796321.6954                                   23796318.5944
                                                                        43.5004
        23.0004
  -1278290.52346   -953448.22344
                  23859270.3984                                   23859268.6334
                                                                        40.0004
        24.5004
 09 10 11  0 13 30.0000000  0  9G02G04G05G13G29G10G23G30G25
 -14617024.89548 -11338514.69547
                  20329208.7814                                   20329203.1844
                                                                        52.0004
        43.2504
  -3933227.29348  -3038625.72746
                  21597123.7584                                   21597120.5904
                                                                        50.2504
        38.5004
  -7872276.95747  -6085413.70345
                  23245653.5634                                   23245649.8444
                                                                        46.5004
        35.0004
 -17229695.78548 -13371817.19146
                  21134853.5234                                   21134849.5824
                                                                        49.7504
        37.2504
 -13886223.76647 -10773897.70345
                  22847462.9614                                   22847459.5554
                                                                        43.2504
        32.5004
 -13914390.98447 -10820563.15645
                  22424774.6334                                   22424771.5824
                                                                        46.2504
        34.0004
  -6628531.85947  -5131514.34045
                  22373336.3364                                   22373330.5474
                                                                        47.7504
        31.5004
  -2857362.89847  -2202203.02044
                  23796553.2974                                   23796550.6214
                                                                        43.5004
        25.0004
  -1451202.89846  -1088185.08643
                  23826366.3674                                   23826364.3014
                                                                        40.5004
        22.7504
 09 10 11  0 14  0.0000000  0  9G02G04G05G13G29G10G23G30G25
 -14704175.23048 -11406424.03547
                  20312624.6724                                   20312619.4454
                                                                        51.5004
        43.2504
  -3942326.55148  -3045716.07446
                  21595392.0554                                   21595389.4384
                                                                        51.0004
        38.0004
  -8067271.10547  -6237357.18045
                  23208547.3134                                   23208543.6134
                                                                        46.2504
        34.0004
 -17333081.94948 -13452377.83646
                  21115179.8134                                   21115175.6804
                                                                        49.7504
        37.0004
 -14047836.37147 -10899829.61745
                  22816709.0944                                   22816705.4614
                                                                        43.7504
        32.7504
 -14103893.92647 -10968227.74645
                  22388713.0704                                   22388710.1564
                                                                        46.2504
        33.0004
  -6651736.14147  -5149595.59445
                  22368920.6564                                   22368914.9694
                                                                        47.7504
        31.5004
  -2855742.08647  -2200940.03144
                  23796861.6174                                   23796858.8094
                                                                        43.5004
        25.5004
  -1623768.64546  -1222651.80543
                  23793528.8834                                   23793525.4304
                                                                        41.5004
        22.0004
 09 10 11  0 14 30.0000000  0  9G02G04G05G13G29G10G23G30G25
 -14790722.93048 -11473863.80947
                  20296155.0314                                   20296149.6524
                                                                        52.0004
        43.5004
  -3951009.74248  -3052482.21946
                  21593739.8284                                   21593736.5944
                                                                        50.2504
        37.7504
  -8262030.37947  -6389117.64145
                  23171485.3054                                   23171481.7814
                                                                        45.2504
        33.2504
 -17435781.69948 -13532403.60546
                  21095636.7584                                   21095632.4844
                                                                        49.5004
        36.5004
 -14208987.51247 -11025401.91445
                  22786043.2194                                   22786039.5984
                                                                        45.0004
        32.5004
 -14293069.14847 -11115636.97745
                  22352714.5554                                   22352710.8324
                                                                        46.5004
        33.5004
  -6674417.46147  -5167269.35545
                  22364604.5784                                   22364598.7304
                                                                        47.2504
        30.5004
  -2853717.90647  -2199362.76644
                  23797246.9144                                   23797243.9344
                                                                        43.0004
        26.0004
  -1795983.67247  -1356845.29343
                  23760757.4224                                   23760753.8054
                                                                        43.0004
        22.7504
 09 10 11  0 15  0.0000000  0  9G02G04G05G13G29G10G23G30G25
 -13301248.43048 -10313234.34047
                  20579592.7584                                   20579587.3134
                                                                        52.0004
        43.0004
  -2383862.06648  -1831328.20346
                  21891958.1804                                   21891954.7114
                                                                        49.7504
        37.5004
  -6881130.50847  -5313091.71145
                  23434261.1724                                   23434258.6334
                                                                        43.5004
        31.7504
 -15962374.95748 -12384294.47746
                  21376016.4614                                   21376012.7774
                                                                        49.2504
        36.7504
 -12794253.65647  -9923011.89845
                  23055257.5944                                   23055254.6764
                                                                        44.5004
        32.0004
 -12906492.25447 -10035187.41845
                  22616571.5784                                   22616568.1764
                                                                        46.5004
        33.5004
  -5121160.66847  -3956939.39545
                  22660179.3284                                   22660173.5744
                                                                        46.0004
        30.5004
  -1275877.63947   -969876.80544
                  24097500.0784                                   24097497.1724
                                                                        42.7504
        26.2504
   -392423.18047   -263161.81643
                  24027846.5634                                   24027842.0004
                                                                        44.7504
        22.5004
 09 10 11  0 15 30.0000000  0  9G02G04G05G13G29G10G23G30G25
 -13386595.26248 -10379738.39147
                  20563351.8134                                   20563346.4774
                                                                        52.0004
        43.2504
  -2391724.05548  -1837454.43046
                  21890462.0944                                   21890459.0944
                                                                        49.0004
        37.7504
  -7075420.52747  -5464486.48845
                  23397289.2274                                   23397285.9654
                                                                        45.0004
        32.2504
 -16063706.52748 -12463254.17246
                  21356733.7344                                   21356729.8874
                                                                        49.0004
        37.0004
 -12954480.99247 -10047864.34045
                  23024767.6884                                   23024764.2504
                                                                        44.0004
        32.0004
 -13095011.28947 -10182085.31645
                  22580697.1564                                   22580694.0204
                                                                        46.5004
        34.0004
  -5142807.73447  -3973807.24645
                  22656060.5554                                   22656054.4534
                                                                        47.2504
        31.0004
  -1273062.33246   -967683.10244
                  24098035.4304                                   24098033.1374
                                                                        41.0004
        26.5004
   -563934.00447   -396806.69143
                  23995208.7664                                   23995205.0314
                                                                        43.0004
        22.5004
 09 10 11  0 16  0.0000000  0  9G02G04G05G13G29G10G23G30G25
 -13471341.87548 -10445774.68747
                  20547225.1414                                   20547219.5274
                                                                        52.5004
        43.2504
  -2399178.87948  -1843263.40246
                  21889043.3284                                   21889040.6914
                                                                        48.5004
        38.0004
  -7269473.63347  -5615696.66445
                  23360363.1174                                   23360358.9344
                                                                        47.2504
        33.5004
 -16164353.87948 -12541680.71146
                  21337581.3524                                   21337577.4614
                                                                        48.5004
        37.0004
 -13114243.62947 -10172354.73045
                  22994365.2894                                   22994362.5044
                                                                        43.7504
        33.5004
 -13283199.30547 -10328725.32045
                  22544886.2034                                   22544883.4064
                                                                        45.2504
        34.5004
  -5163941.69147  -3990275.27045
                  22652038.3984                                   22652032.1414
                                                                        46.5004
        30.5004
  -1269856.49646   -965185.03144
                  24098645.6024                                   24098643.2154
                                                                        40.0004
        25.0004
   -735089.24246   -530174.40243
                  23962638.6484                                   23962635.6484
                                                                        40.7504
        22.2504
 09 10 11  0 16 30.0000000  0  9G02G04G05G13G29G10G23G30G25
 -13555487.94948 -10511343.05547
                  20531212.4454                                   20531206.9574
                                                                        52.0004
        43.0004
  -2406228.25048  -1848756.44146
                  21887701.9844                                   21887699.2074
                                                                        49.5004
        37.7504
  -7463287.36347  -5766720.34045
                  23323481.3134                                   23323477.4884
                                                                        47.5004
        33.5004
 -16264316.29348 -12619573.52046
                  21318559.2504                                   21318554.9774
                                                                        48.5004
        36.7504
 -13273539.18747 -10296481.17645
                  22964052.8524                                   22964050.0084
                                                                        43.7504
        33.2504
 -13471054.16447 -10475105.70745
                  22509138.6254                                   22509135.6024
                                                                        46.0004
        34.7504
  -5184564.11347  -4006344.67645
                  22648114.3204                                   22648108.3014
                                                                        46.2504
        30.5004
  -1266263.23046   -962385.08243
                  24099329.1954                                   24099326.8914
                                                                        39.0004
        22.5004
   -905885.88346   -663262.69543
                  23930136.9224                                   23930134.4264
                                                                        39.5004
        22.7504
 09 10 11  0 17  0.0000000  0  9G02G04G05G13G29G10G23G30G25
 -13639034.27348 -10576444.09447
                  20515314.1484                                   20515308.9224
                                                                        51.7504
        43.2504
  -2412874.98848  -1853935.71946
                  21886437.1334                                   21886434.3524
                                                                        50.0004
        37.2504
  -7656861.03947  -5917556.96545
                  23286644.8594                                   23286641.3134
                                                                        47.7504
        34.5004
 -16363594.20748 -12696932.92246
                  21299667.3914                                   21299663.1844
                                                                        49.2504
        36.7504
 -13432365.97347 -10420242.35545
                  22933828.8914                                   22933826.3164
                                                                        45.0004
        34.0004
 -13658574.48047 -10621225.41845
                  22473455.0784                                   22473451.2344
                                                                        46.5004
        34.2504
  -5204678.49248  -4022018.19145
                  22644287.0314                                   22644281.0594
                                                                        48.0004
        32.0004
  -1262286.49646   -959286.23443
                  24100086.4224                                   24100083.4494
                                                                        40.0004
        22.5004
  -1076322.29746   -796070.27043
                  23897704.1414                                   23897701.3324
                                                                        38.2504
        22.5004
 09 10 11  0 17 30.0000000  0  9G02G04G05G13G29G10G23G30G25
 -13721979.55948 -10641076.77747
                  20499530.1174                                   20499524.7584
                                                                        52.2504
        43.0004
  -2419120.22348  -1858802.15246
                  21885248.7424                                   21885245.9224
                                                                        49.7504
        37.0004
  -7850191.16447  -6068203.75445
                  23249855.0394                                   23249852.5514
                                                                        46.0004
        33.7504
 -16462186.76248 -12773758.30946
                  21280905.7274                                   21280901.4264
                                                                        49.2504
        36.2504
 -13590720.72347 -10543635.68445
                  22903695.4774                                   22903692.8834
                                                                        46.0004
        33.7504
 -13845756.64847 -10767081.64145
                  22437834.7664                                   22437832.1764
                                                                        46.2504
        34.2504
  -5224286.31647  -4037297.03945
                  22640555.5944                                   22640549.0704
                                                                        47.2504
        30.5004
  -1257928.45347   -955890.34043
                  24100915.0864                                   24100912.1764
                                                                        42.5004
        22.0004
  -1246394.87146   -928594.30143
                  23865340.3284                                   23865338.1054
                                                                        40.5004
        23.7504
 09 10 11  0 18  0.0000000  0  9G02G04G05G13G29G10G23G30G25
 -13804323.28148 -10705240.73447
                  20483860.7114                                   20483855.4574
                                                                        51.7504
        43.5004
  -2424965.48448  -1863356.93446
                  21884136.4384                                   21884133.5044
                                                                        49.0004
        36.7504
  -8043275.78547  -6218659.25445
                  23213112.1254                                   23213109.5864
                                                                        46.5004
        33.5004
 -16560092.99648 -12850048.85946
                  21262274.7114                                   21262271.0864
                                                                        49.2504
        37.0004
 -13748601.04347 -10666659.28145
                  22873651.8444                                   22873648.7114
                                                                        45.5004
        34.7504
 -14032599.03147 -10912673.10545
                  22402279.8054                                   22402277.2894
                                                                        46.0004
        34.0004
  -5243389.03947  -4052182.27345
                  22636920.0634                                   22636914.4694
                                                                        45.7504
        30.7504
  -1253192.23046   -952199.72743
                  24101817.0004                                   24101813.1804
                                                                        41.7504
        22.7504
  -1416100.16847  -1060832.14544
                  23833047.0474                                   23833043.9384
                                                                        42.2504
        25.5004
 09 10 11  0 18 30.0000000  0  9G02G04G05G13G29G10G23G30G25
 -13886065.78948 -10768936.20747
                  20468305.8364                                   20468300.5394
                                                                        52.5004
        43.0004
  -2430412.78948  -1867601.57446
                  21883099.7734                                   21883096.5704
                                                                        50.0004
        37.5004
  -8236112.99647  -6368921.98845
                  23176417.6484                                   23176414.1884
                                                                        47.7504
        34.5004
 -16657313.28148 -12925804.89146
                  21243774.2424                                   21243770.3984
                                                                        50.0004
        37.5004
 -13906004.94947 -10789311.66445
                  22843698.5634                                   22843695.8404
                                                                        45.5004
        33.5004
 -14219099.50447 -11057998.13345
                  22366790.2114                                   22366787.1644
                                                                        47.5004
        34.0004
  -5261989.37947  -4066676.05545
                  22633380.8134                                   22633375.3284
                                                                        46.2504
        31.2504
  -1248081.20747   -948217.09843
                  24102789.0784                                   24102785.5554
                                                                        43.7504
        22.5004
  -1585436.29347  -1192782.43444
                  23800823.4454                                   23800820.1954
                                                                        42.0004
        26.7504
 09 10 11  0 19  0.0000000  0  9G02G04G05G13G29G10G23G30G25
 -13967210.74648 -10832166.04747
                  20452864.3754                                   20452858.6804
                                                                        51.5004
        42.7504
  -2435468.05548  -1871540.75046
                  21882138.2344                                   21882134.8404
                                                                        48.7504
        37.2504
  -8428704.55148  -6518993.32045
                  23139768.4454                                   23139764.4184
                                                                        48.0004
        34.0004
 -16753851.27748 -13001029.29346
                  21225403.3364                                   21225399.6214
                                                                        49.0004
        36.7504
 -14062934.05947 -10911594.05145
                  22813835.6334                                   22813832.9614
                                                                        45.7504
        33.2504
 -14405259.66047 -11203057.98445
                  22331365.5554                                   22331362.3134
                                                                        47.0004
        34.7504
  -5280093.47347  -4080783.18045
                  22629935.2114                                   22629929.8484
                                                                        47.0004
        30.0004
  -1242602.75847   -943948.21944
                  24103831.6484                                   24103828.8754
                                                                        43.5004
        24.2504
  -1754404.22347  -1324445.82444
                  23768670.0474                                   23768666.0044
                                                                        42.0004
        25.0004
 09 10 11  0 19 30.0000000  0  9G02G04G05G13G29G10G23G30G25
 -14047755.66048 -10894928.30947
                  20437537.0314                                   20437531.8204
                                                                        52.0004
        43.0004
  -2440130.89848  -1875174.13746
                  21881250.6174                                   21881247.8954
                                                                        49.5004
        37.7504
  -8621045.99247  -6668869.72345
                  23103166.9064                                   23103163.2304
                                                                        47.7504
        34.0004
 -16849703.80148 -13075719.56246
                  21207163.6334                                   21207159.7274
                                                                        50.0004
        36.7504
 -14219383.40647 -11033502.60245
                  22784064.8054                                   22784061.5744
                                                                        45.5004
        33.2504
 -14591074.35247 -11347848.62945
                  22296006.1174                                   22296002.7234
                                                                        47.2504
        35.2504
  -5297700.81647  -4094503.19145
                  22626585.2814                                   22626579.0164
                                                                        46.0004
        30.2504
  -1236756.41447   -939392.54743
                  24104944.1564                                   24104941.7464
                                                                        42.7504
        22.2504
  -1922998.57446  -1455818.03143
                  23736587.1094                                   23736583.6884
                                                                        40.7504
        22.7504
 09 10 11  0 20  0.0000000  0  9G02G04G05G13G29G10G23G30G25
 -14127701.23848 -10957223.54747
                  20422323.9144                                   20422318.3324
                                                                        51.7504
        43.0004
  -2444403.54748  -1878503.47346
                  21880437.7034                                   21880434.5784
                                                                        49.7504
        37.0004
  -8813136.16447  -6818550.34845
                  23066613.1724                                   23066609.6484
                                                                        47.5004
        34.0004
 -16944871.32848 -13149876.05146
                  21189053.5634                                   21189049.1604
                                                                        49.7504
        36.5004
 -14375351.83247 -11155036.41445
                  22754384.6484                                   22754381.8794
                                                                        45.7504
        33.5004
 -14776542.55147 -11492369.28945
                  22260712.4224                                   22260709.2774
                                                                        47.0004
        34.0004
  -5314814.55547  -4107838.55145
                  22623328.3284                                   22623322.6844
                                                                        45.5004
        30.5004
  -1230547.13746   -934554.18443
                  24106125.8754                                   24106123.1724
                                                                        41.7504
        22.5004
  -2091217.29746  -1586897.46543
                  23704575.9384                                   23704572.9844
                                                                        40.0004
        22.2504
 09 10 11  0 20 30.0000000  0  9G02G04G05G13G29G10G23G30G25
 -14207048.33248 -11019052.43747
                  20407224.7034                                   20407219.3714
                                                                        51.0004
        43.0004
  -2448289.81248  -1881531.74246
                  21879698.1884                                   21879695.3014
                                                                        49.0004
        37.2504
  -9004973.80947  -6968034.21945
                  23030107.3914                                   23030104.2894
                                                                        47.2504
        33.7504
 -17039355.70748 -13223500.21946
                  21171073.4144                                   21171069.8204
                                                                        50.0004
        36.7504
 -14530837.91847 -11276194.36345
                  22724796.7274                                   22724793.7544
                                                                        46.0004
        34.0004
 -14961663.07447 -11636619.03545
                  22225484.9774                                   22225481.5394
                                                                        46.7504
        34.7504
  -5331438.48047  -4120792.25445
                  22620165.3284                                   22620159.1054
                                                                        47.0004
        30.7504
  -1223978.81647   -929436.02743
                  24107375.7034                                   24107373.4574
                                                                        42.0004
        22.5004
  -2259059.81646  -1717683.83643
                  23672636.5234                                   23672633.4144
                                                                        39.2504
        22.5004
 09 10 11  0 21  0.0000000  0  9G02G04G05G13G29G10G23G30G25
 -14285793.35948 -11080412.19147
                  20392240.1804                                   20392234.7424
                                                                        52.0004
        43.5004
  -2451787.46548  -1884257.20746
                  21879032.2664                                   21879029.7114
                                                                        50.0004
        37.0004
  -9196553.97347  -7117317.41045
                  22993651.3134                                   22993648.0124
                                                                        47.5004
        34.5004
 -17133152.41448 -13296588.54346
                  21153224.8834                                   21153221.0984
                                                                        49.5004
        37.2504
 -14685836.26247 -11396972.28145
                  22695300.9304                                   22695298.4184
                                                                        45.5004
        33.5004
 -15146430.45747 -11780593.61745
                  22190324.9774                                   22190321.4774
                                                                        47.7504
        35.0004
  -5347571.16047  -4133363.14545
                  22617095.3204                                   22617088.9494
                                                                        46.7504
        30.5004
  -1217051.27747   -924037.99244
                  24108693.9844                                   24108691.6334
                                                                        42.0004
        24.2504
  -2426518.78546  -1848171.21544
                  23640770.1884                                   23640767.5124
                                                                        40.0004
        26.0004
 09 10 11  0 21 30.0000000  0  9G02G04G05G13G29G10G23G30G25
 -14363937.31648 -11141303.57447
                  20377369.6644                                   20377364.2854
                                                                        52.2504
        43.0004
  -2454899.35948  -1886682.07846
                  21878440.4774                                   21878437.2234
                                                                        50.0004
        36.7504
  -9387874.96147  -7266398.64145
                  22957243.6564                                   22957240.8754
                                                                        47.7504
        35.2504
 -17226262.64548 -13369141.96946
                  21135506.7274                                   21135502.8094
                                                                        49.2504
        36.7504
 -14840344.64847 -11517368.42245
                  22665898.8834                                   22665896.3674
                                                                        46.2504
        34.5004
 -15330843.14547 -11924291.79745
                  22155232.7194                                   22155229.7974
                                                                        47.0004
        35.5004
  -5363215.31647  -4145553.40645
                  22614118.1024                                   22614112.2464
                                                                        46.5004
        30.7504
  -1209767.86747   -918362.53944
                  24110080.6024                                   24110077.4104
                                                                        43.7504
        25.2504
  -2593592.87947  -1978358.73044
                  23608976.6804                                   23608974.4614
                                                                        42.0004
        25.2504
 09 10 11  0 22  0.0000000  0  8G02G04G05G13G29G10G23G25
 -14441481.95748 -11201727.95347
                  20362613.4144                                   20362608.0904
                                                                        51.2504
        42.5004
  -2457629.70748  -1888809.61746
                  21877920.7734                                   21877918.0394
                                                                        50.0004
        36.7504
  -9578936.52047  -7415277.76645
                  22920885.9774                                   22920882.8244
                                                                        47.2504
        34.5004
 -17318688.14148 -13441161.82446
                  21117918.7894                                   21117914.5044
                                                                        48.5004
        37.0004
 -14994363.55547 -11637383.14845
                  22636590.8834                                   22636587.6214
                                                                        45.7504
        34.0004
 -15514901.11347 -12067713.58246
                  22120207.5944                                   22120204.6024
                                                                        46.7504
        36.0004
  -5378375.69547  -4157366.66444
                  22611233.0634                                   22611226.9804
                                                                        45.2504
        29.7504
  -2760281.57847  -2108245.95344
                  23577257.3984                                   23577254.7544
                                                                        42.7504
        25.7504
 09 10 11  0 22 30.0000000  0  8G02G04G05G13G29G10G23G25
 -14518424.32048 -11261683.04747
                  20347971.6884                                   20347966.3954
                                                                        52.5004
        43.2504
  -2459977.25448  -1890638.86346
                  21877473.9614                                   21877470.7814
                                                                        49.7504
        36.5004
  -9769734.29348  -7563951.35945
                  22884578.3914                                   22884575.3914
                                                                        48.2504
        35.2504
 -17410425.60248 -13512645.55146
                  21100461.5474                                   21100457.8794
                                                                        49.0004
        37.0004
 -15147887.97347 -11757012.51245
                  22607375.6254                                   22607372.9964
                                                                        46.2504
        34.2504
 -15698599.13347 -12210854.90246
                  22085250.9384                                   22085248.0434
                                                                        47.5004
        36.0004
  -5393050.84447  -4168801.84444
                  22608440.4144                                   22608434.7974
                                                                        44.7504
        28.2504
  -2926579.01247  -2237828.31644
                  23545612.0394                                   23545608.9104
                                                                        43.7504
        27.5004
 09 10 11  0 23  0.0000000  0  8G02G04G05G13G29G10G23G25
 -14594762.53948 -11321167.35547
                  20333445.0554                                   20333439.7304
                                                                        53.0004
        43.2504
  -2461941.93448  -1892169.80546
                  21877100.4304                                   21877097.0434
                                                                        48.0004
        36.7504
  -9960263.99648  -7712416.06245
                  22848322.1564                                   22848318.3594
                                                                        48.2504
        35.0004
 -17501472.99248 -13583591.56646
                  21083135.7194                                   21083131.8984
                                                                        48.5004
        36.5004
 -15300913.66847 -11876253.27345
                  22578255.9614                                   22578253.7194
                                                                        45.5004
        34.5004
 -15881933.00847 -12353712.48445
                  22050363.5084                                   22050360.6214
                                                                        47.5004
        35.0004
  -5407241.90647  -4179859.84444
                  22605740.3364                                   22605734.3914
                                                                        45.0004
        29.5004
  -3092480.59447  -2367102.32444
                  23514042.5474                                   23514038.9884
                                                                        43.7504
        26.0004
 09 10 11  0 23 30.0000000  0  8G02G04G05G13G29G10G23G25
 -14670492.62148 -11380177.78947
                  20319033.9924                                   20319028.2424
                                                                        52.7504
        44.0004
  -2463521.84048  -1893400.89146
                  21876799.6804                                   21876796.3594
                                                                        49.0004
        36.2504
 -10150519.86347  -7860667.42646
                  22812117.5394                                   22812113.8954
                                                                        47.7504
        36.0004
 -17591826.53948 -13653996.91846
                  21065942.1804                                   21065938.3204
                                                                        49.5004
        37.0004
 -15453434.01647 -11995100.26645
                  22549232.2664                                   22549229.7274
                                                                        46.0004
        34.7504
 -16064896.45347 -12496281.45345
                  22015546.5944                                   22015543.2854
                                                                        47.7504
        35.5004
  -5420947.27347  -4190539.37145
                  22603131.7194                                   22603126.7274
                                                                        44.7504
        30.0004
  -3257979.95747  -2496062.84444
                  23482548.3914                                   23482544.6454
                                                                        43.5004
        25.7504
 09 10 11  0 24  0.0000000  0  8G02G04G05G13G29G10G23G25
 -13170195.83648 -10211115.35247
                  20604531.0634                                   20604525.9144
                                                                        52.7504
        43.0004
   -889302.65648   -666736.59046
                  22176363.5004                                   22176360.4494
                                                                        48.2504
        36.7504
  -8765076.70347  -6781101.35245
                  23075758.4614                                   23075754.9614
                                                                        47.2504
        34.2504
 -16106066.88748 -12496262.12146
                  21348672.7424                                   21348669.0784
                                                                        49.0004
        36.7504
 -14030025.64147 -10885950.86345
                  22820097.8444                                   22820095.4494
                                                                        46.2504
        34.5004
 -14672064.72747 -11410958.01645
                  22280593.8134                                   22280590.3984
                                                                        46.5004
        35.5004
  -3858752.16047  -2973244.50845
                  22900407.9144                                   22900402.1134
                                                                        44.5004
        31.0004
  -1847652.24647  -1397106.18043
                  23750925.0394                                   23750921.6134
                                                                        42.0004
        22.7504
 09 10 11  0 24 30.0000000  0  8G02G04G05G13G29G10G23G25
 -13244722.08248 -10269187.76647
                  20590349.3134                                   20590343.7344
                                                                        52.0004
        43.0004
   -890131.09448   -667382.10546
                  22176205.7194                                   22176202.8284
                                                                        48.7504
        36.5004
  -8954789.85947  -6928929.82045
                  23039656.7814                                   23039653.7624
                                                                        46.0004
        35.5004
 -16195045.01648 -12565595.71146
                  21331740.7504                                   21331736.6954
                                                                        49.5004
        37.5004
 -14181541.14847 -11004014.87545
                  22791265.4534                                   22791262.2734
                                                                        46.0004
        33.2504
 -14854292.85247 -11552953.94146
                  22245916.9064                                   22245914.2664
                                                                        47.2504
        36.5004
  -3871504.76647  -2983181.62144
                  22897981.2894                                   22897975.1334
                                                                        44.7504
        29.5004
  -2012350.98447  -1525442.83243
                  23719583.5084                                   23719579.5704
                                                                        42.0004
        21.2504
 09 10 11  0 25  0.0000000  0  8G02G04G05G13G29G10G23G25
 -13318650.64848 -10326794.42647
                  20576281.2114                                   20576275.7114
                                                                        52.5004
        43.2504
   -890590.96148   -667740.44146
                  22176118.2894                                   22176115.1134
                                                                        48.2504
        36.7504
  -9144233.28947  -7076548.07045
                  23003607.3284                                   23003604.1804
                                                                        47.7504
        35.0004
 -16283339.73448 -12634396.79746
                  21314938.6724                                   21314934.9494
                                                                        49.2504
        36.7504
 -14332555.74647 -11121688.57845
                  22762528.1484                                   22762525.1454
                                                                        46.5004
        34.2504
 -15036154.66047 -11694664.42246
                  22211310.1094                                   22211306.8594
                                                                        47.5004
        36.5004
  -3883788.88347  -2992753.65644
                  22895643.8444                                   22895637.9454
                                                                        45.2504
        29.0004
  -2176649.85447  -1653467.91443
                  23688318.3674                                   23688314.4024
                                                                        42.0004
        22.2504
 09 10 11  0 25 30.0000000  0  8G02G04G05G13G29G10G23G25
 -13391981.35948 -10383935.24647
                  20562326.7584                                   20562321.2114
                                                                        52.0004
        43.0004
   -890683.78148   -667812.79746
                  22176100.6484                                   22176097.8674
                                                                        49.0004
        36.2504
  -9333404.60247  -7223954.32845
                  22967609.6334                                   22967606.1724
                                                                        47.0004
        34.0004
 -16370950.57848 -12702664.98846
                  21298266.9534                                   21298263.3634
                                                                        50.0004
        36.5004
 -14483066.48847 -11238969.66445
                  22733887.4534                                   22733883.5904
                                                                        46.7504
        33.5004
 -15217647.47748 -11836087.41046
                  22176772.9534                                   22176769.8594
                                                                        48.5004
        36.0004
  -3895606.17647  -3001961.93044
                  22893394.7584                                   22893389.2114
                                                                        45.0004
        29.2504
  -2340545.57047  -1781178.85244
                  23657130.7034                                   23657127.1334
                                                                        43.2504
        24.5004
 09 10 11  0 26  0.0000000  0  8G02G04G05G13G29G10G23G25
 -13464717.00448 -10440612.37547
                  20548485.5164                                   20548480.0164
                                                                        52.5004
        43.2504
   -890414.37548   -667602.88346
                  22176151.6804                                   22176148.9734
                                                                        49.2504
        36.2504
  -9522303.92647  -7371148.59446
                  22931662.7894                                   22931660.2114
                                                                        47.0004
        36.0004
 -16457880.68448 -12770402.78146
                  21281725.0784                                   21281720.9924
                                                                        49.7504
        37.2504
 -14633073.81647 -11355858.47345
                  22705341.9064                                   22705338.1334
                                                                        47.5004
        34.0004
 -15398771.96147 -11977223.41046
                  22142306.4224                                   22142302.7074
                                                                        47.5004
        36.0004
  -3906961.82847  -3010810.48844
                  22891234.3834                                   22891227.6454
                                                                        44.7504
        29.5004
  -2504038.75847  -1908576.08244
                  23626019.0164                                   23626015.8094
                                                                        43.2504
        27.5004
 09 10 11  0 26 30.0000000  0  8G02G04G05G13G29G10G23G25
 -13536859.44948 -10496827.28147
                  20534757.5164                                   20534752.0124
                                                                        52.0004
        43.0004
   -889786.44948   -667113.59446
                  22176271.5084                                   22176268.0394
                                                                        48.7504
        36.5004
  -9710931.43747  -7518131.03145
                  22895768.4304                                   22895765.1294
                                                                        47.5004
        35.5004
 -16544131.72748 -12837611.43046
                  21265311.7034                                   21265307.7154
                                                                        50.0004
        37.2504
 -14782577.86747 -11472355.11745
                  22676892.1954                                   22676888.1454
                                                                        47.0004
        34.0004
 -15579527.40648 -12118071.82046
                  22107909.5634                                   22107905.9654
                                                                        49.0004
        36.2504
  -3917860.09847  -3019302.62544
                  22889160.3134                                   22889154.1484
                                                                        45.5004
        29.0004
  -2667128.19147  -2035658.74644
                  23594984.3914                                   23594980.8364
                                                                        43.2504
        27.5004
 09 10 11  0 27  0.0000000  0  8G02G04G05G13G29G10G23G25
 -13608410.58248 -10552581.40647
                  20521141.5634                                   20521136.1334
                                                                        51.5004
        43.0004
   -888803.46948   -666347.64546
                  22176458.8284                                   22176455.6644
                                                                        49.7504
        37.0004
  -9899286.37547  -7664901.10945
                  22859925.5314                                   22859922.3284
                                                                        46.2504
        35.2504
 -16629705.16848 -12904292.02746
                  21249027.5004                                   21249023.5354
                                                                        50.5004
        37.2504
 -14931577.22347 -11588458.50045
                  22648538.3754                                   22648535.2424
                                                                        46.2504
        34.0004
 -15759913.27347 -12258632.21546
                  22073583.1094                                   22073579.9264
                                                                        47.5004
        36.2504
  -3928304.75447  -3027441.31645
                  22887172.6024                                   22887166.7194
                                                                        44.7504
        30.5004
  -2829813.05946  -2162426.12144
                  23564025.5554                                   23564022.8674
                                                                        41.0004
        26.0004
 09 10 11  0 27 30.0000000  0  8G02G04G05G13G29G10G23G25
 -13679375.48448 -10607878.73447
                  20507637.5784                                   20507632.0314
                                                                        52.5004
        42.5004
   -887472.06248   -665310.20345
                  22176711.8134                                   22176708.7584
                                                                        49.5004
        35.5004
 -10087371.94947  -7811461.25845
                  22824134.2814                                   22824130.6294
                                                                        47.0004
        35.5004
 -16714606.17248 -12970448.62546
                  21232871.3204                                   21232867.7034
                                                                        49.7504
        36.7504
 -15080075.52047 -11704171.43745
                  22620280.0394                                   22620277.0204
                                                                        47.0004
        35.0004
 -15939932.71947 -12398907.09046
                  22039326.2814                                   22039323.6564
                                                                        47.5004
        36.7504
  -3938303.17247  -3035232.29744
                  22885269.5084                                   22885264.1644
                                                                        45.2504
        28.5004
  -2992095.56246  -2288880.05144
                  23533144.4694                                   23533141.3984
                                                                        41.5004
        26.5004
 09 10 11  0 28  0.0000000  0  8G02G04G05G13G29G10G23G25
 -13749749.34448 -10662715.55147
                  20494245.6564                                   20494240.2344
                                                                        52.0004
        43.2504
   -885789.80948   -663999.37945
                  22177031.8134                                   22177029.3014
                                                                        48.0004
        35.5004
 -10275180.96147  -7957805.89846
                  22788395.2194                                   22788392.3284
                                                                        47.0004
        36.0004
 -16798830.52048 -13036077.96946
                  21216844.4614                                   21216840.3134
                                                                        50.5004
        37.0004
 -15228065.48847 -11819488.28545
                  22592118.3594                                   22592115.7854
                                                                        47.2504
        35.5004
 -16119578.49648 -12538890.77346
                  22005141.3134                                   22005137.9734
                                                                        48.2504
        36.5004
  -3947853.01647  -3042673.74644
                  22883452.7424                                   22883446.6724
                                                                        44.5004
        29.0004
  -3153968.57446  -2415014.86344
                  23502341.0164                                   23502337.8324
                                                                        41.0004
        24.5004
 09 10 11  0 28 30.0000000  0  8G02G04G05G13G29G10G23G25
 -13819531.04348 -10717090.94147
                  20480966.5704                                   20480961.2854
                                                                        51.7504
        43.5004
   -883757.15248   -662415.52346
                  22177418.8204                                   22177416.0554
                                                                        49.5004
        36.0004
 -10462710.50847  -8103932.82046
                  22752709.8524                                   22752706.1524
                                                                        47.5004
        36.0004
 -16882376.96948 -13101179.11746
                  21200945.7034                                   21200942.1334
                                                                        51.0004
        36.2504
 -15375544.10947 -11934406.67245
                  22564054.3134                                   22564051.2194
                                                                        46.0004
        35.2504
 -16298847.45748 -12678580.86746
                  21971027.3364                                   21971024.3014
                                                                        48.2504
        36.5004
  -3956955.15247  -3049766.30944
                  22881720.8444                                   22881714.3164
                                                                        45.5004
        29.7504
  -3315427.80146  -2540827.18044
                  23471616.2814                                   23471613.1644
                                                                        41.5004
        25.2504
 09 10 11  0 29  0.0000000  0  8G02G04G05G13G29G10G23G25
 -13888722.14548 -10771006.08247
                  20467800.2424                                   20467794.8134
                                                                        52.0004
        43.0004
   -881377.59848   -660561.34446
                  22177871.5394                                   22177868.9024
                                                                        49.2504
        36.0004
 -10649959.57047  -8249841.18745
                  22717076.9614                                   22717073.9384
                                                                        46.5004
        35.5004
 -16965246.91848 -13165753.09046
                  21185176.0944                                   21185172.2854
                                                                        51.2504
        37.0004
 -15522510.05147 -12048925.57845
                  22536087.7734                                   22536084.4414
                                                                        46.7504
        35.2504
 -16477738.34048 -12817976.36746
                  21936985.6414                                   21936982.5394
                                                                        48.5004
        36.7504
  -3965613.71947  -3056513.24644
                  22880072.7664                                   22880067.1804
                                                                        45.5004
        29.5004
  -3476472.34846  -2666316.43044
                  23440970.1564                                   23440966.7274
                                                                        40.0004
        24.0004
 09 10 11  0 29 30.0000000  0  8G02G04G05G13G29G10G23G25
 -13957323.09448 -10824461.38747
                  20454745.7504                                   20454740.3444
                                                                        51.5004
        43.0004
   -878652.88348   -658438.22345
                  22178389.9844                                   22178387.2234
                                                                        49.5004
        35.5004
 -10836926.12947  -8395529.42246
                  22681498.7274                                   22681495.0044
                                                                        47.2504
        36.0004
 -17047440.49648 -13229800.01646
                  21169535.4144                                   21169531.2584
                                                                        51.0004
        37.0004
 -15668961.69547 -12163043.70745
                  22508218.6884                                   22508215.7344
                                                                        47.2504
        35.5004
 -16656248.96548 -12957075.54346
                  21903016.2734                                   21903013.0164
                                                                        48.5004
        36.2504
  -3973830.53147  -3062915.94944
                  22878509.3674                                   22878503.0744
                                                                        46.0004
        29.0004
  -3637099.47746  -2791480.37543
                  23410404.1564                                   23410400.0594
                                                                        40.0004
        23.2504
 09 10 11  0 30  0.0000000  0  8G02G04G05G13G29G10G23G25
 -14025332.82848 -10877455.98847
                  20441804.1174                                   20441798.7664
                                                                        52.7504
        43.0004
   -875584.33648   -656047.16445
                  22178973.8834                                   22178970.9774
                                                                        49.2504
        35.7504
 -11023606.97747  -8540995.00446
                  22645974.3914                                   22645971.0314
                                                                        47.0004
        36.0004
 -17128957.55948 -13293319.79746
                  21154023.0634                                   21154019.4344
                                                                        51.5004
        37.0004
 -15814895.53547 -12276758.38745
                  22480448.3284                                   22480445.3164
                                                                        46.7504
        35.5004
 -16834375.98848 -13095875.78546
                  21869119.8364                                   21869116.5124
                                                                        48.0004
        36.0004
  -3981607.48847  -3068975.91844
                  22877029.5084                                   22877023.3874
                                                                        46.5004
        29.5004
  -3797306.05146  -2916316.62144
                  23379918.0084                                   23379914.4964
                                                                        41.0004
        24.5004
 09 10 11  0 30 30.0000000  0  8G02G04G05G13G29G10G23G25
 -14092752.30548 -10929990.65247
                  20428974.5314                                   20428969.0514
                                                                        52.2504
        42.7504
   -872173.84448   -653389.65245
                  22179623.3834                                   22179619.6804
                                                                        49.0004
        35.5004
 -11210000.95747  -8686237.08246
                  22610504.9614                                   22610501.5744
                                                                        47.5004
        36.0004
 -17209798.62948 -13356312.85246
                  21138639.6804                                   21138635.8164
                                                                        51.2504
        36.7504
 -15960310.84447 -12390069.08645
                  22452776.5704                                   22452773.7344
                                                                        46.5004
        35.0004
 -17012118.57048 -13234376.50046
                  21835296.3594                                   21835293.1174
                                                                        48.2504
        36.7504
  -3988947.12147  -3074695.11744
                  22875632.0084                                   22875626.4694
                                                                        45.5004
        28.5004
  -3957089.42646  -3040823.09444
                  23349512.4064                                   23349508.9144
                                                                        41.2504
        27.7504
 09 10 11  0 31  0.0000000  0  8G02G04G05G13G29G10G23G25
 -14159581.60548 -10982065.43047
                  20416257.2734                                   20416251.8674
                                                                        51.7504
        43.5004
   -868423.75848   -650467.51245
                  22180336.7974                                   22180333.9024
                                                                        48.7504
        35.7504
 -11396105.05548  -8831253.23846
                  22575090.2734                                   22575086.9264
                                                                        48.0004
        36.2504
 -17289963.92648 -13418779.31246
                  21123384.7034                                   21123380.9454
                                                                        51.2504
        36.5004
 -16105204.37147 -12502973.13745
                  22425204.6174                                   22425201.6214
                                                                        46.5004
        35.0004
 -17189473.70748 -13372575.26646
                  21801547.0944                                   21801543.5044
                                                                        48.0004
        37.2504
  -3995852.14147  -3080075.66844
                  22874318.4224                                   22874312.3554
                                                                        45.7504
        28.2504
  -4116447.58647  -3164998.24244
                  23319187.5314                                   23319183.9344
                                                                        43.2504
        25.7504
 09 10 11  0 31 30.0000000  0  8G02G04G05G13G29G10G23G25
 -14225820.86348 -11033680.42247
                  20403652.5234                                   20403646.9064
                                                                        52.7504
        43.2504
   -864335.58648   -647281.95745
                  22181114.6644                                   22181111.6684
                                                                        48.7504
        35.5004
 -11581918.09847  -8976042.61746
                  22539731.5234                                   22539728.1564
                                                                        47.7504
        36.2504
 -17369453.48448 -13480719.21146
                  21108258.2664                                   21108254.3914
                                                                        51.0004
        36.5004
 -16249575.03147 -12615469.77345
                  22397732.1334                                   22397728.9344
                                                                        47.5004
        35.5004
 -17366439.63748 -13510470.77046
                  21767871.5394                                   21767868.1564
                                                                        48.5004
        37.0004
  -4002324.60247  -3085119.17244
                  22873087.4694                                   22873081.0634
                                                                        46.2504
        26.7504
  -4275377.41047  -3288839.60944
                  23288944.1334                                   23288940.7974
                                                                        42.5004
        28.0004
 09 10 11  0 32  0.0000000  0  8G02G04G05G13G29G10G23G25
 -14291468.18748 -11084834.16447
                  20391160.1564                                   20391154.7894
                                                                        52.0004
        42.5004
   -859909.37548   -643832.97745
                  22181956.9454                                   22181953.9414
                                                                        48.7504
        34.5004
 -11767435.33248  -9120601.49646
                  22504428.7424                                   22504425.1294
                                                                        48.2504
        36.5004
 -17448265.53148 -13542131.12146
                  21093260.6484                                   21093256.8094
                                                                        51.5004
        37.0004
 -16393417.60547 -12727554.88745
                  22370359.7274                                   22370356.5354
                                                                        46.5004
        35.7504
 -17543011.53548 -13648059.25446
                  21734270.6564                                   21734267.5514
                                                                        48.0004
        36.7504
  -4008364.58247  -3089825.62944
                  22871937.6334                                   22871931.3404
                                                                        46.0004
        27.0004
  -4433874.45347  -3412343.77344
                  23258783.1174                                   23258779.9144
                                                                        42.2504
        28.0004
 09 10 11  0 32 30.0000000  0  8G02G04G05G13G29G10G23G25
 -14356520.63348 -11135524.40647
                  20378781.0704                                   20378775.6414
                                                                        52.5004
        43.0004
   -855143.45748   -640119.28545
                  22182863.9694                                   22182860.9414
                                                                        48.2504
        35.5004
 -11952651.46148  -9264925.74246
                  22469183.2274                                   22469179.5634
                                                                        48.5004
        37.0004
 -17526397.20748 -13603012.91446
                  21078393.0394                                   21078388.7814
                                                                        51.5004
        37.2504
 -16536727.26647 -12839224.65245
                  22343088.3524                                   22343085.5514
                                                                        46.7504
        35.5004
 -17719184.07848 -13785336.59446
                  21700746.2664                                   21700742.8404
                                                                        48.5004
        37.2504
  -4013970.98847  -3094194.25444
                  22870870.5554                                   22870864.9774
                                                                        45.7504
        28.5004
  -4591932.69547  -3535506.02744
                  23228705.5944                                   23228702.1414
                                                                        43.0004
        27.0004
 09 10 11  0 33  0.0000000  0  8G02G04G05G13G29G10G23G25
 -12845561.51648  -9958153.65647
                  20666306.8134                                   20666301.2774
                                                                        52.5004
        42.2504
    725374.61348    591453.21945
                  22483626.3444                                   22483623.4304
                                                                        48.7504
        35.5004
 -10562143.59048  -8181413.13346
                  22733788.4224                                   22733784.3984
                                                                        48.5004
        36.7504
 -16028431.52348 -12435766.89846
                  21363446.0314                                   21363442.0394
                                                                        51.2504
        37.0004
 -15104082.60547 -11722878.10546
                  22615711.4614                                   22615708.2034
                                                                        47.2504
        36.0004
 -16319534.76248 -12694700.77746
                  21967090.7584                                   21967087.5824
                                                                        49.5004
        37.0004
  -2443731.80947  -1870631.27044
                  23169677.5084                                   23169671.0744
                                                                        45.2504
        28.7504
  -3174129.56646  -2430724.34844
                  23498504.0314                                   23498500.4304
                                                                        41.2504
        25.2504
 09 10 11  0 33 30.0000000  0  8G02G04G05G13G29G10G23G25
 -12909436.22348 -10007926.21947
                  20654152.1564                                   20654146.7854
                                                                        51.5004
        42.5004
    730802.62548    595682.82045
                  22484659.4534                                   22484656.3674
                                                                        48.2504
        34.5004
 -10746762.33247  -8325271.90646
                  22698655.9304                                   22698652.6454
                                                                        47.7504
        36.5004
 -16105215.05148 -12495598.24246
                  21348834.6644                                   21348830.8204
                                                                        51.2504
        37.2504
 -15246331.49647 -11833721.42645
                  22588642.9384                                   22588639.3754
                                                                        46.5004
        35.5004
 -16494913.64848 -12831359.60246
                  21933717.1724                                   21933714.0084
                                                                        49.5004
        37.5004
  -2448490.41847  -1874339.34444
                  23168772.0164                                   23168766.5554
                                                                        45.2504
        28.0004
  -3331314.19946  -2553205.85244
                  23468592.5084                                   23468589.2974
                                                                        40.5004
        25.5004
 09 10 11  0 34  0.0000000  0  8G02G04G05G13G29G10G23G25
 -12972724.94148 -10057242.07047
                  20642108.7424                                   20642103.4104
                                                                        51.5004
        42.5004
    736556.34447    600166.24245
                  22485754.5704                                   22485751.3754
                                                                        47.2504
        34.5004
 -10931081.71147  -8468897.43746
                  22663581.3594                                   22663577.8284
                                                                        47.5004
        37.7504
 -16181327.32848 -12554906.52046
                  21334351.2114                                   21334347.4614
                                                                        51.2504
        36.5004
 -15388049.33247 -11944150.95346
                  22561674.3524                                   22561671.7734
                                                                        47.0004
        36.0004
 -16669895.20348 -12967708.85946
                  21900419.2194                                   21900415.9654
                                                                        49.0004
        36.5004
  -2452830.36347  -1877721.14144
                  23167946.0394                                   23167940.4224
                                                                        44.7504
        27.7504
  -3488060.26246  -2675345.59844
                  23438764.5704                                   23438761.9534
                                                                        40.7504
        25.2504
 09 10 11  0 34 30.0000000  0  8G02G04G05G13G29G10G23G25
 -13035428.51248 -10106102.03547
                  20630176.6334                                   20630171.3134
                                                                        51.2504
        43.0004
    742633.73847    604901.85545
                  22486910.4924                                   22486907.9304
                                                                        47.5004
        35.0004
 -11115099.49247  -8612287.90246
                  22628563.8524                                   22628560.6054
                                                                        47.7504
        37.7504
 -16256769.37948 -12613692.57446
                  21319994.6564                                   21319990.9734
                                                                        51.0004
        36.7504
 -15529234.27747 -12054165.20745
                  22534807.8444                                   22534804.7774
                                                                        47.0004
        35.7504
 -16844476.47748 -13103746.19146
                  21867197.5784                                   21867194.4844
                                                                        49.0004
        37.5004
  -2456755.08247  -1880779.36344
                  23167199.1564                                   23167193.7894
                                                                        44.5004
        27.5004
  -3644366.14547  -2797142.36344
                  23409021.0234                                   23409017.6884
                                                                        42.7504
        27.7504
 09 10 11  0 35  0.0000000  0  8G02G04G05G13G29G10G23G25
 -13097544.02348 -10154503.68047
                  20618356.2114                                   20618351.1294
                                                                        51.5004
        42.0004
    749035.35948    609890.12145
                  22488129.4844                                   22488125.7894
                                                                        48.0004
        34.5004
 -11298811.31247  -8755439.94546
                  22593604.7814                                   22593601.1054
                                                                        47.5004
        36.7504
 -16331538.73048 -12671954.45346
                  21305766.9614                                   21305762.9184
                                                                        50.5004
        36.0004
 -15669881.97748 -12163760.83245
                  22508043.3754                                   22508040.3364
                                                                        48.0004
        35.5004
 -17018653.51648 -13239468.55146
                  21834052.8594                                   21834049.8204
                                                                        49.7504
        37.0004
  -2460263.97347  -1883513.53944
                  23166531.7114                                   23166525.1054
                                                                        44.2504
        27.2504
  -3800226.09447  -2918591.64844
                  23379362.2814                                   23379358.2584
                                                                        43.2504
        28.5004
 09 10 11  0 35 30.0000000  0  8G02G04G05G13G29G10G23G25
 -13159071.84448 -10202447.41847
                  20606648.0234                                   20606642.6174
                                                                        50.7504
        42.5004
    755759.66448    615129.85245
                  22489408.7274                                   22489405.6914
                                                                        48.7504
        34.5004
 -11482214.68747  -8898351.64146
                  22558704.1484                                   22558700.9024
                                                                        47.5004
        37.5004
 -16405635.46548 -12729692.16846
                  21291666.7194                                   21291662.7194
                                                                        50.5004
        36.7504
 -15809989.84047 -12272935.78945
                  22481381.6724                                   22481379.0784
                                                                        47.5004
        35.2504
 -17192423.67248 -13374873.87146
                  21800985.5634                                   21800982.3484
                                                                        50.2504
        38.2504
  -2463359.05947  -1885925.30944
                  23165942.1644                                   23165936.1804
                                                                        43.7504
        27.2504
  -3955637.69947  -3039691.60544
                  23349788.3674                                   23349785.0634
                                                                        43.0004
        28.0004
 09 10 11  0 36  0.0000000  0  8G02G04G05G13G29G10G23G25
 -13220012.69548 -10249933.77747
                  20595051.1024                                   20595045.6844
                                                                        51.0004
        42.5004
    762804.60948    620619.42245
                  22490749.1024                                   22490746.3524
                                                                        49.0004
        34.7504
 -11665307.56647  -9041021.42646
                  22523863.5084                                   22523858.9104
                                                                        47.5004
        37.2504
 -16479060.44548 -12786906.42646
                  21277694.4064                                   21277690.7074
                                                                        50.0004
        36.5004
 -15949556.21947 -12381688.80946
                  22454823.7274                                   22454820.5984
                                                                        47.7504
        36.0004
 -17365784.85248 -13509960.51246
                  21767996.0704                                   21767992.5394
                                                                        50.2504
        37.5004
  -2466042.84447  -1888016.56644
                  23165431.7584                                   23165425.3484
                                                                        44.0004
        26.7504
  -4110598.46547  -3160440.27044
                  23320300.0864                                   23320297.1294
                                                                        43.7504
        27.0004
 09 10 11  0 36 30.0000000  0  8G02G04G05G13G29G10G23G25
 -13280366.28948 -10296962.50047
                  20583566.4384                                   20583560.9224
                                                                        51.7504
        42.5004
    770168.73048    626357.68045
                  22492150.2584                                   22492147.4144
                                                                        48.2504
        34.0004
 -11848087.39547  -9183447.27746
                  22489080.9384                                   22489077.3794
                                                                        47.7504
        37.2504
 -16551813.92248 -12843597.44946
                  21263849.9304                                   21263845.6024
                                                                        50.2504
        36.5004
 -16088578.38348 -12490017.78145
                  22428368.1414                                   22428365.1254
                                                                        48.0004
        35.5004
 -17538734.49648 -13644726.45746
                  21735084.6414                                   21735081.3054
                                                                        49.7504
        37.2504
  -2468317.64847  -1889789.15244
                  23164999.0864                                   23164992.5784
                                                                        44.0004
        26.0004
  -4265105.42647  -3280835.30544
                  23290898.1884                                   23290895.3094
                                                                        43.2504
        26.0004
 09 10 11  0 37  0.0000000  0  8G02G04G05G13G29G10G23G25
 -13340134.03548 -10343534.77747
                  20572193.0084                                   20572187.4964
                                                                        52.0004
        42.5004
    777849.25848    632342.50445
                  22493612.0944                                   22493609.3324
                                                                        48.5004
        34.5004
 -12030553.02348  -9325628.26646
                  22454358.8984                                   22454355.0514
                                                                        48.5004
        37.0004
 -16623897.24248 -12899766.25446
                  21250132.6094                                   21250129.0004
                                                                        51.0004
        36.7504
 -16227055.73448 -12597922.22345
                  22402016.8444                                   22402013.7114
                                                                        48.2504
        35.5004
 -17711271.43448 -13779170.82046
                  21702251.6884                                   21702248.7894
                                                                        50.0004
        37.5004
  -2470186.53547  -1891245.44544
                  23164643.4224                                   23164637.3444
                                                                        45.0004
        28.5004
  -4419157.10947  -3400875.57844
                  23261583.2664                                   23261579.6914
                                                                        43.0004
        24.2504
 09 10 11  0 37 30.0000000  0  8G02G04G05G13G29G10G23G25
 -13399317.03948 -10389651.43047
                  20560930.9224                                   20560925.1604
                                                                        52.2504
        42.5004
    785843.43048    638571.74645
                  22495133.3834                                   22495130.7234
                                                                        49.5004
        34.5004
 -12212703.18047  -9467563.41446
                  22419696.8594                                   22419693.3014
                                                                        47.5004
        36.7504
 -16695311.53948 -12955413.79746
                  21236543.1954                                   21236539.0354
                                                                        50.7504
        36.5004
 -16364986.78548 -12705400.97345
                  22375769.5084                                   22375766.2934
                                                                        48.7504
        35.2504
 -17883394.09448 -13913292.37946
                  21669498.2034                                   21669495.0514
                                                                        50.5004
        37.5004
  -2471652.51647  -1892387.77044
                  23164364.4304                                   23164358.6644
                                                                        43.0004
        27.2504
  -4572751.59847  -3520559.60944
                  23232355.5164                                   23232351.3054
                                                                        42.2504
        24.5004
 09 10 11  0 38  0.0000000  0  8G02G04G05G13G29G10G23G25
 -13457916.50448 -10435313.34847
                  20549779.8444                                   20549774.1724
                                                                        51.7504
        42.5004
    794148.69147    645043.33245
                  22496714.0234                                   22496711.1374
                                                                        47.7504
        33.5004
 -12394535.99647  -9609251.29346
                  22385095.2504                                   22385091.5784
                                                                        47.2504
        37.5004
 -16766058.10248 -13010540.99246
                  21223080.6804                                   21223076.5634
                                                                        51.2504
        36.7504
 -16502369.82848 -12812452.71145
                  22349626.4064                                   22349623.2624
                                                                        49.0004
        35.5004
 -18055100.93748 -14047089.91046
                  21636823.0004                                   21636820.0594
                                                                        50.5004
        37.7504
  -2472718.71547  -1893218.60244
                  23164160.8674                                   23164155.5784
                                                                        42.2504
        28.0004
  -4725887.40647  -3639886.21944
                  23203214.2814                                   23203210.6484
                                                                        42.0004
        26.0004
 09 10 11  0 38 30.0000000  0  8G02G04G05G13G29G10G23G25
 -13515932.39548 -10480520.52347
                  20538739.9844                                   20538734.4414
                                                                        51.5004
        42.5004
    802763.37948    651756.08245
                  22498353.3134                                   22498350.1414
                                                                        49.2504
        33.5004
 -12576049.33248  -9750690.22346
                  22350554.6174                                   22350550.8634
                                                                        48.5004
        37.5004
 -16836137.43448 -13065148.22746
                  21209745.0474                                   21209741.1334
                                                                        50.7504
        36.7504
 -16639203.49648 -12919076.35245
                  22323587.8134                                   22323584.8634
                                                                        48.5004
        35.5004
 -18226389.75848 -14180561.69146
                  21604228.3524                                   21604225.0164
                                                                        49.5004
        38.2504
  -2473387.59446  -1893739.84844
                  23164033.8674                                   23164028.4024
                                                                        41.5004
        26.7504
  -4878561.85247  -3758853.28544
                  23174161.2974                                   23174158.2504
                                                                        43.0004
        26.5004
 09 10 11  0 39  0.0000000  0  8G02G04G05G13G29G10G23G25
 -13573365.13348 -10525273.32047
                  20527810.4844                                   20527805.2934
                                                                        51.5004
        42.2504
    811685.95748    658708.73045
                  22500051.2274                                   22500047.9064
                                                                        48.0004
        34.0004
 -12757241.03148  -9891878.58246
                  22316074.5944                                   22316071.6724
                                                                        48.5004
        37.5004
 -16905549.66448 -13119235.68046
                  21196536.1094                                   21196532.2584
                                                                        50.5004
        36.2504
 -16775485.39148 -13025270.05146
                  22297654.0704                                   22297651.3834
                                                                        49.0004
        36.2504
 -18397257.91048 -14313705.69546
                  21571713.0784                                   21571710.1024
                                                                        50.5004
        38.2504
  -2473660.68747  -1893952.64544
                  23163982.4224                                   23163976.7934
                                                                        42.0004
        26.5004
  -5030771.80147  -3877458.41844
                  23145196.4844                                   23145193.5314
                                                                        43.7504
        28.0004
 09 10 11  0 39 30.0000000  0  9G02G04G05G13G29G10G23G16G25
 -13630215.94548 -10569572.65647
                  20516992.2034                                   20516986.9144
                                                                        52.5004
        42.2504
    820913.96548    665899.36745
                  22501806.8134                                   22501804.4614
                                                                        48.7504
        33.0004
 -12938109.14148 -10032814.79346
                  22281656.8524                                   22281653.5984
                                                                        49.5004
        37.7504
 -16974296.39148 -13172804.54346
                  21183454.3054                                   21183449.9804
                                                                        51.0004
        36.7504
 -16911214.01648 -13131032.62546
                  22271825.8834                                   22271823.1564
                                                                        49.2504
        36.5004
 -18567703.73848 -14446520.62146
                  21539278.6644                                   21539275.2704
                                                                        50.2504
        38.7504
  -2473541.53147  -1893859.78944
                  23164004.6954                                   23163999.0164
                                                                        44.5004
        26.7504
   6107655.08656   4796867.21553
                  24272023.7274                                   24272019.1454
                                                                        40.5004
        22.0004
  -5182515.65247  -3995700.37144
                  23116321.1484                                   23116317.8674
                                                                        44.5004
        28.0004
 09 10 11  0 40  0.0000000  0  9G02G04G05G13G29G10G23G16G25
 -13686488.03548 -10613421.05547
                  20506283.8834                                   20506278.6764
                                                                        52.5004
        42.0004
    830442.57448    673324.22745
                  22503620.1804                                   22503617.9064
                                                                        48.7504
        33.7504
 -13118654.64548 -10173499.58646
                  22247300.0314                                   22247296.5784
                                                                        49.0004
        38.0004
 -17042381.16848 -13225857.62946
                  21170498.2034                                   21170494.1884
                                                                        50.5004
        36.5004
 -17046390.30548 -13236364.80946
                  22246102.8284                                   22246099.9694
                                                                        49.2504
        36.7504
 -18737728.44548 -14579007.42646
                  21506923.9774                                   21506920.0984
                                                                        50.0004
        37.5004
  -2473034.80947  -1893464.93744
                  23164101.5864                                   23164095.5204
                                                                        43.7504
        26.5004
   5950814.94146   4674654.12943
                  24242177.2894                                   24242173.6334
                                                                        40.7504
        22.0004
  -5333793.98047  -4113579.54344
                  23087533.8914                                   23087530.8754
                                                                        45.0004
        29.0004
 09 10 11  0 40 30.0000000  0  9G02G04G05G13G29G10G23G16G25
 -13742186.86348 -10656822.74247
                  20495684.9534                                   20495679.4104
                                                                        52.2504
        42.0004
    840264.56348    680977.72345
                  22505489.4774                                   22505486.6414
                                                                        48.2504
        33.7504
 -13298880.66448 -10313935.42646
                  22213004.2814                                   22213001.1684
                                                                        49.5004
        38.2504
 -17109809.72348 -13278399.36745
                  21157666.8284                                   21157662.7074
                                                                        50.5004
        35.7504
 -17181017.93048 -13341269.46946
                  22220484.1414                                   22220481.0864
                                                                        49.0004
        36.7504
 -18907334.57448 -14711168.00046
                  21474648.3524                                   21474644.9184
                                                                        50.5004
        37.7504
  -2472148.47347  -1892774.25044
                  23164269.7894                                   23164264.1724
                                                                        42.5004
        26.7504
   5794437.24646   4552801.40643
                  24212420.0864                                   24212415.9384
                                                                        40.0004
        21.5004
  -5484609.48047  -4231098.08244
                  23058834.2274                                   23058831.1914
                                                                        44.5004
        28.5004
 09 10 11  0 41  0.0000000  0  9G02G04G05G13G29G10G23G16G25
 -13797313.72348 -10699778.72747
                  20485194.5704                                   20485189.1844
                                                                        52.2504
        42.0004
    850377.69948    688858.06345
                  22507413.8284                                   22507410.9224
                                                                        48.5004
        33.5004
 -13478785.34848 -10454120.87946
                  22178769.5004                                   22178765.6804
                                                                        50.0004
        38.0004
 -17176583.27748 -13330430.68745
                  21144960.2274                                   21144956.2774
                                                                        51.0004
        35.5004
 -17315095.12548 -13445745.16446
                  22194969.8204                                   22194966.7974
                                                                        49.7504
        36.5004
 -19076520.69548 -14843001.35246
                  21442453.2894                                   21442450.0394
                                                                        50.5004
        38.0004
  -2470885.35947  -1891790.00444
                  23164510.8204                                   23164504.5004
                                                                        43.5004
        28.0004
   5638523.96146   4431310.54743
                  24182749.9144                                   24182746.5044
                                                                        39.2504
        20.7504
  -5634960.14547  -4348254.39544
                  23030223.8444                                   23030219.9494
                                                                        45.2504
        27.5004
 09 10 11  0 41 30.0000000  0  9G02G04G05G13G29G10G23G16G25
 -13851861.23048 -10742283.28147
                  20474814.5234                                   20474809.2114
                                                                        53.0004
        42.2504
    860787.50048    696969.56345
                  22509394.8914                                   22509392.2154
                                                                        48.0004
        32.7504
 -13658358.86348 -10594048.31246
                  22144597.7274                                   22144594.2774
                                                                        50.5004
        37.7504
 -17242694.87148 -13381946.21946
                  21132379.4924                                   21132375.9614
                                                                        51.0004
        36.7504
 -17448612.13348 -13549784.35546
                  22169562.5474                                   22169559.5824
                                                                        49.2504
        37.2504
 -19245276.90248 -14974499.69946
                  21410340.4454                                   21410336.8484
                                                                        50.5004
        38.2504
  -2469240.43447  -1890508.21944
                  23164822.9454                                   23164817.2304
                                                                        43.2504
        27.0004
   5483085.38346   4310189.60943
                  24153171.3134                                   24153167.5044
                                                                        39.7504
        19.5004
  -5784836.31647  -4465041.02344
                  23001702.8674                                   23001699.1994
                                                                        44.7504
        26.5004
 09 10 11  0 42  0.0000000  0  9G02G04G05G13G29G10G23G16G25
 -12330408.29748  -9556735.53947
                  20764337.3444                                   20764331.7584
                                                                        52.7504
        42.7504
   2446912.05148   1932910.72745
                  22811224.5234                                   22811221.7304
                                                                        48.0004
        33.0004
 -12262173.58248  -9506111.73846
                  22410283.0084                                   22410279.3674
                                                                        50.0004
        38.0004
 -15732722.99648 -12205344.74646
                  21419717.6804                                   21419713.8054
                                                                        50.5004
        36.5004
 -16006143.45748 -12425782.78946
                  22444055.1804                                   22444052.3754
                                                                        49.5004
        36.7504
 -17838176.06248 -13878057.51246
                  21678103.1644                                   21678099.9344
                                                                        50.5004
        38.5004
   -891795.82047   -661330.60944
                  23465000.8754                                   23464994.8404
                                                                        42.7504
        26.0004
   6903549.21146   5417044.52343
                  24423476.6564                                   24423472.4384
                                                                        41.0004
        20.0004
  -4358810.20347  -3353851.86344
                  23273066.9144                                   23273063.3164
                                                                        45.0004
        28.0004
 09 10 11  0 42 30.0000000  0  9G02G04G05G13G29G10G23G16G25
 -12383795.92248  -9598336.29747
                  20754177.8834                                   20754172.7194
                                                                        52.0004
        42.2504
   2457913.54747   1941483.23045
                  22813318.2974                                   22813315.3874
                                                                        46.2504
        34.0004
 -12441075.59448  -9645515.93046
                  22376239.2504                                   22376235.9104
                                                                        49.7504
        38.0004
 -15797509.23848 -12255827.52746
                  21407389.2664                                   21407385.1804
                                                                        49.7504
        36.5004
 -16138532.12148 -12528942.77046
                  22418862.6414                                   22418859.3324
                                                                        49.7504
        36.7504
 -18006063.57448 -14008879.05946
                  21646154.9384                                   21646152.0944
                                                                        49.7504
        38.5004
   -889390.45347   -659456.30544
                  23465458.7814                                   23465453.0594
                                                                        44.2504
        26.5004
   6749071.52346   5296672.28943
                  24394080.6254                                   24394076.4264
                                                                        40.7504
        20.2504
  -4507726.02047  -3469890.16044
                  23244728.6094                                   23244725.1484
                                                                        44.5004
        26.7504
 09 10 11  0 43  0.0000000  0  9G02G04G05G13G29G10G23G16G25
 -12436603.68448  -9639485.26247
                  20744129.1724                                   20744123.7304
                                                                        51.7504
        42.5004
   2469208.62147   1950284.53945
                  22815467.1564                                   22815464.3324
                                                                        46.5004
        32.5004
 -12619637.20348  -9784654.80946
                  22342260.1094                                   22342256.3484
                                                                        50.0004
        39.0004
 -15861633.87148 -12305794.75846
                  21395186.4844                                   21395182.4694
                                                                        51.0004
        36.2504
 -16270353.19148 -12631660.44946
                  22393777.7894                                   22393775.0784
                                                                        49.0004
        37.0004
 -18173512.23848 -14139358.53546
                  21614290.7274                                   21614287.5514
                                                                        50.0004
        38.0004
   -886607.90647   -657288.07844
                  23465988.3444                                   23465982.4494
                                                                        44.0004
        27.0004
   6595078.38347   5176677.61343
                  24364776.4144                                   24364772.5434
                                                                        42.0004
        21.5004
  -4656157.55547  -3585551.10544
                  23216483.4384                                   23216479.6914
                                                                        43.5004
        24.7504
 09 10 11  0 43 30.0000000  0  9G02G04G05G13G29G10G23G16G25
 -12488826.02348  -9680178.05147
                  20734191.6804                                   20734186.0984
                                                                        52.5004
        42.0004
   2480801.58247   1959317.95745
                  22817673.5554                                   22817670.9654
                                                                        47.0004
        33.0004
 -12797851.18748  -9923522.82046
                  22308346.9694                                   22308343.5274
                                                                        49.2504
        38.7504
 -15925091.45748 -12355242.22746
                  21383111.3594                                   21383106.9734
                                                                        51.0004
        36.0004
 -16401598.92248 -12733929.85546
                  22368802.4064                                   22368799.2384
                                                                        48.7504
        36.0004
 -18340514.18048 -14269489.94946
                  21582510.9454                                   21582507.7504
                                                                        50.0004
        38.2504
   -883444.67247   -654823.22344
                  23466590.0784                                   23466584.4614
                                                                        43.0004
        25.2504
   6441578.41047   5057067.22743
                  24335566.6484                                   24335562.4804
                                                                        42.0004
        21.7504
  -4804096.59447  -3700828.29744
                  23188332.0394                                   23188328.0824
                                                                        44.2504
        26.7504
 09 10 11  0 44  0.0000000  0  9G02G04G05G13G29G10G23G16G25
 -12540468.08648  -9720418.54747
                  20724364.3674                                   20724359.1954
                                                                        52.2504
        42.2504
   2492685.50847   1968578.14545
                  22819935.1804                                   22819931.7384
                                                                        47.5004
        33.0004
 -12975719.57048 -10062121.54346
                  22274499.5234                                   22274495.9024
                                                                        50.2504
        38.7504
 -15987887.48848 -12404174.19546
                  21371161.3754                                   21371157.4344
                                                                        50.5004
        36.5004
 -16532271.84448 -12835752.87546
                  22343936.2504                                   22343933.4344
                                                                        49.2504
        36.5004
 -18507071.62948 -14399274.97746
                  21550816.1954                                   21550812.9654
                                                                        49.7504
        38.5004
   -879907.55147   -652067.00444
                  23467263.5004                                   23467257.0474
                                                                        44.0004
        24.7504
   6288569.91446   4937839.84843
                  24306450.7504                                   24306445.7464
                                                                        41.2504
        21.5004
  -4951545.30547  -3815723.34444
                  23160272.8914                                   23160269.9774
                                                                        43.5004
        28.2504
 09 10 11  0 44 30.0000000  0  9G02G04G05G13G29G10G23G16G25
 -12591532.58248  -9760209.11347
                  20714647.1254                                   20714641.5474
                                                                        52.2504
        42.2504
   2504857.46947   1978062.78145
                  22822251.6094                                   22822248.4064
                                                                        46.2504
        33.0004
 -13153242.26248 -10200450.98046
                  22240718.3984                                   22240715.4774
                                                                        49.7504
        39.0004
 -16050024.32448 -12452592.50045
                  21359337.3754                                   21359333.1214
                                                                        50.5004
        35.5004
 -16662372.38348 -12937129.89546
                  22319178.8524                                   22319175.5944
                                                                        49.0004
        36.5004
 -18673184.36348 -14528713.47746
                  21519206.0634                                   21519202.5354
                                                                        50.2504
        38.5004
   -876000.59847   -649022.59044
                  23468006.8984                                   23468000.2384
                                                                        43.5004
        24.5004
   6136053.48846   4818995.88743
                  24277427.2194                                   24277422.9304
                                                                        41.0004
        20.5004
  -5098503.03947  -3930235.84444
                  23132307.6954                                   23132304.1414
                                                                        45.5004
        27.5004
 09 10 11  0 45  0.0000000  0 10G02G04G05G13G29G10G23G16G07G25
 -12642020.10248  -9799550.02746
                  20705039.5314                                   20705034.1684
                                                                        52.5004
        41.7504
   2517314.78947   1987769.80945
                  22824621.4384                                   22824618.9184
                                                                        45.0004
        32.5004
 -13330417.02048 -10338509.27746
                  22207002.9614                                   22206999.7034
                                                                        49.5004
        38.7504
 -16111503.15248 -12500498.07446
                  21347638.2034                                   21347634.1724
                                                                        50.7504
        36.0004
 -16791898.53548 -13038059.34846
                  22294530.7504                                   22294527.5594
                                                                        50.0004
        37.0004
 -18838851.21148 -14657804.58246
                  21487680.9384                                   21487677.7974
                                                                        50.5004
        39.2504
   -871726.23047   -645691.92644
                  23468819.8364                                   23468814.5124
                                                                        43.2504
        24.5004
   5984031.47346   4700537.18843
                  24248498.3204                                   24248494.1054
                                                                        41.0004
        20.0004
   7645757.94156   6002568.49253
                  24459168.2894                                   24459165.0864
                                                                        39.2504
        22.0004
  -5244967.77347  -4044364.23044
                  23104436.8984                                   23104432.8164
                                                                        45.0004
        28.5004
 09 10 11  0 45 30.0000000  0 10G02G04G05G13G29G10G23G16G07G25
 -12691933.24248  -9838443.37947
                  20695541.5944                                   20695536.3014
                                                                        52.5004
        42.0004
   2530054.05147   1997696.51245
                  22827045.7034                                   22827043.2074
                                                                        43.7504
        32.5004
 -13507243.70348 -10476296.35546
                  22173353.7034                                   22173350.7704
                                                                        48.7504
        38.0004
 -16172326.65248 -12547893.02746
                  21336064.0084                                   21336060.0904
                                                                        50.2504
        36.5004
 -16920850.41048 -13138541.26646
                  22269992.4694                                   22269989.1094
                                                                        48.7504
        37.0004
 -19004070.66848 -14786547.03546
                  21456240.4774                                   21456237.3134
                                                                        50.0004
        39.5004
   -867089.41047   -642078.79744
                  23469702.1174                                   23469696.6524
                                                                        44.2504
        25.5004
   5832504.79346   4582464.44943
                  24219664.2814                                   24219659.9534
                                                                        41.5004
        20.7504
   7458554.26247   5856695.53543
                  24423544.5944                                   24423541.0784
                                                                        42.0004
        22.7504
  -5390938.97347  -4158107.97344
                  23076659.5234                                   23076656.2154
                                                                        45.0004
        29.5004
 09 10 11  0 46  0.0000000  0 10G02G04G05G13G29G10G23G16G07G25
 -12741275.85548  -9876892.18047
                  20686152.2194                                   20686146.5514
                                                                        52.0004
        42.2504
   2543069.85247   2007838.66445
                  22829522.6804                                   22829520.0664
                                                                        45.0004
        32.5004
 -13683723.55548 -10613813.14546
                  22139771.2114                                   22139768.0514
                                                                        49.2504
        39.0004
 -16232497.98448 -12594779.75445
                  21324613.5634                                   21324609.7234
                                                                        50.0004
        35.7504
 -17049229.85248 -13238577.14546
                  22245562.1174                                   22245558.6884
                                                                        49.2504
        36.5004
 -19168845.09448 -14914942.69546
                  21424885.0164                                   21424881.7774
                                                                        50.0004
        38.5004
   -862095.28147   -638187.28144
                  23470653.1884                                   23470647.1604
                                                                        44.5004
        25.5004
   5681472.52747   4464776.96143
                  24190923.7504                                   24190918.7894
                                                                        42.0004
        20.5004
   7271610.83247   5711025.33244
                  24387970.5164                                   24387967.6374
                                                                        42.7504
        26.0004
  -5536417.72347  -4271468.05144
                  23048975.2894                                   23048972.3324
                                                                        45.2504
        28.5004
 09 10 11  0 46 30.0000000  0 10G02G04G05G13G29G10G23G16G07G25
 -12790053.19948  -9914900.51247
                  20676870.1174                                   20676864.9264
                                                                        51.5004
        42.0004
   2556355.83247   2018191.37945
                  22832051.5554                                   22832048.2624
                                                                        45.5004
        33.5004
 -13859858.76248 -10751061.36346
                  22106253.5554                                   22106250.3834
                                                                        49.2504
        39.0004
 -16292024.88348 -12641164.34845
                  21313285.9384                                   21313282.2664
                                                                        49.5004
        35.7504
 -17177039.90248 -13338169.34846
                  22221240.4534                                   22221237.8134
                                                                        49.0004
        36.5004
 -19333176.18748 -15042992.91846
                  21393613.6954                                   21393610.6564
                                                                        50.2504
        39.2504
   -856751.07047   -634022.93043
                  23471669.9534                                   23471663.8984
                                                                        43.5004
        23.7504
   5530932.22347   4347472.80143
                  24162277.0164                                   24162271.8634
                                                                        42.2504
        21.2504
   7084926.14547   5565556.82844
                  24352445.2034                                   24352442.4224
                                                                        42.7504
        26.2504
  -5681406.42247  -4384446.23844
                  23021384.4774                                   23021381.8164
                                                                        44.5004
        28.2504
 09 10 11  0 47  0.0000000  0 10G02G04G05G13G29G10G23G16G07G25
 -12838258.10548  -9952462.75446
                  20667696.8914                                   20667691.4064
                                                                        51.5004
        41.7504
   2569917.89147   2028759.22345
                  22834631.8054                                   22834628.8484
                                                                        45.5004
        32.2504
 -14035639.83248 -10888033.60246
                  22072803.6954                                   22072799.8134
                                                                        49.0004
        38.7504
 -16350899.69948 -12687040.81645
                  21302082.5784                                   21302078.6484
                                                                        49.5004
        35.7504
 -17304270.79348 -13437310.25846
                  22197029.3984                                   22197026.5314
                                                                        49.0004
        37.0004
 -19497054.74248 -15170690.52046
                  21362428.7734                                   21362426.0824
                                                                        50.5004
        38.7504
   -851051.30947   -629581.57444
                  23472754.7974                                   23472749.1644
                                                                        43.7504
        25.7504
   5380894.51646   4230560.27043
                  24133726.0234                                   24133720.9804
                                                                        41.7504
        21.2504
   6898511.12147   5420298.49644
                  24316972.1564                                   24316968.6524
                                                                        42.2504
        26.5004
  -5825894.88347  -4497034.66044
                  22993889.7584                                   22993886.5824
                                                                        45.2504
        28.0004
 09 10 11  0 47 30.0000000  0 10G02G04G05G13G29G10G23G16G07G25
 -12885894.32448  -9989581.84446
                  20658631.8914                                   20658626.1914
                                                                        51.5004
        41.5004
   2583751.31347   2039538.45745
                  22837264.1884                                   22837261.5664
                                                                        46.0004
        32.2504
 -14211067.00848 -11024730.10946
                  22039421.1644                                   22039417.5394
                                                                        50.0004
        38.5004
 -16409125.90648 -12732411.93746
                  21291002.2894                                   21290998.3984
                                                                        49.5004
        36.0004
 -17430923.45748 -13536000.63346
                  22172928.4144                                   22172925.5274
                                                                        50.2504
        37.0004
 -19660480.53948 -15298035.23446
                  21331329.9064                                   21331326.6174
                                                                        50.0004
        39.2504
   -845001.21947   -624867.21544
                  23473905.0944                                   23473899.9734
                                                                        43.0004
        26.0004
   5231358.91846   4114039.02343
                  24105269.4614                                   24105265.6414
                                                                        39.7504
        21.0004
   6712366.21547   5275250.65244
                  24281549.2194                                   24281545.8794
                                                                        42.7504
        26.2504
  -5969883.82447  -4609233.81244
                  22966489.7584                                   22966486.3554
                                                                        44.2504
        27.5004
 09 10 11  0 48  0.0000000  0 10G02G04G05G13G29G10G23G16G07G25
 -12932958.34448 -10026255.12147
                  20649676.1254                                   20649670.3794
                                                                        51.5004
        42.0004
   2597858.66447   2050531.15645
                  22839948.9694                                   22839946.3244
                                                                        46.5004
        33.2504
 -14386133.99248 -11161145.94946
                  22006107.0634                                   22006103.5004
                                                                        49.0004
        39.2504
 -16466700.15248 -12777275.04746
                  21280046.6414                                   21280042.5664
                                                                        49.5004
        36.2504
 -17556991.89148 -13634235.76246
                  22148938.6414                                   22148935.3134
                                                                        50.0004
        37.0004
 -19823447.93448 -15425022.81246
                  21300318.0944                                   21300315.2584
                                                                        50.7504
        38.7504
   -838598.45747   -619878.06644
                  23475124.0394                                   23475118.4774
                                                                        43.0004
        26.0004
   5082332.46146   3997914.49543
                  24076910.3134                                   24076906.7304
                                                                        40.2504
        19.7504
   6526499.07447   5130419.27344
                  24246179.7894                                   24246176.5164
                                                                        42.7504
        26.2504
  -6113366.32447  -4721038.30944
                  22939185.3204                                   22939182.1374
                                                                        42.7504
        28.0004
 09 10 11  0 48 30.0000000  0 10G02G04G05G13G29G10G23G16G07G25
 -12979449.56248 -10062482.00446
                  20640828.8134                                   20640823.3954
                                                                        52.0004
        41.2504
   2612239.26247   2061736.75045
                  22842685.2814                                   22842682.7034
                                                                        46.2504
        33.2504
 -14560837.60948 -11297278.61346
                  21972861.8444                                   21972858.2114
                                                                        49.0004
        39.5004
 -16523622.27348 -12821629.98045
                  21269214.5634                                   21269210.9614
                                                                        49.2504
        35.7504
 -17682474.04748 -13732014.07046
                  22125059.5474                                   22125056.9264
                                                                        49.0004
        37.5004
 -19985953.53548 -15551650.56646
                  21269394.5944                                   21269391.3834
                                                                        50.5004
        39.0004
   -831844.77747   -614615.44944
                  23476409.0554                                   23476403.3324
                                                                        43.5004
        27.0004
   4933818.41446   3882189.29743
                  24048649.3834                                   24048645.0984
                                                                        40.2504
        21.2504
   6340914.00846   4985807.71543
                  24210863.5084                                   24210860.4064
                                                                        39.5004
        21.5004
  -6256339.27747  -4832445.77044
                  22911978.6254                                   22911975.5514
                                                                        44.2504
        28.2504
 09 10 11  0 49  0.0000000  0 10G02G04G05G13G29G10G23G16G07G25
 -13025367.01648 -10098261.87946
                  20632091.2814                                   20632085.6804
                                                                        52.2504
        41.7504
   2626892.83647   2073155.01645
                  22845473.7344                                   22845471.5944
                                                                        46.7504
        32.0004
 -14735173.56248 -11433124.74646
                  21939686.5944                                   21939683.4734
                                                                        49.2504
        39.2504
 -16579891.95348 -12865476.50845
                  21258506.6334                                   21258502.7584
                                                                        49.2504
        35.5004
 -17807365.50048 -13829332.09046
                  22101293.6334                                   22101290.2894
                                                                        49.0004
        37.0004
 -20147993.08648 -15677915.14546
                  21238559.2734                                   21238555.6094
                                                                        50.5004
        38.2504
   -824740.63347   -609079.75844
                  23477761.5234                                   23477754.9534
                                                                        42.0004
        25.7504
   4785821.38346   3766866.95343
                  24020487.2504                                   24020483.1024
                                                                        40.7504
        22.0004
   6155614.62946   4841418.05943
                  24175602.6254                                   24175599.6094
                                                                        41.7504
        22.0004
  -6398798.78147  -4943453.19544
                  22884870.1484                                   22884866.3364
                                                                        44.5004
        28.7504
 09 10 11  0 49 30.0000000  0 10G02G04G05G13G29G10G23G16G07G25
 -13070712.49648 -10133596.22346
                  20623462.3204                                   20623456.9614
                                                                        51.5004
        41.7504
   2641817.30147   2084784.38345
                  22848314.1254                                   22848311.2424
                                                                        47.0004
        32.2504
 -14909140.91048 -11568683.64546
                  21906581.7664                                   21906578.2464
                                                                        49.2504
        39.2504
 -16635510.50048 -12908815.63745
                  21247922.8054                                   21247919.2074
                                                                        48.7504
        35.5004
 -17931666.12148 -13926189.69546
                  22077639.8984                                   22077637.1254
                                                                        49.7504
        37.0004
 -20309565.97348 -15803816.10246
                  21207813.3444                                   21207809.8284
                                                                        50.2504
        39.2504
   -817288.75447   -603273.11344
                  23479179.2194                                   23479173.1994
                                                                        42.0004
        25.2504
   4638342.92646   3651948.70343
                  23992422.7344                                   23992418.3634
                                                                        40.0004
        22.2504
   5970606.00847   4697255.33643
                  24140397.4534                                   24140393.2704
                                                                        43.0004
        22.0004
  -6540742.82047  -5054058.94944
                  22857858.9454                                   22857855.3014
                                                                        44.7504
        29.0004
 09 10 11  0 50  0.0000000  0 10G02G04G05G13G29G10G23G16G07G25
 -13115484.05548 -10168483.06646
                  20614942.6884                                   20614937.4804
                                                                        51.5004
        41.2504
   2657012.16047   2096624.51245
                  22851205.9064                                   22851203.0354
                                                                        47.2504
        31.5004
 -15082735.91848 -11703952.46146
                  21873547.8594                                   21873544.1174
                                                                        49.5004
        39.2504
 -16690476.93748 -12951646.62145
                  21237462.7974                                   21237459.5594
                                                                        49.2504
        35.7504
 -18055372.46148 -14022584.22346
                  22054099.4224                                   22054096.2894
                                                                        49.2504
        37.7504
 -20470667.81248 -15929349.92646
                  21177156.8054                                   21177153.3794
                                                                        50.2504
        39.0004
   -809490.41846   -597196.45743
                  23480662.9534                                   23480656.5204
                                                                        41.7504
        21.0004
   4491386.86746   3537437.49643
                  23964457.2814                                   23964453.3284
                                                                        40.2504
        22.0004
   5785892.42247   4553322.79344
                  24105247.5864                                   24105243.5004
                                                                        44.0004
        25.0004
  -6682168.17247  -5164260.51644
                  22830946.5784                                   22830942.8634
                                                                        44.2504
        27.7504
 09 10 11  0 50 30.0000000  0 10G02G04G05G13G29G10G23G16G07G25
 -13159686.97348 -10202926.91046
                  20606531.0314                                   20606525.4734
                                                                        51.7504
        41.7504
   2672471.86347   2108670.97745
                  22854147.3754                                   22854144.3244
                                                                        46.0004
        31.0004
 -15255959.48448 -11838931.77046
                  21840584.4224                                   21840580.8554
                                                                        49.0004
        39.5004
 -16744796.69548 -12993973.70346
                  21227126.5084                                   21227122.4774
                                                                        49.2504
        36.0004
 -18178486.19948 -14118516.98446
                  22030671.5944                                   22030668.6684
                                                                        49.2504
        37.7504
 -20631300.89548 -16054518.50446
                  21146589.0234                                   21146585.9734
                                                                        50.5004
        39.5004
   -801351.26247   -590854.19143
                  23482212.0944                                   23482205.2424
                                                                        42.0004
        22.7504
   4344952.21546   3423332.60943
                  23936592.3284                                   23936588.2974
                                                                        39.5004
        22.5004
   5601473.11347   4409619.59044
                  24070153.4224                                   24070149.5474
                                                                        44.5004
        25.0004
  -6823075.96147  -5274058.75844
                  22804132.7814                                   22804128.9884
                                                                        43.7504
        29.0004
 09 10 11  0 51  0.0000000  0 10G02G04G05G13G29G10G23G16G07G25
 -11627901.89148  -9009328.12946
                  20898020.2034                                   20898014.7274
                                                                        51.5004
        41.7504
   4263612.44547   3348520.73445
                  23156931.8284                                   23156928.1994
                                                                        47.2504
        31.5004
 -13853385.53548 -10746017.02346
                  22107485.4534                                   22107481.5234
                                                                        49.7504
        39.0004
 -15223050.49648 -11808197.43445
                  21516704.9614                                   21516701.0204
                                                                        49.2504
        35.5004
 -16725583.30948 -12986384.83646
                  22307149.9534                                   22307146.6524
                                                                        49.0004
        37.0004
 -19216038.87148 -14951716.91446
                  21415904.4064                                   21415900.9614
                                                                        51.0004
        39.2504
    782544.24647    643350.09044
                  23783617.3364                                   23783611.0824
                                                                        43.2504
        27.0004
   5774465.09046   4537238.75443
                  24208619.3754                                   24208615.1604
                                                                        40.0004
        22.0004
   6992775.28547   5493751.19944
                  24334909.2734                                   24334906.3484
                                                                        42.5004
        27.0004
  -5388041.12547  -4155849.77044
                  23077210.7974                                   23077207.2384
                                                                        44.0004
        28.5004
 09 10 11  0 51 30.0000000  0 10G02G04G05G13G29G10G23G16G07G25
 -11670972.52048  -9042889.60547
                  20889824.4774                                   20889818.8244
                                                                        52.0004
        42.0004
   4279593.00447   3360973.01645
                  23159972.6564                                   23159969.9494
                                                                        47.2504
        32.0004
 -14025863.81648 -10880415.66446
                  22074663.8284                                   22074660.2424
                                                                        49.2504
        39.5004
 -15276083.41048 -11849521.76245
                  21506613.2114                                   21506609.3984
                                                                        49.0004
        35.5004
 -16847510.63748 -13081393.13746
                  22283947.9224                                   22283944.5744
                                                                        49.5004
        37.7504
 -19375730.44548 -15076151.89846
                  21385516.0164                                   21385512.7304
                                                                        50.0004
        39.5004
    791354.25847    650215.04344
                  23785294.3984                                   23785288.2194
                                                                        44.2504
        25.7504
   5629077.41046   4423949.67643
                  24180953.2114                                   24180948.5744
                                                                        40.2504
        21.0004
   6808950.46946   5350511.19544
                  24299928.5554                                   24299925.5664
                                                                        40.2504
        25.0004
  -5527910.77347  -4264839.07044
                  23050594.0314                                   23050591.0594
                                                                        43.5004
        29.0004
 09 10 11  0 52  0.0000000  0 10G02G04G05G13G29G10G23G16G07G25
 -11713483.65648  -9076015.09047
                  20881734.2734                                   20881728.8754
                                                                        51.5004
        42.2504
   4295826.49247   3373622.40245
                  23163062.5164                                   23163059.1884
                                                                        46.5004
        32.5004
 -14197971.54348 -11014525.60946
                  22041912.6724                                   22041909.2544
                                                                        50.2504
        39.2504
 -15328479.69148 -11890350.00445
                  21496642.8204                                   21496638.9804
                                                                        49.5004
        35.5004
 -16968848.23048 -13175941.91446
                  22260858.2894                                   22260855.2074
                                                                        49.5004
        38.2504
 -19534953.62948 -15200221.89546
                  21355216.6094                                   21355213.2814
                                                                        50.5004
        39.7504
    800491.08246    657334.65644
                  23787032.7274                                   23787027.3524
                                                                        41.5004
        26.5004
   5484211.23846   4311066.91443
                  24153386.0704                                   24153381.2504
                                                                        40.0004
        20.2504
   6625422.85246   5207502.75444
                  24265003.4304                                   24265001.4224
                                                                        39.5004
        24.5004
  -5667263.25047  -4373425.44544
                  23024076.4774                                   23024072.7304
                                                                        42.5004
        29.0004
 09 10 11  0 52 30.0000000  0 10G02G04G05G13G29G10G23G16G07G25
 -11755433.43448  -9108703.27746
                  20873751.9224                                   20873745.9844
                                                                        51.0004
        41.7504
   4312313.23847   3386469.10245
                  23166199.0784                                   23166196.3444
                                                                        44.5004
        30.5004
 -14369703.55948 -11148342.79346
                  22009233.0944                                   22009229.6764
                                                                        50.7504
        39.5004
 -15380237.25848 -11930680.57846
                  21486793.7664                                   21486789.5944
                                                                        50.0004
        36.0004
 -17089590.60948 -13270026.88746
                  22237881.8054                                   22237878.7504
                                                                        48.7504
        37.0004
 -19693703.39148 -15323922.93446
                  21325007.2424                                   21325004.0314
                                                                        49.2504
        39.0004
    809955.44547    664709.46943
                  23788833.2894                                   23788828.2194
                                                                        42.0004
        23.5004
   5339872.56646   4198595.23043
                  24125919.0394                                   24125914.5784
                                                                        39.5004
        20.2504
   6442198.43047   5064730.65244
                  24230137.6254                                   24230134.3554
                                                                        42.5004
        26.5004
  -5806093.68447  -4481605.04744
                  22997657.7034                                   22997654.3364
                                                                        44.2504
        28.5004
 09 10 11  0 53  0.0000000  0 10G02G04G05G13G29G10G23G16G07G25
 -11796820.50448  -9140953.01646
                  20865875.8674                                   20865870.4534
                                                                        51.5004
        41.5004
   4329053.81347   3399513.56345
                  23169384.5004                                   23169382.2734
                                                                        45.5004
        30.5004
 -14541055.75848 -11281863.97746
                  21976625.9304                                   21976622.5314
                                                                        50.2504
        39.5004
 -15431356.38348 -11970513.64545
                  21477065.9304                                   21477061.8164
                                                                        50.0004
        35.5004
 -17209734.99248 -13363645.86746
                  22215018.6724                                   22215015.6254
                                                                        48.7504
        36.5004
 -19851976.11348 -15447252.34046
                  21294889.5314                                   21294886.2304
                                                                        50.0004
        38.7504
    819746.32046    672338.70343
                  23790695.9614                                   23790690.6764
                                                                        41.0004
        22.7504
   5196064.82846   4086537.26643
                  24098553.8914                                   24098549.0594
                                                                        40.2504
        21.5004
   6259282.04747   4922198.42244
                  24195329.6804                                   24195326.6134
                                                                        43.0004
        25.7504
  -5944398.07047  -4589374.69944
                  22971339.1484                                   22971335.1724
                                                                        44.0004
        29.2504
 09 10 11  0 53 30.0000000  0 10G02G04G05G13G29G10G23G16G07G25
 -11837647.72348  -9172766.51246
                  20858106.6724                                   20858101.2934
                                                                        51.0004
        41.5004
   4346044.31647   3412752.76245
                  23172618.2344                                   23172615.5274
                                                                        46.5004
        31.2504
 -14712027.48048 -11415088.66046
                  21944090.7734                                   21944087.6094
                                                                        49.7504
        39.7504
 -15481839.22748 -12009850.90645
                  21467459.4844                                   21467455.2934
                                                                        50.0004
        35.5004
 -17329281.72748 -13456799.13746
                  22192270.1414                                   22192266.7424
                                                                        48.2504
        37.2504
 -20009771.06248 -15570209.44546
                  21264861.8594                                   21264858.6484
                                                                        50.0004
        39.0004
    829859.82446    680219.33643
                  23792620.5704                                   23792615.1484
                                                                        41.2504
        22.2504
   5052788.71947   3974893.54343
                  24071288.6954                                   24071284.5554
                                                                        42.0004
        21.7504
   6076675.67247   4779907.72344
                  24160581.7894                                   24160577.5984
                                                                        43.0004
        25.0004
  -6082176.00847  -4696734.11744
                  22945120.8834                                   22945117.7704
                                                                        44.5004
        28.2504
 09 10 11  0 54  0.0000000  0 10G02G04G05G13G29G10G23G16G07G25
 -11877917.29748  -9204145.37546
                  20850443.7664                                   20850438.3284
                                                                        50.2504
        41.0004
   4363281.62547   3426184.45745
                  23175898.6254                                   23175895.7304
                                                                        45.2504
        31.0004
 -14882619.22748 -11548017.30946
                  21911628.7194                                   21911625.4804
                                                                        50.0004
        40.2504
 -15531689.19548 -12048695.03545
                  21457973.1254                                   21457969.0274
                                                                        49.0004
        34.5004
 -17448231.17248 -13549486.99646
                  22169634.6334                                   22169631.5514
                                                                        48.0004
        37.2504
 -20167088.15248 -15692794.19146
                  21234925.2584                                   21234922.2934
                                                                        48.5004
        39.5004
    840291.71547    688348.09443
                  23794606.2894                                   23794600.1454
                                                                        43.5004
        23.5004
   4910044.59446   3863664.35543
                  24044126.0944                                   24044121.1764
                                                                        40.5004
        22.0004
   5894380.16047   4637859.25844
                  24125891.6804                                   24125887.3714
                                                                        44.0004
        25.0004
  -6219427.22347  -4803683.08244
                  22919003.4614                                   22918999.9304
                                                                        42.7504
        28.5004
 09 10 11  0 54 30.0000000  0 10G02G04G05G13G29G10G23G16G07G25
 -11917633.66448  -9235093.12946
                  20842885.8834                                   20842880.5354
                                                                        50.5004
        41.5004
   4380760.32047   3439804.25844
                  23179224.5084                                   23179221.8634
                                                                        46.5004
        29.5004
 -15052831.98448 -11680650.64146
                  21879238.5864                                   21879234.7504
                                                                        51.0004
        39.7504
 -15580910.31248 -12087049.12945
                  21448606.5554                                   21448603.0234
                                                                        49.7504
        35.5004
 -17566584.97348 -13641710.73846
                  22147112.2814                                   22147109.3874
                                                                        49.2504
        37.2504
 -20323928.78948 -15815007.67246
                  21205079.5944                                   21205076.4654
                                                                        49.7504
        39.2504
    851036.62947    696720.81644
                  23796651.5474                                   23796644.4694
                                                                        44.2504
        24.0004
   4767832.02346   3752849.37943
                  24017063.1254                                   24017058.4924
                                                                        39.0004
        21.5004
   5712396.44147   4496053.76243
                  24091260.7974                                   24091256.9494
                                                                        43.5004
        23.0004
  -6356152.72347  -4910222.41444
                  22892984.6094                                   22892981.6954
                                                                        42.2504
        29.7504
 09 10 11  0 55  0.0000000  0 10G02G04G05G13G29G10G23G16G07G25
 -11956797.62148  -9265610.49246
                  20835433.3284                                   20835427.9344
                                                                        51.2504
        41.5004
   4398478.52347   3453610.65644
                  23182596.0004                                   23182593.6724
                                                                        45.0004
        29.2504
 -15222663.31648 -11812986.72746
                  21846920.8834                                   21846917.0634
                                                                        50.5004
        40.0004
 -15629504.26248 -12124914.53945
                  21439359.5554                                   21439355.3554
                                                                        49.0004
        35.2504
 -17684341.35948 -13733468.94946
                  22124704.1414                                   22124701.2274
                                                                        49.2504
        37.5004
 -20480290.83648 -15936848.23046
                  21175325.0634                                   21175322.1564
                                                                        50.5004
        39.7504
    862091.87147    705335.33243
                  23798754.7274                                   23798748.1334
                                                                        43.5004
        22.2504
   4626153.05946   3642450.19143
                  23990102.4224                                   23990098.0984
                                                                        40.0004
        21.5004
   5530726.94547   4354493.17644
                  24056690.3204                                   24056687.0984
                                                                        42.7504
        25.2504
  -6492350.82447  -5016350.77744
                  22867067.0944                                   22867064.2384
                                                                        42.2504
        28.7504
 09 10 11  0 55 30.0000000  0 10G02G04G05G13G29G10G23G16G07G25
 -11995405.47748  -9295694.56246
                  20828086.5084                                   20828081.1884
                                                                        51.2504
        41.7504
   4416439.37147   3467606.12545
                  23186014.2114                                   23186011.4454
                                                                        45.2504
        30.2504
 -15392106.32848 -11945020.25846
                  21814676.3364                                   21814672.7034
                                                                        50.7504
        39.5004
 -15677467.38348 -12162288.39545
                  21430232.2734                                   21430228.0594
                                                                        49.0004
        35.0004
 -17801494.40248 -13824757.02046
                  22102410.6884                                   22102407.8754
                                                                        49.5004
        37.7504
 -20636167.50848 -16058310.54346
                  21145662.6954                                   21145659.7464
                                                                        50.5004
        40.0004
    873460.62546    714194.09843
                  23800917.6024                                   23800912.3754
                                                                        40.5004
        22.7504
   4485015.13346   3532472.57043
                  23963245.1174                                   23963240.3554
                                                                        38.5004
        21.0004
   5349379.96946   4213183.86344
                  24022180.9844                                   24022178.4454
                                                                        40.7504
        24.7504
  -6628014.31247  -5122062.55144
                  22841251.3834                                   22841248.0394
                                                                        44.2504
        29.2504
 09 10 11  0 56  0.0000000  0 10G02G04G05G13G29G10G23G16G07G25
 -12033460.60248  -9325347.91046
                  20820845.0394                                   20820839.6524
                                                                        50.2504
        41.5004
   4434638.49247   3481787.24645
                  23189477.2974                                   23189474.5234
                                                                        47.0004
        30.7504
 -15561161.44148 -12076751.50846
                  21782506.5394                                   21782502.8204
                                                                        50.0004
        39.2504
 -15724803.55148 -12199173.70345
                  21421224.5234                                   21421220.8524
                                                                        48.7504
        35.0004
 -17918045.27348 -13915575.85546
                  22080231.8834                                   22080228.6914
                                                                        49.5004
        37.5004
 -20791559.62148 -16179395.32846
                  21116092.3834                                   21116089.3444
                                                                        49.2504
        40.0004
    885137.33646    723292.82443
                  23803139.4224                                   23803134.7704
                                                                        41.2504
        22.7504
   4344417.49246   3422915.98043
                  23936489.3754                                   23936485.5634
                                                                        38.5004
        20.2504
   5168356.64846   4072126.91844
                  23987733.1094                                   23987730.2154
                                                                        41.7504
        27.5004
  -6763143.70347  -5227358.18445
                  22815537.0704                                   22815533.7074
                                                                        43.7504
        30.0004
 09 10 11  0 56 30.0000000  0 10G02G04G05G13G29G10G23G16G07G25
 -12070968.57848  -9354574.90647
                  20813707.2894                                   20813701.8164
                                                                        50.0004
        42.0004
   4453069.02347   3496148.62545
                  23192984.1804                                   23192982.0824
                                                                        46.5004
        31.0004
 -15729830.89548 -12208182.16846
                  21750409.6954                                   21750406.1414
                                                                        50.0004
        39.5004
 -15771518.84848 -12235575.23045
                  21412334.8834                                   21412331.0004
                                                                        48.2504
        34.7504
 -18033996.97748 -14005927.80146
                  22058166.9144                                   22058163.9694
                                                                        49.5004
        37.7504
 -20946469.50448 -16300104.32446
                  21086614.1484                                   21086610.5864
                                                                        49.5004
        39.5004
    897114.79746    732625.85243
                  23805418.9064                                   23805413.6254
                                                                        40.7504
        23.0004
   4204357.79746   3313778.58243
                  23909837.6334                                   23909833.7584
                                                                        41.0004
        22.5004
   4987654.97747   3931320.57444
                  23953347.2734                                   23953344.0044
                                                                        43.5004
        28.2504
  -6897742.13347  -5332240.04744
                  22789923.8754                                   22789920.3874
                                                                        44.2504
        29.2504
 09 10 11  0 57  0.0000000  0 10G02G04G05G13G29G10G23G16G07G25
 -12107929.14848  -9383375.32446
                  20806673.8754                                   20806668.3244
                                                                        50.7504
        41.2504
   4471730.93047   3510690.27045
                  23196535.8444                                   23196533.5204
                                                                        45.7504
        30.2504
 -15898112.22748 -12339310.46546
                  21718386.5314                                   21718383.4224
                                                                        49.0004
        40.0004
 -15817613.02047 -12271492.75445
                  21403563.3594                                   21403559.3954
                                                                        47.7504
        34.5004
 -18149347.62948 -14095811.43046
                  22036216.1254                                   22036213.7194
                                                                        49.7504
        38.2504
 -21100894.39148 -16420435.40246
                  21057228.2664                                   21057224.7734
                                                                        49.0004
        39.5004
    909392.15647    742192.59043
                  23807755.6094                                   23807749.8984
                                                                        42.2504
        22.7504
   4064839.39147   3205062.94543
                  23883288.6564                                   23883284.0944
                                                                        42.0004
        22.7504
   4807279.64147   3790768.45344
                  23919023.1644                                   23919019.2234
                                                                        45.0004
        27.7504
  -7031805.96547  -5436705.35944
                  22764412.5784                                   22764408.8404
                                                                        45.0004
        28.5004
 09 10 11  0 57 30.0000000  0 10G02G04G05G13G29G10G23G16G07G25
 -12144341.79348  -9411748.80946
                  20799744.9774                                   20799739.4774
                                                                        50.2504
        41.5004
   4490623.67647   3525411.79745
                  23200131.2194                                   23200128.6374
                                                                        46.0004
        30.5004
 -16066001.38748 -12470133.14146
                  21686438.3754                                   21686435.1174
                                                                        50.5004
        40.2504
 -15863086.16848 -12306926.38345
                  21394910.2504                                   21394906.9024
                                                                        48.5004
        35.0004
 -18264093.48848 -14185223.79346
                  22014381.1484                                   22014378.0474
                                                                        49.5004
        38.0004
 -21254830.45748 -16540385.57446
                  21027935.1564                                   21027931.3914
                                                                        48.0004
        39.7504
    921968.68447    751992.48443
                  23810148.8834                                   23810142.8954
                                                                        42.5004
        22.2504
   3925866.50847   3096772.38343
                  23856843.0864                                   23856838.2894
                                                                        43.0004
        22.7504
   4627235.10247   3650473.94944
                  23884761.7114                                   23884758.2074
                                                                        44.7504
        28.0004
  -7165331.74647  -5540751.42644
                  22739003.4384                                   22738999.4494
                                                                        45.0004
        29.0004
 09 10 11  0 58  0.0000000  0 10G02G04G05G13G29G10G23G16G07G25
 -12180207.16848  -9439695.82446
                  20792919.8914                                   20792914.7974
                                                                        50.5004
        41.0004
   4509745.55147   3540311.82044
                  23203769.7664                                   23203767.2544
                                                                        45.5004
        28.5004
 -16233495.63348 -12600648.10546
                  21654565.7034                                   21654562.2704
                                                                        50.5004
        40.2504
 -15907939.44148 -12341876.98845
                  21386375.1254                                   21386371.2504
                                                                        48.0004
        35.5004
 -18378233.52748 -14274164.07046
                  21992660.8754                                   21992657.6094
                                                                        49.5004
        37.5004
 -21408275.46948 -16659953.11346
                  20998735.3984                                   20998732.4804
                                                                        48.7504
        40.0004
    934842.19947    762023.81343
                  23812599.0944                                   23812592.8014
                                                                        44.0004
        22.5004
   3787441.22747   2988908.51244
                  23830501.4534                                   23830497.0004
                                                                        43.5004
        25.7504
   4447525.10247   3510440.26644
                  23850563.8984                                   23850559.9384
                                                                        43.0004
        25.7504
  -7298317.50047  -5644376.72344
                  22713697.3134                                   22713693.0164
                                                                        45.0004
        29.0004
 09 10 11  0 58 30.0000000  0 10G02G04G05G13G29G10G23G16G07G25
 -12215527.66448  -9467218.25046
                  20786198.3444                                   20786192.9264
                                                                        50.5004
        41.0004
   4529093.65247   3555388.06344
                  23207451.8364                                   23207449.1454
                                                                        44.5004
        29.7504
 -16400594.62948 -12730855.07846
                  21622767.5004                                   21622764.2894
                                                                        50.2504
        40.5004
 -15952175.42247 -12376346.59445
                  21377957.2194                                   21377953.4064
                                                                        46.7504
        35.5004
 -18491767.79348 -14362632.32046
                  21971055.9144                                   21971053.0664
                                                                        50.5004
        37.2504
 -21561229.14848 -16779137.78546
                  20969629.1484                                   20969626.1994
                                                                        49.5004
        40.0004
    948009.27047    772283.91043
                  23815103.8674                                   23815098.0784
                                                                        42.2504
        22.7504
   3649564.64147   2881472.23443
                  23804264.7584                                   23804260.1804
                                                                        42.7504
        23.0004
   4268151.90247   3370668.93443
                  23816429.3984                                   23816425.7114
                                                                        42.0004
        22.5004
  -7430762.22747  -5747580.39544
                  22688493.9694                                   22688489.5864
                                                                        44.5004
        28.0004
 09 10 11  0 59  0.0000000  0 10G02G04G05G13G29G10G23G16G07G25
 -12250309.22748  -9494320.76246
                  20779579.7974                                   20779574.4614
                                                                        50.5004
        41.0004
   4548660.96547   3570635.06344
                  23211175.3204                                   23211172.7464
                                                                        44.7504
        28.7504
 -16567300.80948 -12860755.99646
                  21591044.2274                                   21591040.7774
                                                                        50.5004
        40.7504
 -15995800.55948 -12410340.20345
                  21369655.4844                                   21369651.8834
                                                                        48.5004
        35.0004
 -18604699.14148 -14450630.77346
                  21949565.8914                                   21949562.9734
                                                                        51.0004
        37.5004
 -21713694.03548 -16897941.56646
                  20940616.1884                                   20940613.1454
                                                                        49.5004
        40.5004
    961462.57047    782766.99243
                  23817663.9924                                   23817658.3594
                                                                        42.7504
        22.5004
   3512233.66847   2774461.07843
                  23778131.0394                                   23778126.9654
                                                                        42.2504
        22.7504
   4089113.10946   3231158.23043
                  23782359.5004                                   23782355.4104
                                                                        41.2504
        22.5004
  -7562669.21147  -5850365.02744
                  22663392.6804                                   22663388.9384
                                                                        44.7504
        29.0004
 09 10 11  0 59 30.0000000  0 10G02G04G05G13G29G10G23G16G07G25
 -12284552.70348  -9521003.98446
                  20773063.6884                                   20773058.0354
                                                                        51.5004
        41.0004
   4568446.93447   3586052.64545
                  23214940.7584                                   23214938.4924
                                                                        45.5004
        30.2504
 -16733612.11748 -12990349.21146
                  21559396.0234                                   21559392.8554
                                                                        51.0004
        40.2504
 -16038815.79348 -12443858.57445
                  21361470.3204                                   21361466.2344
                                                                        49.0004
        34.7504
 -18717026.56248 -14538158.62546
                  21928190.9774                                   21928187.5864
                                                                        50.0004
        37.5004
 -21865667.88748 -17016362.66846
                  20911696.2504                                   20911692.9534
                                                                        50.0004
        40.0004
    975199.87146    793471.35243
                  23820278.3524                                   23820272.6884
                                                                        41.0004
        21.5004
   3375451.05947   2667877.25443
                  23752101.9224                                   23752097.7894
                                                                        42.2504
        22.2504
   3910412.85546   3091911.39144
                  23748354.3364                                   23748350.6994
                                                                        41.0004
        24.5004
  -7694036.01247  -5952728.72744
                  22638394.1414                                   22638390.8984
                                                                        45.2504
        28.5004
 09 10 11  1  0  0.0000000  0 10G02G04G05G13G29G10G23G16G07G25
 -10742835.59448  -8319666.00846
                  21066442.3754                                   21066436.9924
                                                                        50.5004
        41.2504
   6163870.80547   4829240.14545
                  23518539.8674                                   23518537.2194
                                                                        45.5004
        30.0004
 -15324098.60248 -11892026.98846
                  21827617.9384                                   21827614.5394
                                                                        51.2504
        40.5004
 -14505798.87948 -11249299.93445
                  21653193.7584                                   21653189.8954
                                                                        49.0004
        34.7504
 -17253322.91048 -13397610.32846
                  22206724.0634                                   22206721.2424
                                                                        50.5004
        38.2504
 -20441722.26248 -15906794.63346
                  21182664.2504                                   21182660.9224
                                                                        49.2504
        40.0004
   2564640.57847   2031996.55543
                  24122737.9844                                   24122733.1564
                                                                        42.0004
        20.2504
   4814645.56347   3789327.52743
                  24025971.8364                                   24025967.2424
                                                                        42.0004
        22.7504
   5307482.18047   4180536.92244
                  24014207.2814                                   24014204.7194
                                                                        42.5004
        26.2504
  -6249434.36347  -4827065.09844
                  22913292.3444                                   22913289.0864
                                                                        44.2504
        29.0004
 09 10 11  1  0 30.0000000  0 10G02G04G05G13G29G10G23G16G07G25
 -10776001.89848  -8345509.87146
                  21060131.1174                                   21060125.7424
                                                                        51.5004
        41.0004
   6184091.17247   4844996.37144
                  23522387.2034                                   23522385.3164
                                                                        45.7504
        28.5004
 -15489609.87948 -12020996.81646
                  21796121.6804                                   21796118.7384
                                                                        50.7504
        40.2504
 -14547595.30948 -11281868.57045
                  21645239.7974                                   21645235.7074
                                                                        49.0004
        35.0004
 -17364435.03948 -13484191.21146
                  22185580.3364                                   22185577.2974
                                                                        50.7504
        37.7504
 -20592705.52048 -16024443.89546
                  21153933.0234                                   21153930.0314
                                                                        50.0004
        40.5004
   2578942.44947   2043140.89543
                  24125460.6804                                   24125454.8834
                                                                        43.7504
        22.5004
   4678969.42646   3683605.88743
                  24000152.7194                                   24000148.6684
                                                                        41.7504
        22.0004
   5129471.42647   4041827.33244
                  23980333.5944                                   23980330.2814
                                                                        43.0004
        28.0004
  -6379712.04347  -4928580.14544
                  22888501.5784                                   22888498.1604
                                                                        45.2504
        28.7504
 09 10 11  1  1  0.0000000  0 10G02G04G05G13G29G10G23G16G07G25
 -10808634.69948  -8370937.99646
                  21053921.4384                                   21053915.6764
                                                                        51.0004
        41.5004
   6204522.44147   4860916.85244
                  23526275.6884                                   23526273.1414
                                                                        45.5004
        29.0004
 -15654721.45748 -12149655.15646
                  21764702.3054                                   21764698.6644
                                                                        51.0004
        40.5004
 -14588787.60948 -11313966.44545
                  21637401.3054                                   21637397.2114
                                                                        49.0004
        34.0004
 -17474940.94148 -13570299.70346
                  22164551.6564                                   22164548.9734
                                                                        50.2504
        37.7504
 -20743193.69548 -16141707.40246
                  21125296.1174                                   21125292.8204
                                                                        49.2504
        40.5004
   2593519.96947   2054500.00044
                  24128234.8984                                   24128228.7934
                                                                        42.7504
        24.5004
   4543846.46546   3578315.25443
                  23974439.6414                                   23974435.5164
                                                                        41.2504
        20.2504
   4951807.10547   3903387.55944
                  23946525.3204                                   23946522.1484
                                                                        44.0004
        29.7504
  -6509445.37547  -5029671.02744
                  22863813.9924                                   22863810.7584
                                                                        44.7504
        29.0004
 09 10 11  1  1 30.0000000  0 10G02G04G05G13G29G10G23G16G07G25
 -10840733.55948  -8395950.10246
                  21047813.0864                                   21047807.5984
                                                                        51.0004
        41.5004
   6225164.66447   4877001.67644
                  23530203.2664                                   23530201.3554
                                                                        45.5004
        29.5004
 -15819429.57048 -12277999.10546
                  21733359.4454                                   21733356.1254
                                                                        51.5004
        40.7504
 -14629376.05948 -11345593.81245
                  21629677.4534                                   21629673.8674
                                                                        49.0004
        34.7504
 -17584837.96548 -13655933.75046
                  22143638.9454                                   22143635.8164
                                                                        50.0004
        38.0004
 -20893183.51648 -16258582.59446
                  21096753.8594                                   21096751.0474
                                                                        49.0004
        40.2504
   2608372.50047   2066073.37143
                  24131061.5864                                   24131055.1054
                                                                        42.7504
        23.5004
   4409280.34446   3473458.53543
                  23948833.3444                                   23948827.6914
                                                                        40.5004
        20.7504
   4774494.13347   3765221.54344
                  23912784.0394                                   23912780.2854
                                                                        42.5004
        29.0004
  -6638631.14547  -5130335.25044
                  22839230.8674                                   22839227.5434
                                                                        45.0004
        29.0004
 09 10 11  1  2  0.0000000  0 10G02G04G05G13G29G10G23G16G07G25
 -10872300.75448  -8420547.93746
                  21041806.2664                                   21041800.6374
                                                                        51.5004
        41.0004
   6246014.41047   4893248.16444
                  23534171.1094                                   23534169.1414
                                                                        45.5004
        28.2504
 -15983734.00848 -12406028.51646
                  21702092.9144                                   21702089.8244
                                                                        51.2504
        40.5004
 -14669363.44548 -11376752.80145
                  21622068.0314                                   21622064.3634
                                                                        48.7504
        34.5004
 -17694126.49248 -13741093.64846
                  22122842.1564                                   22122839.2584
                                                                        49.5004
        38.5004
 -21042674.16048 -16375068.79346
                  21068306.7424                                   21068303.7664
                                                                        49.7504
        40.0004
   2623495.98447   2077857.87143
                  24133938.8674                                   24133933.6134
                                                                        42.0004
        22.7504
   4275271.18046   3369035.81343
                  23923331.9844                                   23923326.6604
                                                                        41.0004
        19.7504
   4597534.08647   3627330.53944
                  23879109.5234                                   23879106.0704
                                                                        42.5004
        28.0004
  -6767269.11747  -5230572.64145
                  22814751.8054                                   22814748.4694
                                                                        45.2504
        30.0004
 09 10 11  1  2 30.0000000  0 10G02G04G05G13G29G10G23G16G07G25
 -10903339.21148  -8444733.75846
                  21035899.7194                                   21035894.3204
                                                                        50.5004
        41.5004
   6267068.61347   4909654.00044
                  23538177.9534                                   23538175.2304
                                                                        45.5004
        27.5004
 -16147634.14848 -12533742.87946
                  21670904.1564                                   21670900.9104
                                                                        51.7504
        40.5004
 -14708753.04348 -11407445.99645
                  21614572.5394                                   21614568.5824
                                                                        49.0004
        34.7504
 -17802806.89848 -13825779.67646
                  22102160.8444                                   22102158.2504
                                                                        50.0004
        38.2504
 -21191666.02348 -16491166.34446
                  21039954.6094                                   21039951.8054
                                                                        48.5004
        40.2504
   2638886.62547   2089850.55544
                  24136868.1804                                   24136861.9734
                                                                        43.7504
        24.2504
   4141819.70746   3265047.63743
                  23897937.5634                                   23897932.5354
                                                                        41.5004
        21.7504
   4420928.73846   3489715.87544
                  23845501.6024                                   23845498.6054
                                                                        38.7504
        25.2504
  -6895358.83247  -5330382.81244
                  22790377.1094                                   22790374.0164
                                                                        44.5004
        29.5004
 09 10 11  1  3  0.0000000  0 10G02G04G05G13G29G10G23G16G07G25
 -10933851.37148  -8468509.49646
                  21030093.7114                                   21030088.2934
                                                                        50.5004
        41.0004
   6288323.96547   4926216.52744
                  23542222.6094                                   23542219.7344
                                                                        45.7504
        29.0004
 -16311128.89148 -12661141.34446
                  21639792.0394                                   21639788.6484
                                                                        52.0004
        41.0004
 -14747547.10948 -11437675.13745
                  21607190.2664                                   21607186.8444
                                                                        49.2504
        34.0004
 -17910879.09848 -13909991.77746
                  22081595.6254                                   22081592.5394
                                                                        50.0004
        38.2504
 -21340157.86348 -16606874.27046
                  21011697.4454                                   21011694.4844
                                                                        49.7504
        40.5004
   2654540.69147   2102048.54743
                  24139846.6174                                   24139840.6254
                                                                        42.7504
        21.7504
   4008926.99247   3161494.87943
                  23872648.9064                                   23872644.4144
                                                                        42.2504
        22.2504
   4244680.02747   3352379.09844
                  23811963.5084                                   23811959.5164
                                                                        42.0004
        24.2504
  -7022899.82447  -5429765.37545
                  22766107.2974                                   22766103.7774
                                                                        45.7504
        30.0004
 09 10 11  1  3 30.0000000  0 10G02G04G05G13G29G10G23G16G07G25
 -10963841.09048  -8491878.07046
                  21024386.7424                                   21024381.2544
                                                                        50.2504
        41.0004
   6309775.84447   4942932.13744
                  23546305.2974                                   23546302.4224
                                                                        45.7504
        29.0004
 -16474219.42248 -12788224.88746
                  21608757.0314                                   21608753.3834
                                                                        51.2504
        41.0004
 -14785750.55948 -11467444.05145
                  21599920.4924                                   21599916.3874
                                                                        49.0004
        34.2504
 -18018344.89548 -13993731.36746
                  22061145.7344                                   22061142.7274
                                                                        49.5004
        38.0004
 -21488150.76248 -16722193.40646
                  20983535.4774                                   20983532.2504
                                                                        49.2504
        40.0004
   2670452.94546   2114447.69543
                  24142873.8594                                   24142868.2854
                                                                        39.5004
        20.5004
   3876591.76647   3058376.50844
                  23847466.4534                                   23847461.7774
                                                                        42.2504
        25.0004
   4068788.10546   3215320.42244
                  23778491.9844                                   23778488.0864
                                                                        40.5004
        24.0004
  -7149893.39547  -5528721.39545
                  22741941.3444                                   22741937.6254
                                                                        46.5004
        30.0004
 09 10 11  1  4  0.0000000  0 10G02G04G05G13G29G10G23G16G07G25
 -10993310.79348  -8514841.52046
                  21018778.7504                                   21018773.2894
                                                                        51.0004
        40.7504
   6331421.12147   4959798.30144
                  23550423.5784                                   23550421.5554
                                                                        44.0004
        28.7504
 -16636904.69148 -12914992.62546
                  21577799.0004                                   21577795.3714
                                                                        51.5004
        41.0004
 -14823366.34448 -11496755.04345
                  21592762.1644                                   21592758.6724
                                                                        48.7504
        34.2504
 -18125204.28948 -14076998.43046
                  22040810.7344                                   22040807.5824
                                                                        50.0004
        38.2504
 -21635644.65648 -16837123.70746
                  20955468.1804                                   20955465.3634
                                                                        49.7504
        40.5004
   2686620.27546   2127045.54843
                  24145950.2504                                   24145944.9304
                                                                        39.2504
        18.2504
   3744815.08247   2955693.35944
                  23822389.3984                                   23822385.6414
                                                                        43.0004
        25.0004
   3893255.05547   3078541.25444
                  23745089.3674                                   23745085.9804
                                                                        42.7504
        24.7504
  -7276338.75847  -5627250.25845
                  22717878.9614                                   22717875.4384
                                                                        45.7504
        30.0004
 09 10 11  1  4 30.0000000  0 10G02G04G05G13G29G10G23G16G07G25
 -11022258.81648  -8537398.44146
                  21013270.2194                                   21013264.7584
                                                                        50.2504
        41.0004
   6353261.48047   4976816.74644
                  23554579.8754                                   23554577.7344
                                                                        43.5004
        28.5004
 -16799179.60548 -13041440.59446
                  21546919.1334                                   21546915.4184
                                                                        51.0004
        40.5004
 -14860392.81648 -11525606.84445
                  21585716.5944                                   21585712.9414
                                                                        49.0004
        33.7504
 -18231453.68448 -14159790.19146
                  22020592.0554                                   22020589.1054
                                                                        49.7504
        38.0004
 -21782634.57048 -16951661.31646
                  20927497.2274                                   20927493.9884
                                                                        50.0004
        40.7504
   2703043.12946   2139842.57843
                  24149076.6024                                   24149069.7544
                                                                        40.5004
        20.2504
   3613601.97347   2853449.38744
                  23797421.0634                                   23797416.6914
                                                                        42.2504
        24.5004
   3718087.21947   2942046.81344
                  23711756.3134                                   23711752.9384
                                                                        43.2504
        28.2504
  -7402231.44147  -5725348.46144
                  22693922.7274                                   22693918.8634
                                                                        45.0004
        29.5004
 09 10 11  1  5  0.0000000  0  9G02G04G05G13G29G10G16G07G25
 -11050683.09848  -8559547.24646
                  21007861.0784                                   21007855.8164
                                                                        50.2504
        40.7504
   6375298.34047   4993988.41044
                  23558773.3674                                   23558771.7154
                                                                        43.5004
        28.5004
 -16961039.16848 -13167564.95346
                  21516118.2344                                   21516115.3794
                                                                        50.7504
        40.5004
 -14896828.30948 -11553998.15645
                  21578782.9224                                   21578779.3134
                                                                        48.5004
        33.5004
 -18337088.64148 -14242103.15646
                  22000490.5394                                   22000487.7114
                                                                        49.0004
        38.5004
 -21929115.47348 -17065802.27046
                  20899622.5634                                   20899619.7344
                                                                        50.2504
        40.7504
   3482957.19547   2751648.25444
                  23772559.6884                                   23772555.6174
                                                                        42.5004
        26.2504
   3543290.56647   2805841.64544
                  23678494.2504                                   23678491.0164
                                                                        44.0004
        29.2504
  -7527566.52747  -5823012.17645
                  22670072.4064                                   22670068.3364
                                                                        45.7504
        30.2504
 09 10 11  1  5 30.0000000  0  9G02G04G05G13G29G10G16G07G25
 -11078588.23848  -8581291.52346
                  21002550.7274                                   21002545.5744
                                                                        50.0004
        40.5004
   6397525.41847   5011308.12544
                  23563003.1724                                   23563000.9384
                                                                        44.5004
        29.0004
 -17122484.67648 -13293366.62146
                  21485396.1174                                   21485392.5354
                                                                        50.5004
        41.0004
 -14932678.26248 -11581933.17645
                  21571961.2194                                   21571957.3914
                                                                        49.5004
        34.5004
 -18442111.11348 -14323938.84446
                  21980505.4064                                   21980502.5474
                                                                        49.5004
        38.2504
 -22075088.99648 -17179547.84046
                  20871844.9144                                   20871841.8754
                                                                        49.7504
        40.5004
   3352879.35947   2650288.91844
                  23747807.4144                                   23747802.6994
                                                                        42.0004
        24.7504
   3368865.21947   2669925.86744
                  23645301.6334                                   23645298.8324
                                                                        42.5004
        29.0004
  -7652345.78147  -5920242.77344
                  22646327.9224                                   22646323.7114
                                                                        46.0004
        29.7504
 09 10 11  1  6  0.0000000  0  9G02G04G05G13G29G10G16G07G25
 -11105975.32048  -8602632.09846
                  20997339.8364                                   20997334.0314
                                                                        50.5004
        41.0004
   6419942.51247   5028776.16844
                  23567269.1254                                   23567266.3324
                                                                        43.0004
        27.5004
 -17283514.08248 -13418844.06646
                  21454753.1334                                   21454749.4614
                                                                        50.5004
        40.7504
 -14967944.28148 -11609413.18045
                  21565250.2344                                   21565246.3404
                                                                        49.7504
        34.5004
 -18546520.85248 -14405297.05946
                  21960636.8054                                   21960633.7974
                                                                        49.2504
        38.0004
 -22220553.17648 -17292896.55546
                  20844164.1414                                   20844160.7734
                                                                        50.0004
        40.5004
   3223370.55147   2549372.94144
                  23723161.9384                                   23723157.4734
                                                                        42.2504
        24.0004
   3194814.09447   2534301.64144
                  23612180.7344                                   23612177.4024
                                                                        43.0004
        29.5004
  -7776567.23447  -6017038.69144
                  22622688.8834                                   22622685.0824
                                                                        45.2504
        29.5004
 09 10 11  1  6 30.0000000  0  9G02G04G05G13G29G10G16G07G25
 -11132839.84448  -8623565.46146
                  20992227.4774                                   20992221.7624
                                                                        50.2504
        40.7504
   6442552.33647   5046394.18444
                  23571570.9224                                   23571568.9574
                                                                        43.5004
        27.5004
 -17444119.95348 -13543991.62946
                  21424191.0394                                   21424187.5084
                                                                        51.0004
        40.7504
 -15002621.90248 -11636434.69545
                  21558651.5164                                   21558647.1134
                                                                        49.0004
        34.7504
 -18650310.98848 -14486172.48046
                  21940886.3984                                   21940883.3094
                                                                        49.2504
        38.5004
 -22365500.80148 -17405842.78946
                  20816581.2814                                   20816577.9264
                                                                        50.5004
        40.7504
   3094438.23046   2448906.20344
                  23698626.9534                                   23698622.9844
                                                                        41.2504
        24.2504
   3021146.11346   2398976.00444
                  23579132.2734                                   23579129.5124
                                                                        40.2504
        27.2504
  -7900223.88347  -6113394.55144
                  22599158.1564                                   22599154.0824
                                                                        45.5004
        29.7504
 09 10 11  1  7  0.0000000  0  9G02G04G05G13G29G10G16G07G25
 -11159185.94548  -8644094.91846
                  20987213.7344                                   20987208.1414
                                                                        49.5004
        40.5004
   6465350.73847   5064159.12944
                  23575910.5234                                   23575907.4804
                                                                        43.7504
        29.2504
 -17604302.33648 -13668809.05146
                  21393709.3444                                   21393705.9574
                                                                        50.0004
        41.5004
 -15036715.21548 -11663000.87945
                  21552163.4384                                   21552159.8634
                                                                        49.0004
        34.2504
 -18753482.73048 -14566566.05546
                  21921253.4844                                   21921250.1564
                                                                        48.7504
        38.0004
 -22509932.56648 -17518387.07846
                  20789096.9454                                   20789093.8874
                                                                        50.0004
        41.0004
   2966081.66847   2348888.10543
                  23674201.4384                                   23674197.3874
                                                                        42.0004
        22.7504
   2847861.88746   2263949.49644
                  23546157.4774                                   23546154.2504
                                                                        41.0004
        27.2504
  -8023316.42647  -6209310.80144
                  22575734.4304                                   22575730.4654
                                                                        45.7504
        29.5004
 09 10 11  1  7 30.0000000  0  9G02G04G05G13G29G10G16G07G25
 -11185019.07848  -8664224.64846
                  20982298.0394                                   20982292.9384
                                                                        49.0004
        40.2504
   6488331.79747   5082066.36744
                  23580283.1564                                   23580280.6884
                                                                        43.7504
        29.0004
 -17764063.84448 -13793298.48846
                  21363307.4844                                   21363304.1484
                                                                        50.0004
        41.7504
 -15070230.99248 -11689117.07045
                  21545785.6334                                   21545781.7504
                                                                        48.0004
        34.0004
 -18856039.92248 -14646480.77346
                  21901737.1094                                   21901734.2894
                                                                        49.0004
        38.5004
 -22653851.23448 -17630531.50846
                  20761710.0704                                   20761706.9264
                                                                        49.5004
        40.5004
   2838298.21946   2249316.59043
                  23649885.1094                                   23649880.8204
                                                                        40.7504
        22.0004
   2674959.70846   2129220.33544
                  23513255.2504                                   23513251.7194
                                                                        41.0004
        26.2504
  -8145847.72347  -6304789.63345
                  22552416.6564                                   22552413.2504
                                                                        45.0004
        30.0004
 09 10 11  1  8  0.0000000  0  9G02G04G05G13G29G10G16G07G25
 -11210343.60548  -8683958.01646
                  20977478.7424                                   20977473.4384
                                                                        49.7504
        41.0004
   6511489.69947   5100111.13744
                  23584689.9534                                   23584687.7194
                                                                        43.0004
        27.5004
 -17923405.87548 -13917461.10946
                  21332986.2034                                   21332982.7344
                                                                        50.5004
        41.2504
 -15103174.12548 -11714787.05145
                  21539516.5474                                   21539512.7704
                                                                        49.0004
        33.7504
 -18957984.65648 -14725918.24646
                  21882338.0084                                   21882334.5554
                                                                        49.2504
        38.7504
 -22797257.65248 -17742276.62146
                  20734420.2974                                   20734417.0744
                                                                        50.0004
        40.7504
   2711086.68446   2150190.74643
                  23625677.6334                                   23625673.6414
                                                                        41.5004
        22.2504
   2502440.53947   1994789.96544
                  23480426.3284                                   23480422.1174
                                                                        43.5004
        26.0004
  -8267819.65247  -6399832.71544
                  22529206.4844                                   22529203.0044
                                                                        46.0004
        29.7504
 09 10 11  1  8 30.0000000  0  9G02G04G05G13G29G10G16G07G25
 -11235165.43748  -8703299.69146
                  20972755.3134                                   20972749.8324
                                                                        49.5004
        39.7504
   6534820.02347   5118290.62944
                  23589129.7034                                   23589127.7074
                                                                        43.0004
        27.0004
 -18082330.98048 -14041298.88746
                  21302743.8674                                   21302740.0904
                                                                        50.5004
        41.0004
 -15135550.71548 -11740015.60245
                  21533355.3984                                   21533351.8794
                                                                        48.7504
        33.2504
 -19059320.40248 -14804881.19146
                  21863054.6484                                   21863051.1294
                                                                        49.5004
        38.0004
 -22940155.47348 -17853625.57846
                  20707228.0394                                   20707224.9344
                                                                        49.7504
        40.7504
   2584444.66047   2051508.64143
                  23601578.8364                                   23601574.3484
                                                                        42.0004
        22.5004
   2330302.05147   1860655.97344
                  23447669.5554                                   23447665.5234
                                                                        43.0004
        27.2504
  -8389234.88747  -6494442.00044
                  22506101.7034                                   22506098.4694
                                                                        45.7504
        29.5004
 09 10 11  1  9  0.0000000  0  9G02G04G05G13G29G10G16G07G25
  -9684065.48048  -7494650.39146
                  21267919.9694                                   21267914.2974
                                                                        49.0004
        40.5004
   8133738.57847   6364201.20744
                  23893393.9224                                   23893391.4774
                                                                        44.5004
        27.0004
 -16665412.16848 -12937206.30146
                  21572374.2974                                   21572371.1214
                                                                        49.7504
        41.5004
 -13591941.16848 -10537202.95745
                  21827094.9304                                   21827090.8524
                                                                        49.0004
        33.7504
 -17584623.88747 -13655767.02746
                  22143680.0784                                   22143677.0394
                                                                        47.7504
        38.7504
 -21507118.43048 -16736973.34846
                  20979925.9614                                   20979922.9454
                                                                        49.5004
        40.5004
   4033796.82446   3180873.94943
                  23877381.3834                                   23877376.6454
                                                                        41.5004
        22.7504
   3733973.16447   2954425.74244
                  23714779.0084                                   23714775.8324
                                                                        43.0004
        27.2504
  -6934668.36347  -5361013.48044
                  22782896.2734                                   22782893.5004
                                                                        45.5004
        29.7504
 09 10 11  1  9 30.0000000  0  9G02G04G05G13G29G10G16G07G25
  -9707888.08248  -7513213.49246
                  21263386.5634                                   21263380.9964
                                                                        50.0004
        40.0004
   8157403.73447   6382641.52044
                  23897897.1804                                   23897895.4384
                                                                        43.0004
        27.0004
 -16823499.64148 -13060391.35546
                  21542291.1724                                   21542287.9694
                                                                        50.0004
        41.5004
 -13623191.05948 -10561553.50045
                  21821148.3054                                   21821143.8914
                                                                        48.5004
        33.2504
 -17684742.21948 -13733781.32046
                  22124628.0554                                   22124625.1414
                                                                        48.5004
        38.5004
 -21648995.52748 -16847526.92646
                  20952927.7664                                   20952924.1804
                                                                        51.0004
        40.5004
   3908295.62546   3083080.79743
                  23853499.1724                                   23853494.5394
                                                                        40.7504
        22.7504
   3562604.28947   2820891.64144
                  23682168.5554                                   23682165.3014
                                                                        43.0004
        27.5004
  -7054967.91847  -5454753.35245
                  22760004.6334                                   22760001.2624
                                                                        46.0004
        30.0004
 09 10 11  1 10  0.0000000  0  9G02G04G05G13G29G10G16G07G25
  -9731214.18748  -7531389.68046
                  21258947.5864                                   21258942.2424
                                                                        49.7504
        40.0004
   8181233.14547   6401210.10544
                  23902431.2114                                   23902429.6214
                                                                        42.0004
        26.7504
 -16981166.00048 -13183248.25046
                  21512288.2814                                   21512284.7384
                                                                        50.7504
        41.5004
 -13653881.89848 -10585468.43745
                  21815307.9924                                   21815303.6484
                                                                        48.5004
        32.7504
 -17784251.40248 -13811320.96946
                  22105692.2274                                   22105689.4494
                                                                        49.0004
        38.7504
 -21790360.50448 -16957681.45346
                  20926026.7974                                   20926023.5514
                                                                        51.0004
        41.2504
   3783367.01246   2985733.82443
                  23829725.5314                                   23829721.8324
                                                                        41.7504
        22.7504
   3391623.40647   2687659.89844
                  23649632.2424                                   23649628.9184
                                                                        43.2504
        28.5004
  -7174708.71547  -5548057.85544
                  22737218.7664                                   22737215.2274
                                                                        46.0004
        29.2504
 09 10 11  1 10 30.0000000  0  9G02G04G05G13G29G10G16G07G25
  -9754045.61348  -7549180.39846
                  21254603.1724                                   21254597.6604
                                                                        49.5004
        40.7504
   8205223.59447   6419903.91044
                  23906997.3674                                   23906994.5124
                                                                        42.7504
        26.2504
 -17138410.15648 -13305776.12947
                  21482365.8834                                   21482362.5274
                                                                        50.5004
        42.0004
 -13684016.44548 -10608949.89145
                  21809573.6724                                   21809569.9144
                                                                        48.7504
        34.0004
 -17883151.21548 -13888385.78146
                  22086871.9534                                   22086869.1844
                                                                        49.2504
        38.5004
 -21931212.85248 -17067436.50846
                  20899223.6724                                   20899220.2624
                                                                        50.5004
        40.5004
   3659011.52046   2888833.47743
                  23806061.8134                                   23806057.0824
                                                                        40.5004
        22.0004
   3221033.09046   2554732.47344
                  23617169.5864                                   23617166.3754
                                                                        41.5004
        29.5004
  -7293889.60547  -5640926.05145
                  22714539.0784                                   22714536.1994
                                                                        46.5004
        30.0004
 09 10 11  1 11  0.0000000  0  9G02G04G05G13G29G10G16G07G25
  -9776385.10248  -7566587.80946
                  21250352.2034                                   21250346.8524
                                                                        50.0004
        40.5004
   8229372.19947   6438720.82444
                  23911592.2114                                   23911589.7504
                                                                        44.0004
        26.7504
 -17295231.57848 -13427974.60546
                  21452523.4924                                   21452519.9614
                                                                        51.0004
        41.0004
 -13713597.32848 -10631999.92645
                  21803944.3284                                   21803940.3714
                                                                        48.5004
        33.0004
 -17981442.23048 -13964976.19146
                  22068167.6564                                   22068164.7544
                                                                        49.0004
        38.5004
 -22071552.20748 -17176791.82446
                  20872517.7504                                   20872514.7974
                                                                        50.7504
        40.2504
   3535229.73446   2792380.14543
                  23782507.7734                                   23782502.0594
                                                                        41.5004
        23.0004
   3050835.05147   2422110.71945
                  23584782.2274                                   23584779.1764
                                                                        43.2504
        30.5004
  -7412510.34847  -5733357.77345
                  22691966.5554                                   22691962.7304
                                                                        46.5004
        31.0004
 09 10 11  1 11 30.0000000  0  9G02G04G05G13G29G10G16G07G25
  -9798235.85948  -7583614.37946
                  21246193.7424                                   21246188.8444
                                                                        50.0004
        40.5004
   8253675.39547   6457658.31344
                  23916217.2814                                   23916214.6294
                                                                        43.5004
        24.2504
 -17451630.30148 -13549843.74646
                  21422761.9304                                   21422758.1684
                                                                        51.7504
        41.0004
 -13742628.66048 -10654621.72345
                  21798420.3284                                   21798415.9534
                                                                        48.5004
        33.2504
 -18079125.56648 -14041093.08246
                  22049579.6564                                   22049576.3634
                                                                        49.5004
        38.2504
 -22211378.51248 -17285747.36746
                  20845909.9454                                   20845906.5354
                                                                        51.0004
        40.7504
   3412021.37546   2696373.60543
                  23759060.9774                                   23759056.4694
                                                                        41.5004
        22.5004
   2881030.57047   2289795.64544
                  23552468.7664                                   23552465.5944
                                                                        43.0004
        29.2504
  -7530571.84847  -5825353.73045
                  22669500.0554                                   22669496.9184
                                                                        46.2504
        30.7504
 09 10 11  1 12  0.0000000  0  9G02G04G05G13G29G10G16G07G25
  -9819597.03548  -7600259.45346
                  21242129.1564                                   21242123.6724
                                                                        49.2504
        41.0004
   8278133.96547   6476716.92644
                  23920871.8284                                   23920869.1374
                                                                        43.2504
        26.7504
 -17607601.94548 -13671380.07846
                  21393080.9384                                   21393077.8244
                                                                        51.2504
        41.7504
 -13771108.84048 -10676814.05545
                  21793000.2034                                   21792996.6914
                                                                        48.0004
        33.5004
 -18176198.13348 -14116734.05946
                  22031107.2034                                   22031104.0084
                                                                        50.5004
        38.7504
 -22350688.17248 -17394300.34446
                  20819400.1334                                   20819397.3874
                                                                        49.7504
        41.0004
   3289390.65246   2600817.20343
                  23735725.5944                                   23735720.5084
                                                                        41.5004
        22.7504
   2711625.09047   2157791.46144
                  23520232.0474                                   23520228.8714
                                                                        43.0004
        28.0004
  -7648070.03947  -5916910.74245
                  22647141.0944                                   22647136.9964
                                                                        46.0004
        30.2504
 09 10 11  1 12 30.0000000  0  9G02G04G05G13G29G10G16G07G25
  -9840473.84048  -7616527.10546
                  21238156.3054                                   21238151.0984
                                                                        48.7504
        40.0004
   8302742.14147   6495892.01644
                  23925553.8674                                   23925552.2234
                                                                        42.5004
        26.2504
 -17763148.81648 -13792585.42646
                  21363481.7194                                   21363477.8834
                                                                        51.2504
        41.5004
 -13799044.41848 -10698582.03945
                  21787684.3984                                   21787680.0594
                                                                        48.5004
        33.0004
 -18272663.53148 -14191901.91846
                  22012750.0704                                   22012747.5824
                                                                        50.0004
        39.0004
 -22489483.16048 -17502452.28146
                  20792988.2814                                   20792985.1254
                                                                        50.0004
        41.2504
   3167335.08647   2505708.97343
                  23712498.9694                                   23712494.4924
                                                                        42.0004
        23.7504
   2542617.94147   2026097.64544
                  23488071.1884                                   23488067.3594
                                                                        43.5004
        28.5004
  -7765007.28947  -6008030.66045
                  22624888.4454                                   22624884.7304
                                                                        46.7504
        30.0004
 09 10 11  1 13  0.0000000  0  9G02G04G05G13G29G10G16G07G25
  -9860865.53548  -7632416.74246
                  21234276.0314                                   21234270.6334
                                                                        50.0004
        40.2504
   8327500.77347   6515184.52344
                  23930265.3914                                   23930263.9844
                                                                        43.5004
        27.0004
 -17918266.21948 -13913456.11346
                  21333964.1724                                   21333960.3094
                                                                        51.5004
        41.7504
 -13826434.92247 -10719925.30545
                  21782471.6564                                   21782468.2624
                                                                        47.7504
        32.5004
 -18368518.37948 -14266594.00446
                  21994509.9064                                   21994507.0474
                                                                        50.0004
        39.2504
 -22627759.55948 -17610200.12546
                  20766674.9694                                   20766671.8554
                                                                        50.2504
        41.5004
   3045858.78947   2411052.11344
                  23689382.5474                                   23689378.1804
                                                                        42.0004
        24.2504
   2374014.19547   1894718.15644
                  23455987.3834                                   23455983.4064
                                                                        42.7504
        27.2504
  -7881380.07447  -6098710.73045
                  22602743.3914                                   22602739.8674
                                                                        45.7504
        30.5004
 09 10 11  1 13 30.0000000  0  9G02G04G05G13G29G10G16G07G25
  -9880772.16448  -7647928.41446
                  21230487.7814                                   21230482.4024
                                                                        50.0004
        40.2504
   8352409.02747   6534593.63744
                  23935005.5234                                   23935003.4344
                                                                        44.7504
        28.0004
 -18072951.38348 -14033990.00846
                  21304528.2894                                   21304524.8054
                                                                        51.5004
        41.7504
 -13853280.95347 -10740844.28945
                  21777363.3054                                   21777359.5634
                                                                        47.5004
        33.2504
 -18463761.00048 -14340809.03946
                  21976386.0864                                   21976383.1254
                                                                        49.7504
        38.7504
 -22765514.65248 -17717541.74646
                  20740461.2894                                   20740457.9024
                                                                        50.5004
        40.7504
   2924964.19547   2316848.55944
                  23666377.6804                                   23666373.5474
                                                                        42.0004
        24.5004
   2205818.25847   1763656.44544
                  23423980.5394                                   23423975.8914
                                                                        44.0004
        28.5004
  -7997185.96547  -6188949.09045
                  22580706.4384                                   22580702.5664
                                                                        46.5004
        30.5004
 09 10 11  1 14  0.0000000  0  9G02G04G05G13G29G10G16G07G25
  -9900196.59448  -7663064.34846
                  21226791.7274                                   21226786.1334
                                                                        49.5004
        40.0004
   8377463.00447   6554116.07444
                  23939773.6564                                   23939771.1884
                                                                        44.5004
        26.0004
 -18227204.00448 -14154186.84446
                  21275174.8984                                   21275171.4844
                                                                        51.0004
        41.7504
 -13879586.24648 -10761341.93445
                  21772357.9384                                   21772353.7234
                                                                        48.7504
        33.0004
 -18558392.71948 -14414548.05946
                  21958378.1174                                   21958375.5394
                                                                        49.5004
        38.5004
 -22902748.66848 -17824477.34046
                  20714346.5474                                   20714343.1134
                                                                        50.2504
        40.7504
   2804650.95347   2223097.98444
                  23643482.3754                                   23643478.5944
                                                                        42.2504
        24.5004
   2038031.57047   1632913.59844
                  23392051.4774                                   23392048.0164
                                                                        44.2504
        29.2504
  -8112425.37147  -6278746.02744
                  22558776.9614                                   22558773.4964
                                                                        46.5004
        29.5004
 09 10 11  1 14 30.0000000  0  9G02G04G05G13G29G10G16G07G25
  -9919140.12148  -7677825.54346
                  21223186.8524                                   21223181.5124
                                                                        50.7504
        39.7504
   8402662.03147   6573751.71544
                  23944568.0784                                   23944565.8554
                                                                        43.7504
        25.7504
 -18381021.50048 -14274044.64546
                  21245904.5474                                   21245901.1764
                                                                        51.7504
        41.5004
 -13905351.87148 -10781419.03545
                  21767454.6334                                   21767450.8164
                                                                        48.0004
        33.0004
 -18652411.43448 -14487809.39146
                  21940486.7664                                   21940483.8444
                                                                        50.0004
        38.0004
 -23039459.07448 -17931004.93446
                  20688331.1644                                   20688328.0744
                                                                        51.5004
        41.7504
   2684922.15247   2129802.82043
                  23620699.0704                                   23620694.3204
                                                                        42.5004
        23.7504
   1870657.55547   1502492.36344
                  23360202.2114                                   23360197.5944
                                                                        45.0004
        29.5004
  -8227096.02047  -6368099.77745
                  22536955.8754                                   22536952.5314
                                                                        46.2504
        31.0004
 09 10 11  1 15  0.0000000  0  9G02G04G05G13G29G10G16G07G25
  -9937601.98048  -7692211.38746
                  21219673.5634                                   21219668.3874
                                                                        49.5004
        39.5004
   8428006.48846   6593500.76244
                  23949391.0784                                   23949388.5234
                                                                        41.5004
        24.5004
 -18534399.96948 -14393560.35246
                  21216717.6724                                   21216713.9454
                                                                        51.0004
        41.2504
 -13930578.19948 -10801075.91445
                  21762654.3834                                   21762650.2424
                                                                        49.0004
        33.5004
 -18745815.11748 -14560591.48446
                  21922712.7034                                   21922709.8444
                                                                        49.7504
        38.7504
 -23175642.62948 -18037121.98046
                  20662416.0394                                   20662412.9414
                                                                        50.5004
        41.2504
   2565780.77047   2036965.39144
                  23598027.0784                                   23598022.5274
                                                                        42.7504
        25.0004
   1703701.07047   1372396.42244
                  23328430.5554                                   23328426.8364
                                                                        45.2504
        29.0004
  -8341194.84847  -6457007.93445
                  22515243.2734                                   22515239.6134
                                                                        46.0004
        30.7504
 09 10 11  1 15 30.0000000  0  9G02G04G05G13G29G10G16G07G25
  -9955584.69548  -7706223.93046
                  21216251.5944                                   21216246.0474
                                                                        49.2504
        40.2504
   8453493.37546   6613360.48844
                  23954240.5394                                   23954238.6214
                                                                        41.5004
        24.2504
 -18687338.41448 -14512733.18446
                  21187614.5704                                   21187610.7734
                                                                        52.0004
        41.5004
 -13955267.37548 -10820314.23445
                  21757956.1484                                   21757951.9494
                                                                        48.5004
        32.7504
 -18838603.82848 -14632894.38746
                  21905055.6644                                   21905052.7464
                                                                        50.0004
        38.5004
 -23311298.35948 -18142827.71946
                  20636602.0634                                   20636598.9844
                                                                        50.2504
        41.5004
   2447227.57447   1944586.29744
                  23575466.9064                                   23575462.8554
                                                                        42.7504
        24.5004
   1537165.35547   1242628.53944
                  23296739.5474                                   23296736.1094
                                                                        43.2504
        28.2504
  -8454721.35247  -6545470.14545
                  22493640.1334                                   22493636.9574
                                                                        46.2504
        30.5004
