     2.11           OBSERVATION DATA    G (GPS)             RINEX VERSION / TYPE
teqc  2019Feb25                         20221121 12:28:48UTCPGM / RUN BY / DATE
OSX ker:10.11.6|Core i5|gcc 4.3 -m64|OSX ker:10.10+|=+      COMMENT
BIT 2 OF LLI FLAGS DATA COLLECTED UNDER A/S CONDITION       COMMENT
04713010                                                    MARKER NAME
3010                                                        MARKER NUMBER
-Unknown-           -Unknown-                               OBSERVER / AGENCY
0220400471          TRIMBLE R7          2.30                REC # / TYPE / VERS
-Unknown-           TRM39105.00     NONE                    ANT # / TYPE
  1449458.8588 -1709243.3089  5952442.7280                  APPROX POSITION XYZ
        0.0000        0.0000        0.0000                  ANTENNA: DELTA H/E/N
     1     1                                                WAVELENGTH FACT L1/2
    20    L1    L2    L5    L6    L7    L8    C1    P1    C2# / TYPES OF OBSERV
          P2    C5    C6    C7    C8    S1    S2    S5    S6# / TYPES OF OBSERV
          S7    S8                                          # / TYPES OF OBSERV
    30.0000                                                 INTERVAL
    15                                                      LEAP SECONDS
Forced Modulo Decimation to 30 seconds                      COMMENT
 SNR is mapped to RINEX snr flag value [0-9]                COMMENT
  L1 & L2: min(max(int(snr_dBHz/6), 0), 9)                  COMMENT
teqc edited: Beidou # 1 - 37 excluded                       COMMENT
  2009    10    28     0     0    0.0000000     GPS         TIME OF FIRST OBS
                                                            END OF HEADER
 09 10 28  0  0  0.0000000  0  8G02G04G05G10G13G29G16G07
  -5229008.90648  -4061977.67246
                  21269886.7034                                   21269880.8554
                                                                        51.0004
        40.7504
   1138553.30146    888285.77344
                  24014058.7194                                   24014056.4024
                                                                        41.5004
        24.0004
 -17433502.68048 -13537631.77746
                  21516610.2344                                   21516606.4964
                                                                        50.5004
        41.7504
 -16006686.99248 -12444601.34446
                  20880442.7504                                   20880439.1564
                                                                        52.0004
        41.5004
  -6192462.55548  -4810800.51645
                  21857467.2584                                   21857462.7854
                                                                        48.7504
        33.2504
 -12730957.00448  -9897931.80546
                  22131964.1644                                   22131960.8014
                                                                        48.5004
        38.7504
  -8662553.84046  -6716311.73443
                  23870694.6484                                   23870689.4304
                                                                        41.2504
        23.0004
  -9034756.45747  -7004039.98444
                  23699384.2194                                   23699380.9654
                                                                        42.5004
        27.7504
 09 10 28  0  0 30.0000000  0  8G02G04G05G10G13G29G16G07
  -5250803.35548  -4078960.35546
                  21265739.2734                                   21265733.4264
                                                                        52.0004
        40.5004
   1165377.25747    909187.46344
                  24019163.8524                                   24019161.1484
                                                                        43.0004
        26.0004
 -17587426.83248 -13657572.67246
                  21487319.5474                                   21487315.5474
                                                                        50.5004
        41.2504
 -16140665.37948 -12549000.07846
                  20854947.4454                                   20854943.7814
                                                                        52.5004
        41.2504
  -6220433.67248  -4832596.19545
                  21852144.3594                                   21852140.2074
                                                                        48.5004
        33.0004
 -12826685.47848  -9972525.41446
                  22113747.8984                                   22113744.1374
                                                                        49.2504
        38.7504
  -8784680.69947  -6811475.50843
                  23847454.4454                                   23847449.2854
                                                                        42.0004
        22.5004
  -9203200.13046  -7135294.75344
                  23667330.2584                                   23667326.7814
                                                                        41.0004
        26.0004
 09 10 28  0  1  0.0000000  0  8G02G04G05G10G13G29G16G07
  -5272080.28948  -4095539.75046
                  21261690.1804                                   21261684.3524
                                                                        51.2504
        40.5004
   1192374.61747    930224.35544
                  24024301.2114                                   24024298.6414
                                                                        43.5004
        28.0004
 -17740902.69548 -13777164.27346
                  21458114.4064                                   21458110.7114
                                                                        51.0004
        41.0004
 -16274097.11348 -12652972.85546
                  20829556.3754                                   20829552.9104
                                                                        52.5004
        41.2504
  -6247829.44148  -4853943.52345
                  21846931.1174                                   21846926.7544
                                                                        48.5004
        32.7504
 -12921784.18048 -10046628.30146
                  22095651.1954                                   22095647.6914
                                                                        49.2504
        38.2504
  -8906213.28546  -6906176.24243
                  23824326.9924                                   23824322.1684
                                                                        41.0004
        22.0004
  -9371230.98846  -7266227.84844
                  23635355.2344                                   23635351.7664
                                                                        41.5004
        27.7504
 09 10 28  0  1 30.0000000  0  8G02G04G05G10G13G29G16G07
  -5292840.66848  -4111716.64846
                  21257739.5944                                   21257734.3594
                                                                        50.7504
        39.7504
   1219544.03547    951395.30944
                  24029471.1254                                   24029468.1414
                                                                        44.0004
        26.2504
 -17893927.89848 -13896404.68446
                  21428994.8364                                   21428990.7114
                                                                        51.2504
        41.2504
 -16406979.72748 -12756517.75446
                  20804269.5394                                   20804266.0744
                                                                        52.0004
        41.7504
  -6274651.23448  -4874843.62945
                  21841827.2424                                   21841823.0004
                                                                        48.2504
        32.0004
 -13016250.47348 -10120238.40646
                  22077674.5234                                   22077671.2464
                                                                        49.2504
        38.5004
  -9027148.01647  -7000411.10943
                  23801314.7034                                   23801308.9534
                                                                        42.0004
        22.5004
  -9538845.66847  -7396836.62544
                  23603459.1644                                   23603455.5594
                                                                        43.2504
        28.0004
 09 10 28  0  2  0.0000000  0  8G02G04G05G10G13G29G16G07
  -5313087.50448  -4127493.41046
                  21253886.7274                                   21253881.3674
                                                                        51.7504
        40.2504
   1246881.85247    972697.51244
                  24034673.7034                                   24034670.7304
                                                                        44.0004
        26.0004
 -18046501.85548 -14015293.51647
                  21399960.4534                                   21399957.0004
                                                                        51.5004
        42.0004
 -16539312.93748 -12859634.52346
                  20779087.3834                                   20779084.0904
                                                                        51.5004
        41.5004
  -6300902.78548  -4895299.39145
                  21836831.4924                                   21836827.2704
                                                                        49.5004
        31.7504
 -13110085.16048 -10193356.33646
                  22059818.7504                                   22059814.9734
                                                                        49.7504
        38.7504
  -9147484.75847  -7094180.02043
                  23778415.1884                                   23778409.6254
                                                                        42.0004
        22.2504
  -9706043.07847  -7527120.28944
                  23571643.2194                                   23571638.3874
                                                                        43.5004
        28.2504
 09 10 28  0  2 30.0000000  0  8G02G04G05G10G13G29G16G07
  -5332823.48448  -4142872.08246
                  21250131.2344                                   21250125.6294
                                                                        51.0004
        40.0004
   1274385.20347    994128.58243
                  24039907.4924                                   24039904.1804
                                                                        43.5004
        22.5004
 -18198624.39148 -14133830.53547
                  21371012.5314                                   21371008.9574
                                                                        51.0004
        42.0004
 -16671097.46548 -12962323.76646
                  20754009.4144                                   20754006.1524
                                                                        52.5004
        41.7504
  -6326587.07048  -4915313.10245
                  21831944.0784                                   21831939.5824
                                                                        49.0004
        32.7504
 -13203290.23448 -10265983.67246
                  22042082.1954                                   22042078.8444
                                                                        49.5004
        38.2504
  -9267224.78946  -7187483.94143
                  23755629.1804                                   23755623.6954
                                                                        40.2504
        22.2504
  -9872821.21147  -7657077.27744
                  23539906.3054                                   23539901.8324
                                                                        44.5004
        26.7504
 09 10 28  0  3  0.0000000  0  8G02G04G05G10G13G29G16G07
  -5352050.84448  -4157854.43746
                  21246472.5704                                   21246466.4574
                                                                        50.7504
        39.7504
   1302051.39547   1015686.58643
                  24045170.8134                                   24045168.2814
                                                                        43.0004
        22.7504
 -18350293.87148 -14252014.52746
                  21342151.0314                                   21342147.3634
                                                                        52.0004
        41.7504
 -16802331.92248 -13064584.37946
                  20729036.6024                                   20729033.0234
                                                                        52.0004
        40.7504
  -6351706.46148  -4934886.64545
                  21827163.8914                                   21827159.8834
                                                                        48.7504
        33.2504
 -13295864.55948 -10338119.51246
                  22024466.1884                                   22024462.0744
                                                                        50.2504
        38.5004
  -9386366.27346  -7280321.46943
                  23732957.5004                                   23732951.7704
                                                                        41.5004
        22.5004
 -10039177.65247  -7786705.64144
                  23508249.5634                                   23508245.0594
                                                                        44.0004
        27.2504
 09 10 28  0  3 30.0000000  0  8G02G04G05G10G13G29G16G07
  -5370772.13748  -4172442.44946
                  21242909.7584                                   21242904.5274
                                                                        51.2504
        40.2504
   1329877.80147   1037369.53144
                  24050467.2344                                   24050463.9654
                                                                        42.0004
        24.2504
 -18501510.09048 -14369845.34846
                  21313375.4224                                   21313371.7274
                                                                        51.2504
        41.5004
 -16933016.81648 -13166416.75846
                  20704167.7664                                   20704164.6954
                                                                        51.0004
        41.2504
  -6376264.61348  -4954022.86345
                  21822490.7114                                   21822486.7424
                                                                        48.7504
        31.7504
 -13387809.77748 -10409765.12546
                  22006969.1334                                   22006965.7664
                                                                        49.7504
        39.0004
  -9504909.23846  -7372692.61743
                  23710399.2424                                   23710394.1724
                                                                        40.0004
        22.2504
 -10205111.05147  -7916004.36744
                  23476672.8284                                   23476669.1764
                                                                        42.0004
        27.5004
 09 10 28  0  4  0.0000000  0  8G02G04G05G10G13G29G16G07
  -5388988.13748  -4186636.72346
                  21239443.5084                                   21239437.9534
                                                                        51.2504
        40.0004
   1357862.82847   1059175.97344
                  24055792.5004                                   24055789.8914
                                                                        42.5004
        24.5004
 -18652270.44548 -14487320.92646
                  21284686.5554                                   21284682.8484
                                                                        51.5004
        41.5004
 -17063149.63748 -13267818.95746
                  20679404.4144                                   20679401.4144
                                                                        52.0004
        41.0004
  -6400262.55548  -4972722.55545
                  21817924.2194                                   21817919.6884
                                                                        48.5004
        31.5004
 -13479124.18748 -10480919.21146
                  21989592.7584                                   21989588.6564
                                                                        50.0004
        39.0004
  -9622852.05547  -7464596.11343
                  23687955.0314                                   23687950.5084
                                                                        42.5004
        22.7504
 -10370617.45746  -8044970.37144
                  23445178.1644                                   23445174.0124
                                                                        41.7504
        28.2504
 09 10 28  0  4 30.0000000  0  8G02G04G05G10G13G29G16G07
  -5406701.92648  -4200439.68046
                  21236072.3594                                   21236067.1254
                                                                        51.2504
        39.5004
   1386003.14147   1081103.37144
                  24061147.5944                                   24061145.3754
                                                                        42.5004
        26.0004
 -18802574.35548 -14604440.85246
                  21256084.5554                                   21256081.1844
                                                                        52.0004
        41.5004
 -17192730.32848 -13368790.93746
                  20654746.0234                                   20654742.8714
                                                                        52.5004
        41.0004
  -6423703.70748  -4990988.38345
                  21813463.0234                                   21813459.0784
                                                                        48.7504
        32.2504
 -13569808.44548 -10551582.25446
                  21972336.0634                                   21972332.3094
                                                                        49.5004
        39.2504
  -9740193.32047  -7556030.87543
                  23665626.1484                                   23665621.3324
                                                                        42.2504
        22.7504
 -10535695.55947  -8173602.61744
                  23413765.4064                                   23413761.1804
                                                                        42.5004
        28.2504
 09 10 28  0  5  0.0000000  0  8G02G04G05G10G13G29G16G07
  -5423915.94148  -4213853.19946
                  21232796.6644                                   21232791.3444
                                                                        50.7504
        40.2504
   1414296.06646   1103149.81344
                  24066531.6564                                   24066528.8874
                                                                        41.5004
        26.5004
 -18952421.48048 -14721204.84846
                  21227569.7504                                   21227565.7304
                                                                        50.7504
        41.7504
 -17321758.52748 -13469332.38746
                  20630192.9924                                   20630189.4264
                                                                        51.7504
        41.7504
  -6446591.38748  -5008822.93445
                  21809108.0944                                   21809103.2974
                                                                        48.2504
        32.5004
 -13659863.62148 -10621755.11346
                  21955199.1484                                   21955195.8834
                                                                        50.5004
        38.5004
  -9856933.43046  -7646997.19143
                  23643411.8444                                   23643406.7114
                                                                        40.2504
        22.7504
 -10700343.76647  -8301899.88744
                  23382433.6094                                   23382429.9024
                                                                        43.2504
        29.5004
 09 10 28  0  5 30.0000000  0  8G02G04G05G10G13G29G16G07
  -5440632.38748  -4226879.01246
                  21229615.8594                                   21229610.3164
                                                                        50.5004
        39.5004
   1442739.20746   1125313.24244
                  24071944.2584                                   24071941.3054
                                                                        40.2504
        27.0004
 -19101810.59848 -14837611.94146
                  21199141.9774                                   21199138.2774
                                                                        51.5004
        41.5004
 -17450234.10248 -13569443.21946
                  20605744.6334                                   20605741.0514
                                                                        52.5004
        41.2504
  -6468928.25048  -5026228.29345
                  21804857.3524                                   21804853.4454
                                                                        48.5004
        32.5004
 -13749290.04748 -10691438.05146
                  21938181.9774                                   21938178.4534
                                                                        50.5004
        39.2504
  -9973072.08646  -7737494.83643
                  23621310.4384                                   23621305.9574
                                                                        41.5004
        23.0004
 -10864559.37947  -8429860.09444
                  23351184.2974                                   23351180.8444
                                                                        43.0004
        28.7504
 09 10 28  0  6  0.0000000  0  8G02G04G05G10G13G29G16G07
  -5456852.21548  -4239517.85246
                  21226529.1484                                   21226523.6884
                                                                        51.5004
        40.5004
   1471331.30146   1147592.74244
                  24077384.7814                                   24077382.6604
                                                                        40.0004
        24.0004
 -19250739.33648 -14953660.30547
                  21170801.6254                                   21170798.2194
                                                                        51.5004
        42.0004
 -17578154.89548 -13669121.76246
                  20581402.3594                                   20581398.6684
                                                                        52.5004
        41.7504
  -6490715.30548  -5043205.20745
                  21800711.4224                                   21800707.6134
                                                                        48.7504
        31.7504
 -13838086.27048 -10760629.91846
                  21921284.7584                                   21921280.8554
                                                                        50.0004
        39.0004
 -10088606.55546  -7827521.69544
                  23599325.3984                                   23599320.6024
                                                                        40.7504
        25.2504
 -11028338.45347  -8557480.10944
                  23320017.7344                                   23320014.0354
                                                                        42.0004
        28.5004
 09 10 28  0  6 30.0000000  0  8G02G04G05G10G13G29G16G07
  -5472577.37148  -4251771.23446
                  21223536.7344                                   21223531.0744
                                                                        51.0004
        39.5004
   1500069.87546   1169986.39143
                  24082853.5004                                   24082850.8204
                                                                        40.7504
        22.5004
 -19399206.20748 -15069348.77347
                  21142549.5394                                   21142545.7624
                                                                        51.5004
        42.2504
 -17705519.99648 -13768367.29746
                  20557165.4694                                   20557161.8014
                                                                        52.5004
        41.2504
  -6511955.28948  -5059755.84445
                  21796669.4534                                   21796665.2774
                                                                        48.0004
        32.0004
 -13926252.27348 -10829330.69546
                  21904507.3914                                   21904503.6024
                                                                        49.7504
        39.0004
 -10203535.77747  -7917076.94144
                  23577455.2894                                   23577450.6054
                                                                        42.2504
        25.7504
 -11191679.09047  -8684758.47744
                  23288935.6414                                   23288931.6334
                                                                        43.2504
        28.2504
 09 10 28  0  7  0.0000000  0  8G02G04G05G10G13G29G16G07
  -5487812.14848  -4263642.48046
                  21220637.6954                                   21220632.0274
                                                                        51.2504
        39.7504
   1528950.50446   1192490.77743
                  24088349.4614                                   24088346.5704
                                                                        41.2504
        22.5004
 -19547212.76248 -15184678.56247
                  21114384.7194                                   21114381.1564
                                                                        51.2504
        42.0004
 -17832330.92648 -13867181.00446
                  20533033.8754                                   20533030.5474
                                                                        52.0004
        41.5004
  -6532652.99648  -5075883.94145
                  21792730.8204                                   21792726.6564
                                                                        48.5004
        30.7504
 -14013791.19948 -10897542.84846
                  21887848.9534                                   21887845.5004
                                                                        50.2504
        39.0004
 -10317861.81647  -8006162.14844
                  23555699.3594                                   23555695.2544
                                                                        42.0004
        25.5004
 -11354580.97347  -8811694.99644
                  23257936.1094                                   23257932.1214
                                                                        44.0004
        28.7504
 09 10 28  0  7 30.0000000  0  8G02G04G05G10G13G29G16G07
  -5502561.73848  -4275135.66446
                  21217830.8674                                   21217825.3054
                                                                        51.2504
        39.7504
   1557967.98447   1215101.80543
                  24093871.0474                                   24093868.4064
                                                                        42.5004
        22.7504
 -19694759.98448 -15299650.41046
                  21086307.4224                                   21086303.9494
                                                                        51.5004
        41.7504
 -17958589.67648 -13965564.43746
                  20509008.0474                                   20509004.3364
                                                                        52.0004
        41.5004
  -6552813.92248  -5091593.76245
                  21788894.6174                                   21788889.9924
                                                                        49.2504
        31.7504
 -14100705.24648 -10965268.08646
                  21871309.7734                                   21871306.5204
                                                                        50.0004
        38.5004
 -10431586.48847  -8094778.77044
                  23534058.6094                                   23534054.3984
                                                                        42.5004
        26.5004
 -11517044.97747  -8938290.36744
                  23227020.6414                                   23227016.2544
                                                                        43.2504
        29.0004
 09 10 28  0  8  0.0000000  0  8G02G04G05G10G13G29G16G07
  -5516824.96148  -4286249.88346
                  21215116.8444                                   21215111.5594
                                                                        51.2504
        39.2504
   1587123.02347   1237820.03943
                  24099419.6724                                   24099416.7814
                                                                        43.2504
        23.7504
 -19841844.19548 -15414261.47347
                  21058318.1254                                   21058314.0594
                                                                        51.5004
        42.0004
 -18084292.57048 -14063514.75046
                  20485087.7664                                   20485084.1294
                                                                        52.0004
        41.5004
  -6572437.55148  -5106884.88345
                  21785160.2274                                   21785156.5084
                                                                        48.2504
        31.5004
 -14186991.73048 -11032504.32846
                  21854890.3054                                   21854886.8794
                                                                        50.0004
        38.7504
 -10544705.85247  -8182923.71144
                  23512532.2194                                   23512528.7504
                                                                        42.5004
        25.2504
 -11679065.37947  -9064540.06644
                  23196188.7584                                   23196184.7384
                                                                        44.5004
        28.0004
 09 10 28  0  8 30.0000000  0  8G02G04G05G10G13G29G16G07
  -5530603.03948  -4296986.05946
                  21212494.8204                                   21212489.1604
                                                                        51.5004
        39.5004
   1616414.15247   1260644.28144
                  24104993.8914                                   24104991.2274
                                                                        43.2504
        26.0004
 -19988462.87948 -15528509.78947
                  21030417.7664                                   21030413.3874
                                                                        51.0004
        42.0004
 -18209438.00048 -14161030.67646
                  20461273.1334                                   20461269.4344
                                                                        52.5004
        41.2504
  -6591525.44148  -5121758.54745
                  21781528.1484                                   21781523.6644
                                                                        48.5004
        32.0004
 -14272650.18748 -11099251.17646
                  21838589.7664                                   21838586.3834
                                                                        50.0004
        38.7504
 -10657218.33647  -8270595.77744
                  23491122.4144                                   23491118.0704
                                                                        42.5004
        26.2504
 -11840638.70347  -9190441.37544
                  23165442.9454                                   23165438.2974
                                                                        44.7504
        28.5004
 09 10 28  0  9  0.0000000  0  8G02G04G05G10G13G29G16G07
  -3968480.82848  -3079747.99246
                  21509756.8834                                   21509751.1054
                                                                        51.7504
        39.0004
   3221255.07047   2511169.72344
                  24410384.4304                                   24410381.4774
                                                                        43.5004
        25.2504
 -18559192.86348 -14414792.88747
                  21302398.7584                                   21302395.1334
                                                                        51.2504
        42.0004
 -16758604.20348 -13030510.82446
                  20737357.6024                                   20737354.2464
                                                                        51.7504
        41.5004
  -5034663.11348  -3908619.09045
                  22077788.7504                                   22077784.7624
                                                                        48.5004
        31.0004
 -12782260.48048  -9937908.54746
                  22122201.4534                                   22122198.2074
                                                                        49.7504
        40.0004
  -9193702.10547  -7130193.52344
                  23769619.8134                                   23769615.6214
                                                                        42.2504
        25.2504
 -10426340.63747  -8088390.93444
                  23434575.0234                                   23434570.2774
                                                                        44.5004
        28.2504
 09 10 28  0  9 30.0000000  0  8G02G04G05G10G13G29G16G07
  -3981299.28948  -3089736.42646
                  21507317.5944                                   21507312.0434
                                                                        50.5004
        40.0004
   3250807.12147   2534197.32044
                  24416008.0084                                   24416005.8914
                                                                        42.2504
        25.7504
 -18704881.00848 -14528316.10947
                  21274675.0634                                   21274671.2384
                                                                        52.2504
        42.0004
 -16882636.78948 -13127159.58646
                  20713755.1804                                   20713751.7704
                                                                        52.0004
        41.5004
  -5052692.18448  -3922667.72345
                  22074358.0234                                   22074354.1374
                                                                        48.0004
        31.5004
 -12866667.08248 -10003679.93046
                  22106139.6174                                   22106136.3284
                                                                        49.5004
        38.7504
  -9305002.44147  -7216921.04744
                  23748440.3364                                   23748436.1334
                                                                        43.2504
        25.2504
 -10587017.42247  -8213593.61744
                  23403999.0554                                   23403994.4654
                                                                        42.5004
        28.0004
 09 10 28  0 10  0.0000000  0  8G02G04G05G10G13G29G16G07
  -3993638.46548  -3099351.37546
                  21504969.5084                                   21504964.1054
                                                                        51.0004
        39.2504
   3280488.97746   2557326.02343
                  24421655.5314                                   24421653.4804
                                                                        40.0004
        22.0004
 -18850100.25848 -14641473.96147
                  21247041.2584                                   21247037.2704
                                                                        51.5004
        42.2504
 -17006109.80948 -13223372.31646
                  20690258.8284                                   20690255.2074
                                                                        52.0004
        41.7504
  -5070193.46147  -3936305.07445
                  22071027.5864                                   22071023.6724
                                                                        47.5004
        31.7504
 -12950446.87948 -10068962.88746
                  22090196.2974                                   22090193.2274
                                                                        50.0004
        39.0004
  -9415694.31247  -7303174.44944
                  23727376.3594                                   23727371.8524
                                                                        43.0004
        25.2504
 -10747239.98046  -8338442.30944
                  23373508.5864                                   23373505.2934
                                                                        40.7504
        27.7504
 09 10 28  0 10 30.0000000  0  8G02G04G05G10G13G29G16G07
  -4005506.80948  -3108599.44146
                  21502711.3754                                   21502705.4304
                                                                        50.7504
        39.5004
   3310291.41446   2580548.52743
                  24427326.8134                                   24427325.1414
                                                                        39.5004
        21.2504
 -18994854.35548 -14754269.36747
                  21219495.0474                                   21219491.5784
                                                                        51.2504
        42.2504
 -17129027.90248 -13319152.64546
                  20666868.4384                                   20666864.9064
                                                                        52.2504
        41.5004
  -5087175.30148  -3949537.68445
                  22067795.8754                                   22067792.3984
                                                                        48.0004
        31.7504
 -13033604.06648 -10133760.69546
                  22074372.6804                                   22074369.2734
                                                                        49.5004
        38.7504
  -9525780.27747  -7388955.70744
                  23706427.4454                                   23706423.3164
                                                                        43.2504
        25.5004
 -10907012.13347  -8462940.04744
                  23343105.1724                                   23343101.3954
                                                                        43.0004
        28.7504
 09 10 28  0 11  0.0000000  0  8G02G04G05G10G13G29G16G07
  -4016903.77048  -3117480.23446
                  21500542.3444                                   21500537.0434
                                                                        50.2504
        39.2504
   3340215.91447   2603866.28944
                  24433022.1724                                   24433019.6054
                                                                        42.0004
        24.7504
 -19139140.23448 -14866699.91846
                  21192038.4224                                   21192034.8794
                                                                        51.5004
        41.7504
 -17251388.12148 -13414498.26646
                  20643583.7504                                   20643580.2384
                                                                        52.0004
        41.5004
  -5103637.56248  -3962365.43045
                  22064663.2194                                   22064659.4064
                                                                        48.0004
        31.7504
 -13116138.13348 -10198072.96546
                  22058666.5704                                   22058663.5004
                                                                        49.0004
        39.0004
  -9635259.16847  -7474263.92644
                  23685594.6724                                   23685590.5314
                                                                        43.2504
        27.5004
 -11066328.45347  -8587082.57844
                  23312788.5864                                   23312784.7584
                                                                        44.0004
        28.0004
 09 10 28  0 11 30.0000000  0  8G02G04G05G10G13G29G16G07
  -4027832.62148  -3125996.24646
                  21498462.8444                                   21498457.2074
                                                                        50.2504
        39.2504
   3370258.05547   2627275.69144
                  24438739.1414                                   24438736.6764
                                                                        44.2504
        24.5004
 -19282958.31248 -14978765.94547
                  21164670.5474                                   21164667.1094
                                                                        51.0004
        42.2504
 -17373191.26248 -13509409.80146
                  20620405.5864                                   20620402.2034
                                                                        52.2504
        41.5004
  -5119584.24247  -3974791.41845
                  22061629.0394                                   22061624.8284
                                                                        47.0004
        31.5004
 -13198050.30548 -10261900.63746
                  22043079.2664                                   22043076.1724
                                                                        50.0004
        38.7504
  -9744131.83647  -7559099.76244
                  23664876.9774                                   23664872.5944
                                                                        43.5004
        26.0004
 -11225188.30547  -8710869.42244
                  23282558.5164                                   23282554.5664
                                                                        42.0004
        29.2504
 09 10 28  0 12  0.0000000  0  8G02G04G05G10G13G29G16G07
  -4038297.02348  -3134150.35946
                  21496471.5084                                   21496465.9804
                                                                        50.2504
        39.5004
   3400414.44547   2650774.20344
                  24444478.1334                                   24444475.1214
                                                                        42.5004
        24.0004
 -19426308.15648 -15090467.10947
                  21137391.9774                                   21137388.3054
                                                                        52.0004
        42.0004
 -17494437.91048 -13603887.70347
                  20597332.8444                                   20597329.4804
                                                                        52.0004
        42.0004
  -5135019.86347  -3986819.18445
                  22058691.7664                                   22058687.5664
                                                                        47.5004
        30.7504
 -13279341.32448 -10325244.29746
                  22027610.1254                                   22027607.0664
                                                                        49.5004
        39.5004
  -9852397.66447  -7643462.73044
                  23644274.4064                                   23644270.2304
                                                                        43.2504
        26.5004
 -11383590.96547  -8834300.02345
                  23252415.6564                                   23252412.0664
                                                                        44.2504
        30.7504
 09 10 28  0 12 30.0000000  0  8G02G04G05G10G13G29G16G07
  -4048299.58648  -3141944.57046
                  21494568.1564                                   21494562.5634
                                                                        50.5004
        39.0004
   3430682.75447   2674360.02744
                  24450237.5554                                   24450234.7894
                                                                        43.2504
        24.0004
 -19569189.15648 -15201802.94947
                  21110202.6414                                   21110198.8954
                                                                        50.7504
        42.2504
 -17615127.57448 -13697931.59046
                  20574366.5164                                   20574363.2154
                                                                        52.5004
        41.5004
  -5149947.27047  -3998450.93045
                  22055850.9534                                   22055847.0084
                                                                        47.5004
        31.2504
 -13360012.74648 -10388105.14146
                  22012258.7504                                   22012255.7584
                                                                        49.2504
        39.2504
  -9960057.40647  -7727353.43444
                  23623787.5554                                   23623782.9694
                                                                        43.0004
        26.0004
 -11541534.10247  -8957372.57845
                  23222359.9224                                   23222356.3324
                                                                        44.5004
        30.0004
 09 10 28  0 13  0.0000000  0  8G02G04G05G10G13G29G16G07
  -4057840.38748  -3149378.98446
                  21492752.3134                                   21492746.9224
                                                                        50.2504
        38.5004
   3461062.94546   2698032.94943
                  24456018.3204                                   24456016.1294
                                                                        39.2504
        22.0004
 -19711598.51248 -15312771.28147
                  21083103.1644                                   21083099.4774
                                                                        51.5004
        43.0004
 -17735258.20348 -13791539.87146
                  20551506.5164                                   20551503.1134
                                                                        52.2504
        41.5004
  -5164366.76247  -4009686.92245
                  22053107.3284                                   22053103.3794
                                                                        47.2504
        30.7504
 -13440063.36348 -10450482.24646
                  21997025.8984                                   21997022.0824
                                                                        49.5004
        39.0004
 -10067109.60547  -7810770.74644
                  23603416.1724                                   23603411.5864
                                                                        42.2504
        25.0004
 -11699013.15247  -9080083.46544
                  23192393.1094                                   23192388.9844
                                                                        44.2504
        29.5004
 09 10 28  0 13 30.0000000  0  8G02G04G05G10G13G29G16G07
  -4066917.26248  -3156451.89846
                  21491025.4064                                   21491019.5554
                                                                        50.5004
        38.2504
   3491556.03946   2721793.79343
                  24461820.5234                                   24461818.8634
                                                                        39.5004
        22.2504
 -19853529.82448 -15423367.09847
                  21056094.6094                                   21056090.2194
                                                                        51.2504
        42.2504
 -17854823.85548 -13884707.89546
                  20528753.8754                                   20528750.7384
                                                                        52.0004
        41.5004
  -5178276.90647  -4020526.01645
                  22050460.3204                                   22050456.1094
                                                                        47.5004
        31.5004
 -13519487.32848 -10512371.05146
                  21981911.9144                                   21981909.1644
                                                                        48.2504
        39.5004
 -10173546.32847  -7893708.43744
                  23583162.2114                                   23583157.3094
                                                                        42.0004
        25.5004
 -11856022.04347  -9202428.02744
                  23162514.6954                                   23162510.6174
                                                                        43.7504
        29.7504
 09 10 28  0 14  0.0000000  0  8G02G04G05G10G13G29G16G07
  -4075534.03148  -3163166.32046
                  21489385.8674                                   21489379.6564
                                                                        51.0004
        39.0004
   3522158.51647   2745639.89144
                  24467644.4924                                   24467641.9224
                                                                        42.5004
        25.5004
 -19994984.37548 -15533591.42647
                  21029176.4454                                   21029173.2304
                                                                        51.5004
        42.2504
 -17973826.42648 -13977437.16446
                  20506108.4614                                   20506105.0594
                                                                        52.2504
        41.5004
  -5191681.84847  -4030971.43745
                  22047909.2814                                   22047904.9574
                                                                        47.0004
        30.5004
 -13598288.60948 -10573774.64846
                  21966916.4844                                   21966913.4184
                                                                        50.0004
        39.5004
 -10279370.40647  -7976168.74644
                  23563024.1254                                   23563020.0474
                                                                        42.0004
        24.0004
 -12012560.07047  -9324405.69944
                  23132726.9844                                   23132722.2464
                                                                        44.7504
        29.2504
 09 10 28  0 14 30.0000000  0  8G02G04G05G10G13G29G16G07
  -4083693.52348  -3169524.38346
                  21487833.0164                                   21487827.3364
                                                                        50.0004
        38.5004
   3552867.84847   2769569.26643
                  24473488.3284                                   24473485.6764
                                                                        43.7504
        22.2504
 -20135961.39848 -15643443.64847
                  21002349.6884                                   21002345.9304
                                                                        51.0004
        42.5004
 -18092266.13348 -14069727.82446
                  20483570.2424                                   20483566.5704
                                                                        51.7504
        41.7504
  -5204585.37947  -4041026.13745
                  22045453.8524                                   22045449.5164
                                                                        47.0004
        30.5004
 -13676468.35248 -10634693.93046
                  21952039.4454                                   21952035.8594
                                                                        49.0004
        39.2504
 -10384583.16446  -8058152.71943
                  23543002.4924                                   23542997.9384
                                                                        40.0004
        22.5004
 -12168625.28147  -9446014.92244
                  23103028.0084                                   23103024.0394
                                                                        44.2504
        28.7504
 09 10 28  0 15  0.0000000  0  8G02G04G05G10G13G29G16G07
  -4091397.40648  -3175527.44146
                  21486366.7194                                   21486361.7344
                                                                        49.7504
        38.5004
   3583682.30147   2793580.56343
                  24479352.2894                                   24479349.4534
                                                                        43.5004
        22.7504
 -20276459.58248 -15752922.75447
                  20975613.8754                                   20975609.9804
                                                                        52.2504
        42.0004
 -18210141.25048 -14161578.54746
                  20461139.0864                                   20461135.6724
                                                                        53.0004
        41.5004
  -5216988.93747  -4050691.25045
                  22043093.7344                                   22043089.5784
                                                                        46.5004
        30.0004
 -13754025.79748 -10695128.30546
                  21937280.9924                                   21937277.6334
                                                                        49.5004
        39.2504
 -10489181.16847  -8139657.64543
                  23523098.2034                                   23523093.8404
                                                                        42.0004
        22.5004
 -12324214.67647  -9567253.38344
                  23073420.1884                                   23073416.1804
                                                                        43.0004
        27.7504
 09 10 28  0 15 30.0000000  0  8G02G04G05G10G13G29G16G07
  -4098649.26248  -3181178.25446
                  21484986.9534                                   21484981.5204
                                                                        50.0004
        39.5004
   3614597.54746   2817670.44543
                  24485234.6094                                   24485231.6024
                                                                        40.2504
        20.7504
 -20416478.86748 -15862028.68747
                  20948969.0944                                   20948964.8554
                                                                        52.0004
        42.5004
 -18327452.82848 -14252990.15646
                  20438815.4384                                   20438811.9774
                                                                        52.0004
        41.7504
  -5228897.54347  -4059970.68744
                  22040827.6334                                   22040823.1764
                                                                        47.0004
        29.7504
 -13830962.48448 -10755078.96546
                  21922640.4304                                   21922636.8524
                                                                        49.7504
        38.5004
 -10593166.72746  -8220685.35943
                  23503310.4064                                   23503305.8094
                                                                        41.7504
        22.2504
 -12479328.46947  -9688121.25444
                  23043903.2584                                   23043899.0314
                                                                        42.7504
        28.0004
 09 10 28  0 16  0.0000000  0  8G02G04G05G10G13G29G16G07
  -4105452.85948  -3186479.78946
                  21483692.1254                                   21483686.9804
                                                                        49.7504
        38.7504
   3645610.28546   2841836.21143
                  24491136.1804                                   24491133.5704
                                                                        38.7504
        19.0004
 -20556019.57048 -15970761.69547
                  20922415.1954                                   20922411.2584
                                                                        52.2504
        43.0004
 -18444201.85948 -14343963.43446
                  20416598.7424                                   20416595.5354
                                                                        52.5004
        41.5004
  -5240314.70747  -4068867.17645
                  22038655.0634                                   22038650.5234
                                                                        47.0004
        31.2504
 -13907280.66048 -10814547.66046
                  21908117.5634                                   21908113.7934
                                                                        50.0004
        39.0004
 -10696540.27746  -8301236.16844
                  23483639.4614                                   23483634.2114
                                                                        41.5004
        24.5004
 -12633965.12947  -9808617.34844
                  23014476.9844                                   23014472.6914
                                                                        42.2504
        28.5004
 09 10 28  0 16 30.0000000  0  8G02G04G05G10G13G29G16G07
  -4111809.49248  -3191433.02046
                  21482482.4614                                   21482477.1564
                                                                        49.7504
        38.5004
   3676719.43046   2866077.01843
                  24497055.7344                                   24497053.8204
                                                                        39.0004
        19.7504
 -20695080.10948 -16079120.55947
                  20895952.7424                                   20895949.1454
                                                                        51.7504
        42.5004
 -18560387.11348 -14434497.39846
                  20394489.4924                                   20394486.0004
                                                                        53.0004
        41.7504
  -5251242.77347  -4077382.55945
                  22036575.5164                                   22036571.3164
                                                                        46.5004
        30.5004
 -13982980.78948 -10873534.75446
                  21893712.3594                                   21893708.4144
                                                                        49.5004
        39.2504
 -10799301.51647  -8381309.86343
                  23464084.4694                                   23464079.4384
                                                                        43.0004
        23.7504
 -12788122.04347  -9928739.60544
                  22985142.3984                                   22985137.5044
                                                                        44.2504
        28.2504
 09 10 28  0 17  0.0000000  0  8G02G04G05G10G13G29G16G07
  -4117722.85948  -3196040.83246
                  21481357.4384                                   21481352.3054
                                                                        50.0004
        38.7504
   3707920.98046   2890389.87143
                  24502994.3364                                   24502991.8594
                                                                        41.2504
        22.7504
 -20833660.57048 -16187105.34047
                  20869581.8754                                   20869578.1684
                                                                        51.5004
        42.5004
 -18676009.39548 -14524592.68047
                  20372487.2584                                   20372483.9104
                                                                        52.7504
        42.0004
  -5261685.61747  -4085519.85545
                  22034587.9924                                   22034584.3674
                                                                        45.5004
        30.5004
 -14058064.17648 -10932041.28546
                  21879424.2584                                   21879420.5904
                                                                        49.7504
        39.0004
 -10901450.75847  -8460906.66844
                  23444646.0394                                   23444640.9734
                                                                        43.5004
        24.5004
 -12941797.91447 -10048487.01644
                  22955898.1804                                   22955894.2854
                                                                        45.0004
        29.5004
 09 10 28  0 17 30.0000000  0  8G02G04G05G10G13G29G16G07
  -4123191.54748  -3200302.18446
                  21480317.0554                                   21480311.3834
                                                                        48.7504
        38.0004
   3739216.34047   2914775.80944
                  24508949.1024                                   24508946.7664
                                                                        43.2504
        25.2504
 -20971756.15648 -16294712.28147
                  20843303.2344                                   20843299.0664
                                                                        51.5004
        42.5004
 -18791064.57048 -14614246.08246
                  20350593.5004                                   20350589.4384
                                                                        53.0004
        41.5004
  -5271642.44947  -4093278.43045
                  22032693.2504                                   22032689.3404
                                                                        45.5004
        30.7504
 -14132527.46148 -10990064.61746
                  21865254.5234                                   21865250.8324
                                                                        49.2504
        39.5004
 -11002982.90647  -8540022.63343
                  23425325.0554                                   23425320.5744
                                                                        43.5004
        23.5004
 -13094986.78147 -10167854.94145
                  22926747.7424                                   22926743.8554
                                                                        42.5004
        30.5004
 09 10 28  0 18  0.0000000  0  8G02G04G05G10G13G29G16G07
  -4128213.93448  -3204215.70346
                  21479361.1564                                   21479355.4344
                                                                        49.0004
        38.5004
   3770607.10947   2939236.10544
                  24514922.6564                                   24514920.7814
                                                                        43.7504
        24.5004
 -21109361.97348 -16401937.59847
                  20817117.6804                                   20817113.8874
                                                                        51.2504
        42.5004
 -18905548.57048 -14703454.39846
                  20328807.6884                                   20328804.2304
                                                                        52.5004
        41.5004
  -5281112.05947  -4100657.35245
                  22030891.6804                                   22030887.1724
                                                                        45.7504
        30.7504
 -14206368.06248 -11047602.74246
                  21851202.6484                                   21851199.2774
                                                                        48.7504
        39.0004
 -11103895.73047  -8618655.99244
                  23406121.8754                                   23406117.6024
                                                                        42.0004
        24.2504
 -13247683.09847 -10286839.03945
                  22897690.4224                                   22897686.8014
                                                                        43.0004
        31.0004
 09 10 28  0 18 30.0000000  0  7G02G05G10G13G29G16G07
  -2557374.93048  -1980185.25446
                  21778281.9304                                   21778275.9964
                                                                        50.0004
        38.0004
 -19671055.10948 -15281179.02047
                  21090818.5554                                   21090814.7464
                                                                        52.2504
        42.2504
 -17444039.37948 -13564616.06646
                  20606923.5784                                   20606920.2664
                                                                        53.2504
        41.2504
  -3714679.77047  -2880060.75045
                  22328973.7584                                   22328969.3554
                                                                        46.2504
        30.5004
 -12704166.09448  -9877055.77346
                  22137062.4144                                   22137058.9964
                                                                        50.5004
        39.0004
  -9628767.05947  -7469205.08644
                  23686829.0864                                   23686825.3444
                                                                        42.5004
        25.2504
 -11824462.09847  -9177835.64545
                  23168520.8914                                   23168516.4774
                                                                        44.5004
        31.0004
 09 10 28  0 19  0.0000000  0  7G02G05G10G13G29G16G07
  -2561517.13748  -1983412.85546
                  21777493.5394                                   21777487.9144
                                                                        49.2504
        38.0004
 -19807684.18048 -15387643.25047
                  21064818.5704                                   21064815.0164
                                                                        52.0004
        42.5004
 -17557384.80148 -13652937.17246
                  20585354.5944                                   20585351.1954
                                                                        53.0004
        41.7504
  -3723189.02047  -2886691.31244
                  22327354.0394                                   22327349.8204
                                                                        45.7504
        29.5004
 -12776768.64848  -9933629.19146
                  22123246.6254                                   22123242.9804
                                                                        50.0004
        39.5004
  -9728444.56247  -7546875.85944
                  23667861.5944                                   23667857.2854
                                                                        43.5004
        25.5004
 -11976171.91447  -9296051.05545
                  23139651.3284                                   23139647.0904
                                                                        42.5004
        30.5004
 09 10 28  0 19 30.0000000  0  7G02G05G10G13G29G16G07
  -2565217.38348  -1986296.13346
                  21776789.5084                                   21776783.3404
                                                                        49.5004
        38.0004
 -19943817.14848 -15493720.87147
                  21038913.4064                                   21038909.5204
                                                                        52.7504
        42.7504
 -17670154.43048 -13740809.61346
                  20563895.2344                                   20563891.7734
                                                                        53.0004
        41.0004
  -3731216.68047  -2892946.62944
                  22325826.5944                                   22325822.0784
                                                                        46.0004
        29.5004
 -12848746.24648  -9989715.62946
                  22109549.7584                                   22109546.1764
                                                                        50.2504
        39.0004
  -9827496.53547  -7624059.21544
                  23649012.3524                                   23649008.0164
                                                                        42.7504
        25.7504
 -12127380.28947  -9413875.73045
                  23110877.0864                                   23110872.7114
                                                                        43.5004
        30.5004
 09 10 28  0 20  0.0000000  0  7G02G05G10G13G29G16G07
  -2568474.97348  -1988834.50846
                  21776169.3754                                   21776163.5004
                                                                        49.7504
        38.0004
 -20079450.74248 -15599409.39147
                  21013103.4774                                   21013099.5434
                                                                        51.7504
        42.7504
 -17782345.55148 -13828231.28546
                  20542545.9924                                   20542542.4064
                                                                        52.5004
        41.0004
  -3738762.21947  -2898826.25845
                  22324390.6334                                   22324386.6604
                                                                        45.2504
        30.5004
 -12920098.39848 -10045314.71146
                  22095971.7664                                   22095968.0084
                                                                        49.5004
        38.7504
  -9925922.17647  -7700754.51244
                  23630283.2504                                   23630278.3914
                                                                        43.0004
        25.5004
 -12278081.54347  -9531305.32444
                  23082199.5234                                   23082194.8484
                                                                        43.2504
        29.2504
 09 10 28  0 20 30.0000000  0  7G02G05G10G13G29G16G07
  -2571295.86348  -1991032.60246
                  21775632.3284                                   21775626.8054
                                                                        49.0004
        37.7504
 -20214588.00448 -15704711.16447
                  20987387.7034                                   20987383.6564
                                                                        52.5004
        43.0004
 -17893961.19948 -13915204.52046
                  20521306.2584                                   20521302.7664
                                                                        52.7504
        41.2504
  -3745832.76247  -2904335.73445
                  22323045.2734                                   22323040.9494
                                                                        46.0004
        30.0004
 -12990829.48448 -10100429.85546
                  22082512.3134                                   22082508.7894
                                                                        50.2504
        38.5004
 -10023725.01247  -7776964.51644
                  23611672.0084                                   23611666.9454
                                                                        42.5004
        25.7504
 -12428277.43447  -9648341.08644
                  23053618.3674                                   23053613.4964
                                                                        43.2504
        29.0004
 09 10 28  0 21  0.0000000  0  7G02G05G10G13G29G16G07
  -2573687.52748  -1992896.24646
                  21775177.3594                                   21775171.9064
                                                                        49.0004
        37.7504
 -20349232.05548 -15809628.62147
                  20961765.4224                                   20961761.6844
                                                                        52.0004
        42.5004
 -18005006.01248 -14001732.93446
                  20500175.1094                                   20500171.3444
                                                                        52.5004
        41.5004
  -3752436.25047  -2909481.32845
                  22321788.4844                                   22321784.6174
                                                                        45.0004
        30.5004
 -13060944.30548 -10155064.78146
                  22069169.5634                                   22069166.2034
                                                                        50.2504
        39.0004
 -10120908.64147  -7852692.03544
                  23593178.6024                                   23593173.7974
                                                                        42.5004
        25.7504
 -12577971.18447  -9764985.58244
                  23025132.5474                                   23025127.5554
                                                                        43.7504
        29.5004
 09 10 28  0 21 30.0000000  0  7G02G05G10G13G29G16G07
  -2575651.52748  -1994426.64546
                  21774803.9614                                   21774798.1374
                                                                        50.0004
        38.0004
 -20483382.19548 -15914161.20747
                  20936237.6024                                   20936234.0234
                                                                        52.5004
        42.5004
 -18115479.52348 -14087816.19947
                  20479152.6484                                   20479149.3674
                                                                        52.7504
        42.0004
  -3758574.70747  -2914264.54345
                  22320620.3984                                   22320616.8284
                                                                        44.5004
        30.0004
 -13130444.36748 -10209220.66046
                  22055944.4064                                   22055941.3404
                                                                        50.5004
        38.7504
 -10217472.97747  -7927936.97344
                  23574802.4694                                   23574797.2934
                                                                        42.7504
        24.2504
 -12727159.81247  -9881236.44144
                  22996742.6254                                   22996738.1804
                                                                        43.7504
        29.7504
 09 10 28  0 22  0.0000000  0  7G02G05G10G13G29G16G07
  -2577191.11748  -1995626.30946
                  21774511.1414                                   21774505.5164
                                                                        50.0004
        38.5004
 -20617037.37948 -16018308.10247
                  20910803.9304                                   20910800.5084
                                                                        52.2504
        42.7504
 -18225381.25448 -14173453.89546
                  20458239.3204                                   20458235.9414
                                                                        52.5004
        41.7504
  -3764251.60947  -2918688.10245
                  22319539.8984                                   22319536.1214
                                                                        45.0004
        30.0004
 -13199329.74648 -10262897.56646
                  22042835.6334                                   22042832.3754
                                                                        50.2504
        38.5004
 -10313418.02047  -8002699.35244
                  23556544.8204                                   23556539.9654
                                                                        43.0004
        25.0004
 -12875842.30947  -9997092.92645
                  22968449.5634                                   22968444.9614
                                                                        44.0004
        30.2504
 09 10 28  0 22 30.0000000  0  7G02G05G10G13G29G16G07
  -2578309.96148  -1996498.13746
                  21774297.9844                                   21774292.5554
                                                                        49.0004
        38.0004
 -20750198.57048 -16122070.07447
                  20885464.1414                                   20885460.5274
                                                                        52.5004
        42.7504
 -18334713.02748 -14258647.48446
                  20437433.9454                                   20437430.3444
                                                                        52.5004
        41.0004
  -3769471.37147  -2922755.43444
                  22318547.1484                                   22318542.8244
                                                                        44.7504
        29.5004
 -13267603.66448 -10316098.02046
                  22029843.8834                                   22029840.4064
                                                                        51.0004
        39.5004
 -10408746.34846  -8076981.19144
                  23538404.9064                                   23538400.1644
                                                                        41.5004
        25.5004
 -13024017.20747 -10112553.89145
                  22940252.6334                                   22940247.8164
                                                                        45.5004
        30.0004
 09 10 28  0 23  0.0000000  0  7G02G05G10G13G29G16G07
  -2579010.35248  -1997043.89146
                  21774164.3834                                   21774158.7934
                                                                        48.7504
        37.7504
 -20882864.51248 -16225446.14147
                  20860218.7424                                   20860214.9104
                                                                        52.5004
        42.7504
 -18443473.98448 -14343396.27046
                  20416737.4064                                   20416733.7974
                                                                        52.7504
        41.7504
  -3774236.62947  -2926468.61745
                  22317640.0634                                   22317636.2774
                                                                        44.5004
        30.5004
 -13335266.49648 -10368822.30546
                  22016968.4534                                   22016964.3874
                                                                        50.0004
        38.7504
 -10503455.78147  -8150780.73844
                  23520382.0704                                   23520377.6054
                                                                        42.2504
        24.5004
 -13171683.04747 -10227618.17245
                  22912152.7114                                   22912148.3594
                                                                        44.5004
        31.2504
 09 10 28  0 23 30.0000000  0  7G02G05G10G13G29G16G07
  -2579293.88748  -1997264.81646
                  21774110.7734                                   21774104.8014
                                                                        48.0004
        38.0004
 -21015033.71148 -16328435.13747
                  20835067.6724                                   20835063.8054
                                                                        52.7504
        42.7504
 -18551663.65648 -14427699.92646
                  20396149.8284                                   20396146.0234
                                                                        52.5004
        41.7504
  -3778549.39147  -2929829.20344
                  22316819.4304                                   22316815.2074
                                                                        43.5004
        29.2504
 -13402318.26648 -10421070.41846
                  22004208.1254                                   22004204.8674
                                                                        50.2504
        39.2504
 -10597546.48447  -8224098.17244
                  23502477.1414                                   23502472.6484
                                                                        42.7504
        25.7504
 -13318837.45347 -10342283.94545
                  22884150.3834                                   22884146.4884
                                                                        45.5004
        31.0004
 09 10 28  0 24  0.0000000  0  7G02G05G10G13G29G16G07
  -2579162.09848  -1997162.12546
                  21774135.6024                                   21774129.9734
                                                                        49.0004
        37.5004
 -21146704.59848 -16431035.81247
                  20810011.4384                                   20810007.9534
                                                                        52.2504
        42.7504
 -18659280.82448 -14511557.46146
                  20375670.8444                                   20375667.3714
                                                                        52.7504
        41.5004
  -3782411.87947  -2932838.94544
                  22316085.1094                                   22316080.2664
                                                                        44.0004
        29.0004
 -13468759.96948 -10472843.17646
                  21991565.0944                                   21991561.7234
                                                                        50.5004
        39.0004
 -10691018.65647  -8296933.63344
                  23484690.1094                                   23484685.0274
                                                                        42.5004
        25.5004
 -13465477.05147 -10456548.57445
                  22856245.7114                                   22856241.5554
                                                                        45.0004
        31.0004
 09 10 28  0 24 30.0000000  0  7G02G05G10G13G29G16G07
  -2578611.07448  -1996732.74646
                  21774240.5944                                   21774234.8714
                                                                        48.5004
        37.5004
 -21277869.47748 -16533242.21547
                  20785051.7424                                   20785048.0204
                                                                        52.5004
        43.0004
 -18766318.39548 -14594963.36347
                  20355302.3754                                   20355298.6094
                                                                        51.5004
        42.0004
  -3785820.43047  -2935494.96144
                  22315435.7584                                   22315431.4734
                                                                        43.0004
        28.7504
 -13534585.11348 -10524135.48046
                  21979038.8674                                   21979035.4454
                                                                        50.7504
        39.5004
 -10783864.23447  -8369280.85244
                  23467022.5554                                   23467016.9224
                                                                        42.0004
        25.5004
 -13611593.49247 -10570405.54745
                  22828440.9924                                   22828436.4414
                                                                        46.0004
        31.5004
 09 10 28  0 25  0.0000000  0  7G02G05G10G13G29G16G07
  -2577651.02748  -1995984.65246
                  21774423.3204                                   21774417.4264
                                                                        49.0004
        36.7504
 -21408535.21148 -16635059.64147
                  20760186.9534                                   20760182.8054
                                                                        52.5004
        43.0004
 -18872784.43448 -14677923.92647
                  20335042.3204                                   20335038.8134
                                                                        52.5004
        42.0004
  -3788785.97747  -2937805.77344
                  22314871.5164                                   22314867.1994
                                                                        44.7504
        28.5004
 -13599802.58648 -10574954.29346
                  21966628.5554                                   21966625.0664
                                                                        50.0004
        38.7504
 -10876091.44947  -8441146.19544
                  23449472.1644                                   23449467.0634
                                                                        42.2504
        26.0004
 -13757192.98847 -10683859.69145
                  22800733.2584                                   22800729.7384
                                                                        45.7504
        31.2504
 09 10 28  0 25 30.0000000  0  7G02G05G10G13G29G16G07
  -2576283.09048  -1994918.74246
                  21774683.3444                                   21774677.4264
                                                                        49.2504
        36.7504
 -21538700.35248 -16736486.99647
                  20735417.2664                                   20735413.7034
                                                                        53.0004
        43.0004
 -18978677.56248 -14760438.05146
                  20314891.6724                                   20314888.0354
                                                                        52.7504
        41.5004
  -3791309.81647  -2939772.41044
                  22314391.1254                                   22314386.9224
                                                                        44.5004
        28.5004
 -13664413.17248 -10625300.20746
                  21954333.4144                                   21954330.3524
                                                                        49.7504
        39.0004
 -10967700.05147  -8512529.52744
                  23432039.7584                                   23432034.5824
                                                                        42.7504
        26.0004
 -13902271.90247 -10796908.19945
                  22773126.3524                                   22773122.2854
                                                                        45.0004
        30.7504
 09 10 28  0 26  0.0000000  0  7G02G05G10G13G29G16G07
  -2574505.16848  -1993533.34046
                  21775022.0084                                   21775016.3244
                                                                        48.5004
        38.5004
 -21668358.56248 -16837519.36747
                  20710744.3524                                   20710740.0004
                                                                        52.5004
        42.7504
 -19083992.34048 -14842501.48846
                  20294850.8984                                   20294847.3404
                                                                        52.5004
        41.5004
  -3793390.55947  -2941393.76244
                  22313995.2274                                   22313990.7464
                                                                        43.7504
        28.2504
 -13728411.44548 -10675169.00846
                  21942154.7034                                   21942151.4384
                                                                        50.0004
        39.0004
 -11058684.19546  -8583426.27044
                  23414726.0944                                   23414720.9884
                                                                        41.5004
        26.0004
 -14046824.29347 -10909546.41045
                  22745618.9614                                   22745614.7814
                                                                        46.0004
        31.0004
 09 10 28  0 26 30.0000000  0  7G02G05G10G13G29G16G07
  -2572321.19948  -1991831.64846
                  21775437.3834                                   21775431.7734
                                                                        48.2504
        37.7504
 -21797511.15248 -16938157.73447
                  20686167.2504                                   20686163.7234
                                                                        52.5004
        42.7504
 -19188730.52048 -14924115.66046
                  20274920.0234                                   20274916.5354
                                                                        53.0004
        41.5004
  -3795032.26647  -2942673.02344
                  22313683.3284                                   22313678.4574
                                                                        43.2504
        28.5004
 -13791801.62148 -10724563.94546
                  21930092.2034                                   21930088.7194
                                                                        49.0004
        38.5004
 -11149046.50846  -8653838.47344
                  23397530.0004                                   23397525.8444
                                                                        41.7504
        26.0004
 -14190848.95347 -11021773.42245
                  22718211.7424                                   22718207.9454
                                                                        45.5004
        31.5004
 09 10 28  0 27  0.0000000  0  7G02G05G10G13G29G16G07
  -2569731.20347  -1989813.48846
                  21775930.3054                                   21775924.8984
                                                                        47.7504
        37.0004
 -21926154.56248 -17038399.34447
                  20661687.2734                                   20661683.1214
                                                                        52.2504
        43.0004
 -19292889.49248 -15005278.47347
                  20255098.9694                                   20255095.3524
                                                                        52.5004
        42.0004
  -3796235.98847  -2943610.98844
                  22313454.3594                                   22313449.5744
                                                                        43.5004
        29.0004
 -13854581.36748 -10773483.23846
                  21918145.6954                                   21918141.9104
                                                                        49.5004
        38.5004
 -11238784.00447  -8723763.80144
                  23380453.6484                                   23380448.7274
                                                                        42.2504
        26.0004
 -14334342.37547 -11133586.47345
                  22690906.0004                                   22690902.1174
                                                                        45.0004
        30.5004
 09 10 28  0 27 30.0000000  0  7G02G05G10G13G29G16G07
   -991318.95348   -759881.94146
                  22076292.1174                                   22076286.6724
                                                                        48.0004
        37.2504
 -20478865.00048 -15910641.23447
                  20937097.1024                                   20937093.3204
                                                                        52.2504
        43.0004
 -17821047.65248 -13858388.72746
                  20535181.1884                                   20535177.8794
                                                                        52.5004
        41.2504
  -2221585.71547  -1716610.80544
                  22613099.8914                                   22613095.8134
                                                                        44.2504
        28.7504
 -12341332.12548  -9594327.98846
                  22206107.5234                                   22206104.3204
                                                                        50.0004
        39.0004
  -9752476.20347  -7565601.86744
                  23663288.3914                                   23663284.2114
                                                                        42.2504
        26.2504
 -12901878.98047 -10017381.21145
                  22963494.7664                                   22963490.6484
                                                                        45.5004
        30.5004
 09 10 28  0 28  0.0000000  0  7G02G05G10G13G29G16G07
   -987928.32448   -757239.94546
                  22076937.6254                                   22076932.2544
                                                                        49.0004
        37.5004
 -20606491.68448 -16010090.56647
                  20912810.4844                                   20912807.0904
                                                                        52.7504
        42.7504
 -17924052.39848 -13938652.14546
                  20515580.1484                                   20515576.9344
                                                                        52.5004
        41.5004
  -2221925.60947  -1716875.66444
                  22613035.2664                                   22613031.3094
                                                                        44.2504
        29.5004
 -12402898.87948  -9642302.09846
                  22194391.3204                                   22194388.2974
                                                                        49.2504
        38.7504
  -9840968.91047  -7634557.21544
                  23646449.1804                                   23646444.8054
                                                                        42.5004
        27.0004
 -13044307.91047 -10128364.75845
                  22936391.5314                                   22936387.1954
                                                                        46.0004
        31.2504
 09 10 28  0 28 30.0000000  0  7G02G05G10G13G29G16G07
   -984136.47748   -754285.26246
                  22077659.1644                                   22077653.3244
                                                                        48.7504
        36.7504
 -20733605.02048 -16109139.89847
                  20888621.5944                                   20888618.0124
                                                                        52.2504
        43.0004
 -18026475.84848 -14018462.64546
                  20496089.3674                                   20496086.1134
                                                                        52.7504
        41.7504
  -2221833.83647  -1716804.17244
                  22613052.5704                                   22613048.4924
                                                                        44.5004
        28.5004
 -12463857.12948  -9689802.02346
                  22182791.5944                                   22182788.2894
                                                                        49.5004
        38.5004
  -9928835.84046  -7703024.96144
                  23629729.0474                                   23629724.1914
                                                                        41.7504
        25.5004
 -13186197.46147 -10238928.03545
                  22909390.9774                                   22909386.6724
                                                                        45.5004
        31.2504
 09 10 28  0 29  0.0000000  0  7G02G05G10G13G29G16G07
   -979950.67248   -751023.59446
                  22078455.5634                                   22078449.8914
                                                                        49.2504
        36.5004
 -20860208.07448 -16207791.62947
                  20864530.0084                                   20864526.1024
                                                                        53.0004
        43.0004
 -18128321.35248 -14097822.75447
                  20476708.9924                                   20476705.2344
                                                                        52.7504
        42.0004
  -2221317.46147  -1716401.80544
                  22613150.7584                                   22613147.2584
                                                                        44.2504
        27.2504
 -12524211.31648  -9736831.25846
                  22171306.5314                                   22171303.6764
                                                                        49.2504
        38.5004
 -10016080.69147  -7771007.94544
                  23613126.7344                                   23613122.3244
                                                                        42.5004
        25.7504
 -13327550.24247 -10349073.03545
                  22882492.3524                                   22882487.9924
                                                                        46.2504
        31.0004
 09 10 28  0 29 30.0000000  0  7G02G05G10G13G29G16G07
   -975369.11847   -747453.56045
                  22079327.3674                                   22079321.7504
                                                                        47.7504
        35.7504
 -20986296.04348 -16306041.97347
                  20840535.8984                                   20840532.7034
                                                                        52.5004
        43.0004
 -18229585.14148 -14176729.58646
                  20457439.1414                                   20457435.5234
                                                                        52.7504
        41.2504
  -2220375.38747  -1715667.71944
                  22613329.8754                                   22613326.4654
                                                                        44.5004
        26.5004
 -12583959.90647  -9783388.60946
                  22159936.4924                                   22159933.3914
                                                                        47.7504
        38.7504
 -10102700.81247  -7838504.16444
                  23596643.5554                                   23596638.7664
                                                                        42.0004
        27.7504
 -13468360.14147 -10458795.04745
                  22855697.1954                                   22855692.8484
                                                                        46.7504
        30.7504
 09 10 28  0 30  0.0000000  0  8G02G08G05G10G13G29G16G07
   -970393.53948   -743576.48446
                  22080274.5084                                   22080268.7344
                                                                        48.2504
        36.0004
   4408619.14156   3476584.25052
                  24701506.9614                                   24701505.1844
                                                                        38.5004
        17.2504
 -21111867.07448 -16403889.53147
                  20816640.7424                                   20816637.0944
                                                                        52.5004
        43.0004
 -18330266.35548 -14255182.47346
                  20438280.3134                                   20438276.5824
                                                                        52.2504
        41.5004
  -2219009.81647  -1714603.64144
                  22613590.0784                                   22613586.0634
                                                                        44.5004
        26.2504
 -12643101.52748  -9829472.99646
                  22148682.4694                                   22148678.9494
                                                                        49.0004
        38.5004
 -10188694.03947  -7905511.85944
                  23580279.1334                                   23580274.7274
                                                                        43.5004
        26.7504
 -13608625.07847 -10568092.43045
                  22829005.6024                                   22829001.2234
                                                                        47.2504
        31.0004
 09 10 28  0 30 30.0000000  0  8G02G08G05G10G13G29G16G07
   -965029.43748   -739396.66846
                  22081295.0394                                   22081289.5864
                                                                        48.0004
        36.2504
   4215032.94946   3325737.89843
                  24664669.0554                                   24664666.1564
                                                                        41.0004
        21.2504
 -21236924.02748 -16501336.51647
                  20792843.2194                                   20792839.6414
                                                                        52.7504
        42.7504
 -18430368.39548 -14333184.07846
                  20419231.1094                                   20419227.7384
                                                                        52.5004
        41.2504
  -2217226.91847  -1713214.37144
                  22613929.2114                                   22613925.1884
                                                                        42.5004
        28.2504
 -12701641.46548  -9875088.52746
                  22137542.5944                                   22137539.0004
                                                                        48.5004
        39.0004
 -10274064.60547  -7972034.38344
                  23564034.1414                                   23564029.4064
                                                                        42.5004
        27.5004
 -13748345.85947 -10676965.77745
                  22802417.5004                                   22802412.9964
                                                                        47.0004
        30.7504
 09 10 28  0 31  0.0000000  0  8G02G08G05G10G13G29G16G07
   -959281.75848   -734917.96946
                  22082388.6954                                   22082383.5664
                                                                        48.0004
        37.2504
   4021623.01247   3175028.92643
                  24627864.7504                                   24627861.8594
                                                                        43.0004
        22.5004
 -21361467.84848 -16598383.64547
                  20769143.1174                                   20769139.7194
                                                                        52.0004
        43.0004
 -18529893.10548 -14410735.80146
                  20400292.2734                                   20400288.9924
                                                                        52.2504
        41.5004
  -2215031.46147  -1711503.63744
                  22614347.6024                                   22614342.6054
                                                                        43.5004
        26.5004
 -12759582.90248  -9920237.69946
                  22126516.8594                                   22126513.3204
                                                                        48.5004
        38.0004
 -10358815.20347  -8038073.79744
                  23547907.0234                                   23547901.8524
                                                                        42.5004
        27.2504
 -13887523.01647 -10785415.47745
                  22775932.6334                                   22775928.5634
                                                                        47.2504
        31.0004
 09 10 28  0 31 30.0000000  0  8G02G08G05G10G13G29G16G07
   -953152.12148   -730141.67246
                  22083555.3524                                   22083550.2624
                                                                        48.0004
        36.7504
   3828392.67647   3024459.87544
                  24591094.1724                                   24591091.4694
                                                                        42.7504
        24.2504
 -21485497.82448 -16695030.35947
                  20745541.1804                                   20745537.3984
                                                                        52.2504
        43.2504
 -18628840.41848 -14487837.59846
                  20381463.2664                                   20381459.8554
                                                                        52.7504
        41.7504
  -2212426.09047  -1709473.47744
                  22614842.9844                                   22614838.9064
                                                                        44.7504
        27.5004
 -12816927.21148  -9964921.58646
                  22115604.6644                                   22115601.3554
                                                                        49.2504
        39.2504
 -10442945.53547  -8103629.91444
                  23531896.5164                                   23531892.2774
                                                                        42.7504
        28.0004
 -14026154.75047 -10893440.19145
                  22749551.7814                                   22749547.9024
                                                                        46.0004
        31.0004
 09 10 28  0 32  0.0000000  0  8G02G08G05G10G13G29G16G07
   -946636.82447   -725064.83645
                  22084795.1094                                   22084789.9384
                                                                        47.5004
        35.5004
   3635350.57847   2874037.44543
                  24554358.5704                                   24554356.4844
                                                                        42.5004
        22.5004
 -21609006.49248 -16791270.85547
                  20722038.3834                                   20722034.6684
                                                                        52.5004
        43.7504
 -18727203.47348 -14564484.11746
                  20362745.4614                                   20362742.0124
                                                                        52.7504
        41.5004
  -2209407.18447  -1707121.14544
                  22615417.5164                                   22615412.8404
                                                                        44.7504
        27.7504
 -12873668.51248 -10009135.57846
                  22104807.1254                                   22104803.6334
                                                                        49.0004
        39.2504
 -10526448.86747  -8168697.43044
                  23516006.4614                                   23516002.4884
                                                                        42.7504
        27.5004
 -14164232.04747 -11001032.85545
                  22723276.8204                                   22723272.8554
                                                                        47.0004
        31.7504
 09 10 28  0 32 30.0000000  0  8G02G08G05G10G13G29G16G07
   -939735.43447   -719687.14145
                  22086108.2114                                   22086102.6994
                                                                        47.2504
        35.5004
   3442502.26646   2723766.07443
                  24517661.4384                                   24517658.6954
                                                                        41.2504
        22.0004
 -21731989.96548 -16887102.11347
                  20698635.2424                                   20698631.3404
                                                                        51.7504
        43.2504
 -18824979.35248 -14640673.10546
                  20344139.3594                                   20344135.8444
                                                                        51.7504
        41.2504
  -2205975.00847  -1704446.68444
                  22616070.2424                                   22616066.4224
                                                                        45.0004
        27.2504
 -12929804.75448 -10052878.10946
                  22094124.6954                                   22094121.1294
                                                                        48.7504
        38.5004
 -10609322.87547  -8233274.56644
                  23500236.0944                                   23500232.1134
                                                                        42.5004
        26.2504
 -14301751.15247 -11108190.58645
                  22697107.7194                                   22697103.3524
                                                                        46.2504
        31.7504
 09 10 28  0 33  0.0000000  0  8G02G08G05G10G13G29G16G07
   -932448.23447   -714008.82846
                  22087495.0784                                   22087489.3404
                                                                        47.5004
        36.0004
   3249852.78146   2573649.64143
                  24481001.2974                                   24480998.3834
                                                                        40.0004
        20.7504
 -21854445.72748 -16982522.19147
                  20675332.3914                                   20675328.8014
                                                                        52.5004
        43.0004
 -18922165.88748 -14716402.87547
                  20325645.2734                                   20325641.6334
                                                                        52.5004
        42.0004
  -2202130.36347  -1701450.87144
                  22616802.4304                                   22616797.8054
                                                                        45.0004
        28.0004
 -12985335.79747 -10096149.05146
                  22083557.2664                                   22083554.1764
                                                                        46.7504
        38.0004
 -10691566.18047  -8297360.27344
                  23484586.4614                                   23484581.9304
                                                                        42.7504
        25.7504
 -14438708.12947 -11214910.30545
                  22671045.5944                                   22671041.8134
                                                                        46.5004
        31.7504
 09 10 28  0 33 30.0000000  0  8G02G08G05G10G13G29G16G07
   -924775.25048   -708029.88746
                  22088955.1724                                   22088949.3524
                                                                        48.0004
        36.2504
   3057407.62146   2423692.37143
                  24444379.7114                                   24444377.7304
                                                                        41.7504
        20.2504
 -21976370.94148 -17077528.87547
                  20652131.0394                                   20652127.3204
                                                                        52.7504
        43.5004
 -19018761.48848 -14791672.16046
                  20307263.9384                                   20307260.1134
                                                                        52.2504
        41.2504
  -2197873.62547  -1698133.96944
                  22617612.4304                                   22617608.2344
                                                                        43.5004
        27.5004
 -13040261.14547 -10138948.02046
                  22073105.7894                                   22073102.3134
                                                                        47.7504
        38.5004
 -10773177.26246  -8360953.32044
                  23469055.8984                                   23469051.6684
                                                                        41.5004
        27.2504
 -14575098.07847 -11321188.16045
                  22645091.5234                                   22645087.8984
                                                                        46.2504
        31.7504
 09 10 28  0 34  0.0000000  0  8G02G08G05G10G13G29G16G07
   -916720.15647   -701753.21945
                  22090488.0784                                   22090482.3794
                                                                        47.5004
        35.5004
   2865167.67247   2273895.06343
                  24407798.0314                                   24407794.9414
                                                                        43.0004
        20.5004
 -22097765.64148 -17172122.15247
                  20629030.3914                                   20629026.4224
                                                                        51.7504
        43.7504
 -19114766.85948 -14866481.53546
                  20288994.6414                                   20288991.0274
                                                                        51.2504
        41.5004
  -2193208.89847  -1694499.12944
                  22618499.6254                                   22618496.1804
                                                                        44.5004
        27.7504
 -13094582.84847 -10181276.62946
                  22062768.5864                                   22062765.4264
                                                                        47.7504
        38.7504
 -10854157.09447  -8424054.48444
                  23453645.9614                                   23453641.3444
                                                                        43.0004
        27.0004
 -14710920.90647 -11427024.10245
                  22619245.3984                                   22619241.6374
                                                                        46.2504
        33.0004
 09 10 28  0 34 30.0000000  0  8G02G08G05G10G13G29G16G07
   -908282.27747   -695178.27045
                  22092093.9144                                   22092088.2114
                                                                        47.0004
        35.0004
   2673138.97347   2124262.30143
                  24371256.4144                                   24371253.1214
                                                                        44.0004
        21.2504
 -22218625.41848 -17266298.59047
                  20606031.9304                                   20606028.0164
                                                                        52.0004
        43.2504
 -19210178.15648 -14940827.99646
                  20270838.2734                                   20270834.9734
                                                                        52.5004
        41.7504
  -2188136.00047  -1690546.24244
                  22619465.2034                                   22619461.5634
                                                                        42.0004
        27.5004
 -13148297.87947 -10223132.49246
                  22052547.0394                                   22052543.8204
                                                                        47.5004
        38.7504
 -10934502.30947  -8486661.15644
                  23438356.6644                                   23438352.4344
                                                                        42.0004
        26.5004
 -14846171.91047 -11532414.48445
                  22593508.3674                                   22593503.8204
                                                                        46.5004
        32.0004
 09 10 28  0 35  0.0000000  0  8G02G08G05G10G13G29G16G07
   -899465.37147   -688307.99245
                  22093771.6414                                   22093766.1804
                                                                        46.5004
        35.2504
   2481323.36747   1974795.62943
                  24334755.0164                                   24334752.2384
                                                                        43.0004
        22.5004
 -22338951.29348 -17360058.99247
                  20583134.4844                                   20583130.5234
                                                                        53.0004
        43.0004
 -19304997.66848 -15014713.32846
                  20252794.6954                                   20252791.3204
                                                                        52.5004
        41.5004
  -2182658.83247  -1686278.30144
                  22620507.5784                                   22620503.3364
                                                                        42.7504
        26.0004
 -13201409.78947 -10264518.38346
                  22042439.9614                                   22042436.6374
                                                                        47.2504
        39.0004
 -11014215.50047  -8548775.33244
                  23423187.9924                                   23423183.6804
                                                                        42.5004
        27.0004
 -14980850.63347 -11637358.95345
                  22567879.7664                                   22567875.0124
                                                                        47.0004
        31.5004
 09 10 28  0 35 30.0000000  0  8G02G08G05G10G13G29G16G07
   -890272.21548   -681144.51245
                  22095521.1564                                   22095516.0234
                                                                        48.0004
        35.7504
   2289723.01646   1825496.71943
                  24298293.8834                                   24298291.2664
                                                                        41.5004
        22.0004
 -22458743.50848 -17453403.55947
                  20560338.7974                                   20560334.8324
                                                                        52.5004
        43.5004
 -19399225.84048 -15088137.88346
                  20234863.9924                                   20234860.1214
                                                                        52.2504
        41.2504
  -2176780.71947  -1681697.91444
                  22621626.2274                                   22621621.7424
                                                                        43.5004
        26.2504
 -13253921.03148 -10305436.24646
                  22032447.8594                                   22032444.3834
                                                                        48.2504
        39.0004
 -11093297.68047  -8610397.82044
                  23408138.5004                                   23408134.5234
                                                                        43.0004
        25.7504
 -15114955.68747 -11741856.37145
                  22542360.4144                                   22542355.6564
                                                                        47.2504
        31.7504
 09 10 28  0 36  0.0000000  0  8G02G08G05G10G13G29G16G07
   -880706.23048   -673690.52746
                  22097341.5554                                   22097336.1804
                                                                        48.5004
        36.2504
   2098339.42546   1676366.70143
                  24261875.2344                                   24261872.9694
                                                                        41.0004
        22.2504
 -22578001.52048 -17546331.87147
                  20537644.5864                                   20537640.7034
                                                                        51.7504
        43.7504
 -19492862.99648 -15161101.89546
                  20217045.2504                                   20217041.8054
                                                                        52.5004
        41.7504
  -2170505.36747  -1676808.00444
                  22622820.1724                                   22622816.0664
                                                                        44.2504
        27.0004
 -13305832.07848 -10345886.40246
                  22022569.4774                                   22022566.2464
                                                                        48.5004
        38.7504
 -11171748.78546  -8671528.54744
                  23393210.2974                                   23393205.8524
                                                                        41.5004
        25.7504
 -15248486.37947 -11845906.22745
                  22516949.8754                                   22516945.9344
                                                                        47.0004
        31.0004
 09 10 28  0 36 30.0000000  0  8G02G08G05G10G13G29G16G07
   -870769.82047   -665947.92645
                  22099232.6484                                   22099226.8324
                                                                        47.2504
        35.0004
   1907175.92646   1527408.23443
                  24225498.0784                                   24225495.8984
                                                                        39.0004
        22.7504
 -22696725.14148 -17638843.77747
                  20515052.4774                                   20515048.5394
                                                                        52.0004
        43.7504
 -19585909.78148 -15233605.87547
                  20199339.1414                                   20199335.7464
                                                                        52.0004
        42.0004
  -2163836.18447  -1671611.25844
                  22624089.4844                                   22624085.0554
                                                                        42.2504
        25.0004
 -13357145.87948 -10385871.20346
                  22012804.5474                                   22012801.5744
                                                                        48.2504
        39.0004
 -11249570.85547  -8732169.12544
                  23378401.0554                                   23378396.6604
                                                                        42.5004
        26.2504
 -15381441.16847 -11949507.37145
                  22491649.4304                                   22491645.2704
                                                                        45.5004
        31.7504
 09 10 28  0 37  0.0000000  0  8G02G08G05G10G13G29G16G07
    714955.61348    569682.28145
                  22400985.8674                                   22400980.2274
                                                                        48.2504
        35.0004
   3291662.68446   2606229.14743
                  24488956.7274                                   24488954.7304
                                                                        39.2504
        20.5004
 -21239487.72748 -16503334.11347
                  20792355.2344                                   20792351.3984
                                                                        52.2504
        43.2504
 -18102940.93748 -14078045.72746
                  20481538.6564                                   20481535.1294
                                                                        51.7504
        41.2504
   -581354.35947   -438508.50844
                  22925225.2894                                   22925221.0514
                                                                        43.5004
        25.5004
 -11832439.92248  -9197788.63346
                  22302946.3284                                   22302943.2704
                                                                        50.0004
        38.7504
  -9751339.45747  -7564716.08244
                  23663505.5164                                   23663500.2274
                                                                        42.0004
        26.2504
 -13938392.68747 -10825053.99645
                  22766252.6564                                   22766248.3484
                                                                        46.2504
        31.7504
 09 10 28  0 37 30.0000000  0  8G02G08G05G10G13G29G16G07
    725629.75448    577999.78145
                  22403016.9384                                   22403011.2114
                                                                        48.0004
        35.7504
   3100951.34846   2457622.97743
                  24452665.8444                                   24452663.2274
                                                                        41.7504
        22.5004
 -21357134.93048 -16595007.26247
                  20769967.7504                                   20769964.0664
                                                                        52.0004
        43.5004
 -18194801.29748 -14149625.23446
                  20464058.5004                                   20464054.6804
                                                                        52.2504
        41.2504
   -573900.66847   -432700.39144
                  22926643.7664                                   22926639.8954
                                                                        42.5004
        24.5004
 -11882557.14848  -9236841.01646
                  22293409.3674                                   22293406.3594
                                                                        49.2504
        39.0004
  -9827898.73847  -7624372.69144
                  23648936.2194                                   23648931.6524
                                                                        42.7504
        26.0004
 -14070186.17647 -10927750.22745
                  22741173.0634                                   22741168.5164
                                                                        47.0004
        30.5004
 09 10 28  0 38  0.0000000  0  8G02G08G05G10G13G29G16G07
    736670.92647    586603.26245
                  22405117.7734                                   22405112.5044
                                                                        47.2504
        34.5004
   2910472.28147   2309197.67243
                  24416419.1254                                   24416415.9454
                                                                        42.5004
        22.0004
 -21474241.55948 -16686259.19147
                  20747682.9454                                   20747679.1884
                                                                        52.0004
        43.7504
 -18286067.83248 -14220742.01246
                  20446690.7894                                   20446686.9614
                                                                        52.5004
        40.7504
   -566057.37546   -426588.76244
                  22928136.3364                                   22928132.6214
                                                                        41.2504
        26.7504
 -11932076.87148  -9275427.80546
                  22283986.2584                                   22283982.9964
                                                                        49.0004
        38.7504
  -9903826.22347  -7683536.95344
                  23634487.8524                                   23634483.5554
                                                                        42.0004
        26.0004
 -14201394.34447 -11029990.35545
                  22716205.0084                                   22716200.4964
                                                                        46.2504
        31.0004
 09 10 28  0 38 30.0000000  0  8G02G08G05G10G13G29G16G07
    748074.44147    595489.09445
                  22407288.2734                                   22407282.4884
                                                                        47.0004
        34.5004
   2720225.82847   2160953.69143
                  24380216.2664                                   24380213.0124
                                                                        43.7504
        22.0004
 -21590809.02748 -16777090.97347
                  20725501.2584                                   20725497.4264
                                                                        51.2504
        43.5004
 -18376742.39548 -14291397.51647
                  20429435.9224                                   20429432.5204
                                                                        51.7504
        42.0004
   -557829.69946   -420177.55544
                  22929702.6414                                   22929698.4104
                                                                        41.5004
        27.0004
 -11981002.68748  -9313551.80146
                  22274676.1414                                   22274672.6174
                                                                        49.5004
        38.5004
  -9979124.44947  -7742210.89144
                  23620159.1884                                   23620154.5084
                                                                        42.5004
        26.5004
 -14332018.50447 -11131775.42245
                  22691348.4064                                   22691344.2734
                                                                        46.2504
        31.7504
 09 10 28  0 39  0.0000000  0  8G02G08G05G10G13G29G16G07
    759838.78148    604656.08645
                  22409526.6414                                   22409521.3054
                                                                        48.5004
        34.5004
   2530215.92247   2012894.00443
                  24344058.8134                                   24344055.2624
                                                                        43.7504
        22.0004
 -21706835.65248 -16867501.34047
                  20703421.9694                                   20703417.8134
                                                                        52.0004
        43.7504
 -18466824.25048 -14361591.15646
                  20412293.8914                                   20412290.8164
                                                                        51.7504
        41.5004
   -549219.58247   -413468.37544
                  22931341.1414                                   22931336.9804
                                                                        43.7504
        27.0004
 -12029335.06648  -9351213.38346
                  22265478.5084                                   22265475.3714
                                                                        50.7504
        38.5004
 -10053793.35247  -7800394.45744
                  23605950.2194                                   23605945.4964
                                                                        42.5004
        25.5004
 -14462055.71947 -11233103.10945
                  22666602.8524                                   22666598.3484
                                                                        46.7504
        32.0004
 09 10 28  0 39 30.0000000  0  8G02G08G05G10G13G29G16G07
    771960.87948    614101.82845
                  22411833.2894                                   22411828.2234
                                                                        48.5004
        35.5004
   2340444.48447   1865020.14543
                  24307946.5394                                   24307943.0824
                                                                        42.2504
        22.5004
 -21822321.28148 -16957490.14547
                  20681445.8834                                   20681442.2544
                                                                        52.0004
        43.5004
 -18556313.84448 -14431323.31246
                  20395264.7344                                   20395261.1524
                                                                        52.5004
        41.2504
   -540230.48847   -406463.88344
                  22933051.7504                                   22933047.4384
                                                                        45.0004
        26.5004
 -12077075.74648  -9388413.86346
                  22256393.3984                                   22256390.3094
                                                                        49.5004
        38.5004
 -10127833.11747  -7858087.77344
                  23591860.6174                                   23591855.9844
                                                                        42.5004
        25.5004
 -14591505.21147 -11333972.84445
                  22641969.5234                                   22641964.8364
                                                                        46.5004
        31.5004
 09 10 28  0 40  0.0000000  0  8G02G08G05G10G13G29G16G07
    784438.73047    623824.83245
                  22414208.1484                                   22414202.7034
                                                                        47.7504
        34.5004
   2150915.10946   1717334.93843
                  24271879.8984                                   24271876.9734
                                                                        40.7504
        20.7504
 -21937265.46948 -17047057.06247
                  20659572.5864                                   20659568.9224
                                                                        51.0004
        43.7504
 -18645211.24648 -14500594.02046
                  20378348.1884                                   20378344.4614
                                                                        51.5004
        41.5004
   -530864.82047   -399165.97744
                  22934833.7814                                   22934829.4884
                                                                        43.5004
        24.7504
 -12124226.71548  -9425154.85946
                  22247420.8754                                   22247417.7774
                                                                        49.2504
        38.2504
 -10201245.08247  -7915291.90244
                  23577891.0704                                   23577886.1414
                                                                        44.0004
        26.2504
 -14720365.23047 -11434383.24645
                  22617448.2274                                   22617443.8874
                                                                        46.2504
        30.0004
 09 10 28  0 40 30.0000000  0  8G02G08G05G10G13G29G16G07
    797270.36347    633823.51245
                  22416650.1724                                   22416644.7464
                                                                        47.7504
        35.2504
   1961630.96146   1569840.83243
                  24235859.9454                                   24235857.6684
                                                                        40.0004
        22.7504
 -22051666.60248 -17136200.78947
                  20637802.6564                                   20637798.9494
                                                                        50.7504
        43.0004
 -18733515.97748 -14569402.89546
                  20361544.1804                                   20361540.1994
                                                                        50.7504
        41.2504
   -521124.62547   -391576.25444
                  22936686.4064                                   22936682.5634
                                                                        42.5004
        24.2504
 -12170788.25048  -9461436.57446
                  22238560.0944                                   22238557.1764
                                                                        49.5004
        37.7504
 -10274028.81647  -7972006.48444
                  23564040.6414                                   23564035.7894
                                                                        43.5004
        25.7504
 -14848633.23047 -11534332.32045
                  22593039.0704                                   22593035.1454
                                                                        46.2504
        31.7504
 09 10 28  0 41  0.0000000  0  8G02G08G05G10G13G29G16G07
    810457.99647    644099.58245
                  22419159.4924                                   22419154.1134
                                                                        46.2504
        34.7504
   1772599.09847   1422543.32043
                  24199888.4534                                   24199886.1414
                                                                        42.0004
        22.7504
 -22165518.45348 -17224916.50447
                  20616137.6094                                   20616134.0164
                                                                        52.2504
        43.7504
 -18821222.87148 -14637745.92646
                  20344854.0864                                   20344850.4774
                                                                        52.2504
        41.5004
   -511008.01246   -383693.20344
                  22938611.9384                                   22938608.0274
                                                                        40.5004
        24.0004
 -12216756.23448  -9497255.77746
                  22229813.1644                                   22229809.7934
                                                                        49.0004
        38.5004
 -10346179.50447  -8028227.78944
                  23550310.6094                                   23550305.9734
                                                                        42.5004
        26.7504
 -14976303.05947 -11633815.28945
                  22568744.6564                                   22568740.0704
                                                                        47.0004
        32.0004
 09 10 28  0 41 30.0000000  0  8G02G08G05G10G13G29G16G07
    823995.52047    654648.27745
                  22421735.7894                                   22421730.3914
                                                                        46.5004
        34.0004
   1583819.16447   1275442.13344
                  24163965.1724                                   24163962.1564
                                                                        43.0004
        24.5004
 -22278825.23848 -17313207.50447
                  20594575.9614                                   20594572.2774
                                                                        52.2504
        43.5004
 -18908336.44148 -14705626.62146
                  20328276.9774                                   20328273.2734
                                                                        51.0004
        41.5004
   -500521.90647   -375522.19143
                  22940607.2274                                   22940602.9144
                                                                        43.2504
        22.5004
 -12262137.10548  -9532617.50446
                  22221177.6254                                   22221173.7304
                                                                        49.5004
        37.2504
 -10417702.85247  -8083960.23044
                  23536700.0554                                   23536695.7934
                                                                        43.5004
        25.0004
 -15103377.11747 -11732834.01245
                  22544563.0634                                   22544558.9494
                                                                        47.5004
        32.7504
 09 10 28  0 42  0.0000000  0  8G02G08G05G10G13G29G16G07
    837880.84047    665467.98445
                  22424378.1094                                   22424372.5554
                                                                        46.5004
        34.2504
   1395294.55947   1128539.90644
                  24128090.0784                                   24128086.7464
                                                                        42.5004
        24.0004
 -22391586.27748 -17401073.24247
                  20573118.2814                                   20573114.3444
                                                                        51.5004
        43.5004
 -18994857.03948 -14773045.26646
                  20311812.6804                                   20311809.3364
                                                                        51.0004
        41.0004
   -489668.89847   -367065.30144
                  22942672.9614                                   22942668.1954
                                                                        43.7504
        24.0004
 -12306932.77048  -9567523.21546
                  22212653.2504                                   22212649.3914
                                                                        49.2504
        38.0004
 -10488599.50047  -8139204.36344
                  23523209.3364                                   23523203.8404
                                                                        44.0004
        25.2504
 -15229853.98847 -11831387.40645
                  22520495.0864                                   22520491.1524
                                                                        47.7504
        32.2504
 09 10 28  0 42 30.0000000  0  8G02G08G05G10G13G29G16G07
    852109.20347    676555.00445
                  22427085.6804                                   22427080.1884
                                                                        46.7504
        34.5004
   1207025.25447    981836.58243
                  24092264.1334                                   24092261.0314
                                                                        43.2504
        22.7504
 -22503801.85548 -17488513.94947
                  20551764.2664                                   20551760.2734
                                                                        51.0004
        43.2504
 -19080786.10948 -14840002.98846
                  20295460.8594                                   20295457.2704
                                                                        51.2504
        41.7504
   -478453.88747   -358326.34444
                  22944806.9384                                   22944803.1174
                                                                        43.2504
        25.0004
 -12351145.17648  -9601974.44146
                  22204239.7274                                   22204236.0904
                                                                        49.7504
        38.2504
 -10558871.14147  -8193961.48044
                  23509836.5234                                   23509832.1524
                                                                        44.0004
        25.0004
 -15355733.85547 -11929475.62545
                  22496541.8134                                   22496537.0474
                                                                        47.2504
        33.0004
 09 10 28  0 43  0.0000000  0  8G02G08G05G10G13G29G16G07
    866679.08247    687908.14545
                  22429858.2344                                   22429852.2934
                                                                        45.0004
        34.0004
   1019015.88747    835335.82843
                  24056486.8204                                   24056483.0824
                                                                        43.5004
        22.0004
 -22615470.89848 -17575528.78947
                  20530514.3834                                   20530510.6884
                                                                        50.2504
        43.7504
 -19166123.37148 -14906499.55147
                  20279221.6334                                   20279217.4574
                                                                        50.7504
        42.0004
   -466878.12546   -349306.27044
                  22947009.7504                                   22947005.8484
                                                                        41.7504
        26.2504
 -12394775.99248  -9635972.45746
                  22195937.6884                                   22195933.4654
                                                                        49.2504
        38.0004
 -10628517.88347  -8248231.66444
                  23496583.7344                                   23496578.4304
                                                                        43.0004
        25.0004
 -15481013.80147 -12027096.34045
                  22472701.5004                                   22472697.4184
                                                                        47.5004
        32.5004
 09 10 28  0 43 30.0000000  0  9G02G08G05G10G13G21G29G16G07
    881588.37947    699525.77345
                  22432694.9844                                   22432690.0164
                                                                        46.0004
        34.2504
    831268.79347    689039.37943
                  24020759.5634                                   24020756.1604
                                                                        42.2504
        21.0004
 -22726593.46948 -17662117.80547
                  20509368.5554                                   20509364.8444
                                                                        51.0004
        43.7504
 -19250868.92648 -14972535.05146
                  20263095.3674                                   20263091.6454
                                                                        50.7504
        41.5004
   -454944.98447   -340007.73444
                  22949280.6414                                   22949277.1294
                                                                        42.2504
        26.0004
   5989464.24056   4707697.03553
                  24713616.9844                                   24713611.9694
                                                                        40.2504
        21.5004
 -12437826.54348  -9669518.34846
                  22187744.6644                                   22187740.9264
                                                                        49.0004
        37.7504
 -10697540.57447  -8302015.57444
                  23483449.0944                                   23483443.8444
                                                                        43.7504
        27.5004
 -15605693.22747 -12124249.13345
                  22448975.6724                                   22448971.6334
                                                                        47.2504
        32.5004
 09 10 28  0 44  0.0000000  0  9G02G08G05G10G13G21G29G16G07
    896828.88747    711401.47745
                  22435595.4304                                   22435590.0234
                                                                        45.0004
        33.7504
    643781.47047    542945.46243
                  23985081.5084                                   23985078.6994
                                                                        42.0004
        22.2504
 -22837173.82048 -17748284.31247
                  20488325.6174                                   20488322.0664
                                                                        51.5004
        43.5004
 -19335028.67648 -15038114.07846
                  20247080.2664                                   20247076.5634
                                                                        52.0004
        41.0004
   -442662.25846   -330436.79744
                  22951617.7424                                   22951613.7234
                                                                        40.5004
        24.5004
   5799180.69146   4559424.19943
                  24677406.7034                                   24677402.1844
                                                                        40.7504
        22.5004
 -12480303.46548  -9702617.23446
                  22179662.3364                                   22179658.2034
                                                                        49.0004
        38.0004
 -10765944.57947  -8355317.40144
                  23470432.3754                                   23470427.7074
                                                                        43.0004
        25.0004
 -15729775.61747 -12220936.71545
                  22425364.0944                                   22425359.4654
                                                                        47.2504
        33.0004
 09 10 28  0 44 30.0000000  0  9G02G08G05G10G13G21G29G16G07
    912399.50447    723534.38745
                  22438558.2274                                   22438552.9804
                                                                        45.5004
        34.0004
    456557.52346    397056.71943
                  23949453.9844                                   23949451.1024
                                                                        41.5004
        22.7504
 -22947210.72748 -17834027.34847
                  20467386.5164                                   20467382.8524
                                                                        50.5004
        44.0004
 -19418602.00448 -15103236.14846
                  20231176.4224                                   20231173.1214
                                                                        50.0004
        41.2504
   -430032.62946   -320595.53943
                  22954020.7424                                   22954017.5234
                                                                        41.0004
        22.7504
   5609027.41846   4411252.86743
                  24641221.8914                                   24641217.0554
                                                                        39.7504
        22.5004
 -12522208.12948  -9735270.20346
                  22171687.5784                                   22171683.8164
                                                                        49.0004
        38.0004
 -10833731.41847  -8408138.31244
                  23457532.7974                                   23457528.0434
                                                                        44.5004
        24.7504
 -15853259.12147 -12317157.62945
                  22401865.3834                                   22401861.1054
                                                                        47.2504
        33.5004
 09 10 28  0 45  0.0000000  0  9G02G08G05G10G13G21G29G16G07
    928299.42647    735923.88345
                  22441583.9064                                   22441578.4104
                                                                        45.2504
        34.7504
    269602.18047    251377.28943
                  23913877.4224                                   23913874.8794
                                                                        43.0004
        23.0004
 -23056701.68448 -17919344.96547
                  20446551.1254                                   20446547.3794
                                                                        51.5004
        43.5004
 -19501587.12548 -15167899.86746
                  20215385.4694                                   20215381.8094
                                                                        51.0004
        41.2504
   -417056.41446   -310484.21943
                  22956490.5234                                   22956486.1914
                                                                        41.7504
        22.5004
   5419008.41846   4263186.18043
                  24605061.6334                                   24605058.0864
                                                                        40.0004
        22.2504
 -12563540.18448  -9767476.99246
                  22163823.0004                                   22163819.3014
                                                                        50.0004
        38.5004
 -10900899.32447  -8460476.94944
                  23444751.1954                                   23444746.1374
                                                                        44.7504
        25.7504
 -15976139.85947 -12412908.85545
                  22378482.0554                                   22378478.1214
                                                                        47.2504
        33.2504
 09 10 28  0 45 30.0000000  0  9G02G08G05G10G13G21G29G16G07
    944530.72747    748571.64145
                  22444672.5944                                   22444666.9884
                                                                        47.0004
        33.5004
     82922.48847    105912.65644
                  23878353.7034                                   23878350.9614
                                                                        44.0004
        25.0004
 -23165640.89148 -18004232.65247
                  20425820.5944                                   20425816.7464
                                                                        50.0004
        43.5004
 -19583979.27048 -15232101.55146
                  20199706.4064                                   20199702.6214
                                                                        49.2504
        41.0004
   -403731.56646   -300101.22343
                  22959026.1954                                   22959021.4964
                                                                        41.0004
        22.7504
   5229132.01446   4115230.61543
                  24568930.0944                                   24568925.5704
                                                                        40.7504
        22.0004
 -12604295.56648  -9799234.44146
                  22156067.1564                                   22156063.6524
                                                                        49.5004
        38.0004
 -10967443.26647  -8512329.36744
                  23432088.2344                                   23432083.6954
                                                                        43.7504
        25.7504
 -16098412.09447 -12508185.91845
                  22355214.3984                                   22355210.1994
                                                                        47.0004
        33.0004
 09 10 28  0 46  0.0000000  0  9G02G08G05G10G13G21G29G16G07
   2536510.27347   1989075.16445
                  22747616.3134                                   22747610.8014
                                                                        45.5004
        33.0004
   1471947.59447   1188269.90644
                  24142676.4614                                   24142673.8164
                                                                        43.5004
        26.5004
 -21698605.00448 -16861087.80147
                  20704987.9694                                   20704984.2624
                                                                        51.5004
        43.2504
 -18090356.71948 -14068239.82446
                  20483933.2344                                   20483929.7034
                                                                        51.0004
        41.0004
   1185357.95747    938150.34043
                  23261420.0314                                   23261415.7894
                                                                        43.0004
        23.0004
   6614824.43046   5194990.99643
                  24832617.8444                                   24832613.4184
                                                                        41.7504
        21.5004
 -11069056.17248  -8602944.01246
                  22448213.1334                                   22448210.0234
                                                                        49.0004
        37.7504
  -9457943.86747  -7336096.07844
                  23719336.2424                                   23719331.5274
                                                                        45.0004
        24.7504
 -14644650.54347 -11375384.69145
                  22631856.0554                                   22631852.1294
                                                                        46.5004
        32.5004
 09 10 28  0 46 30.0000000  0  9G02G08G05G10G13G21G29G16G07
   2553397.39847   2002234.00045
                  22750830.3364                                   22750824.2344
                                                                        46.2504
        33.5004
   1285828.37947   1043241.98044
                  24107259.2344                                   24107255.8954
                                                                        43.0004
        25.5004
 -21806439.74248 -16945114.86747
                  20684468.4144                                   20684464.3284
                                                                        52.5004
        43.5004
 -18171564.67248 -14131518.75046
                  20468479.9924                                   20468476.5824
                                                                        51.2504
        41.0004
   1199371.44547    949069.95344
                  23264086.4144                                   23264082.5514
                                                                        44.0004
        24.7504
   6425236.92647   5047260.51643
                  24796540.9844                                   24796536.0354
                                                                        43.2504
        22.5004
 -11108664.63348  -8633807.75446
                  22440676.0084                                   22440673.0204
                                                                        49.2504
        38.5004
  -9523244.41847  -7386979.62144
                  23706910.3594                                   23706905.8634
                                                                        43.7504
        25.7504
 -14765701.62147 -11469710.21545
                  22608821.5234                                   22608816.7814
                                                                        47.7504
        33.2504
 09 10 28  0 47  0.0000000  0  9G02G08G05G10G13G21G29G16G07
   2570610.40247   2015646.73045
                  22754105.3754                                   22754100.1214
                                                                        45.5004
        33.0004
   1099995.23846    898436.95744
                  24071896.4924                                   24071893.5634
                                                                        41.7504
        25.7504
 -21913720.16848 -17028709.99647
                  20664052.9614                                   20664049.0944
                                                                        52.2504
        43.7504
 -18252179.19148 -14194335.24646
                  20453139.7344                                   20453135.9534
                                                                        51.5004
        41.2504
   1213725.99247    960255.31344
                  23266818.7424                                   23266814.1454
                                                                        42.2504
        26.0004
   6235797.30147   4899645.25843
                  24760492.1414                                   24760486.7894
                                                                        43.5004
        22.7504
 -11147701.07448  -8664225.77346
                  22433247.7974                                   22433244.5594
                                                                        49.5004
        38.0004
  -9587923.36747  -7437378.81644
                  23694602.2664                                   23694597.5314
                                                                        44.5004
        26.0004
 -14886138.55547 -11563557.14145
                  22585901.9694                                   22585898.2704
                                                                        47.5004
        32.2504
 09 10 28  0 47 30.0000000  0  9G02G08G05G10G13G21G29G16G07
   2588148.14547   2029312.47345
                  22757442.6254                                   22757437.5314
                                                                        45.7504
        33.5004
    914452.18846    753857.96543
                  24036588.4614                                   24036585.4774
                                                                        40.7504
        22.7504
 -22020444.01248 -17111871.43047
                  20643744.5084                                   20643740.4924
                                                                        52.5004
        43.7504
 -18332199.19148 -14256688.49646
                  20437912.2504                                   20437908.7894
                                                                        52.5004
        41.0004
   1228421.22346    971706.13344
                  23269614.4454                                   23269610.5554
                                                                        41.5004
        25.0004
   6046510.81346   4752149.28943
                  24724471.1954                                   24724466.8524
                                                                        41.7504
        22.7504
 -11186165.11348  -8694197.76246
                  22425928.2894                                   22425925.3914
                                                                        49.2504
        38.0004
  -9651979.40247  -7487292.60544
                  23682412.5314                                   23682407.6454
                                                                        44.0004
        25.5004
 -15005958.43047 -11656923.27045
                  22563101.1094                                   22563096.6884
                                                                        47.5004
        31.5004
 09 10 28  0 48  0.0000000  0  9G02G08G05G10G13G21G29G16G07
   2606005.44947   2043227.22345
                  22760841.4224                                   22760835.6024
                                                                        45.0004
        33.2504
    729199.98446    609505.62943
                  24001335.7194                                   24001333.2074
                                                                        39.7504
        22.0004
 -22126614.14848 -17194601.40647
                  20623540.8444                                   20623536.8674
                                                                        50.0004
        43.5004
 -18411628.21548 -14318581.25846
                  20422797.5784                                   20422793.9924
                                                                        50.0004
        41.0004
   1243450.52046    983417.26643
                  23272474.3054                                   23272470.5474
                                                                        39.5004
        22.7504
   5857374.37946   4604770.28143
                  24688479.7584                                   24688475.5044
                                                                        41.2504
        22.0004
 -11224062.26248  -8723728.02746
                  22418716.3754                                   22418713.4384
                                                                        49.5004
        38.5004
  -9715417.82847  -7536725.13744
                  23670341.1644                                   23670335.7114
                                                                        44.5004
        25.7504
 -15125163.09447 -11749810.02345
                  22540417.6564                                   22540413.1884
                                                                        46.0004
        31.2504
 09 10 28  0 48 30.0000000  0  9G02G08G05G10G13G21G29G16G07
   2624180.11747   2057389.28545
                  22764299.2894                                   22764294.7854
                                                                        46.0004
        33.7504
    544241.17646    465381.96543
                  23966139.7974                                   23966136.6644
                                                                        41.2504
        22.7504
 -22232228.69148 -17276898.45347
                  20603443.1254                                   20603439.3094
                                                                        50.2504
        44.0004
 -18490465.71548 -14380013.07846
                  20407795.2274                                   20407791.5514
                                                                        51.2504
        41.2504
   1258812.12547    995387.34843
                  23275397.0164                                   23275393.8204
                                                                        42.5004
        23.0004
   5668392.91046   4457512.03943
                  24652517.6804                                   24652513.9804
                                                                        39.2504
        21.2504
 -11261391.84048  -8752816.02346
                  22411613.0864                                   22411609.7974
                                                                        49.0004
        38.2504
  -9778236.98047  -7585675.14544
                  23658386.7034                                   23658381.6724
                                                                        43.5004
        26.5004
 -15243750.55547 -11842215.84845
                  22517851.2584                                   22517846.9454
                                                                        47.0004
        32.2504
 09 10 28  0 49  0.0000000  0  9G02G08G05G10G13G21G29G16G07
   2642672.47347   2071798.87145
                  22767818.6724                                   22767813.3444
                                                                        46.2504
        32.5004
    359581.34446    321491.18044
                  23931000.2274                                   23930996.9064
                                                                        41.7504
        25.5004
 -22337285.13748 -17358760.62147
                  20583451.1644                                   20583447.4024
                                                                        51.0004
        43.5004
 -18568709.57848 -14440982.31246
                  20392905.6884                                   20392902.3014
                                                                        49.7504
        41.5004
   1274506.00847   1007616.35543
                  23278384.0474                                   23278380.3094
                                                                        43.5004
        23.0004
   5479570.16446   4310377.48843
                  24616586.3674                                   24616581.7934
                                                                        40.5004
        23.0004
 -11298154.37148  -8781462.15246
                  22404617.3444                                   22404614.4024
                                                                        48.7504
        37.7504
  -9840436.21947  -7634142.07444
                  23646551.0004                                   23646545.9304
                                                                        44.2504
        26.0004
 -15361717.52047 -11934138.18045
                  22495402.7504                                   22495398.1214
                                                                        47.0004
        32.2504
 09 10 28  0 49 30.0000000  0  9G02G08G05G10G13G21G29G16G07
   2661479.43847   2086453.64845
                  22771397.5554                                   22771391.5204
                                                                        46.5004
        33.0004
    175223.12146    177835.44944
                  23895917.9614                                   23895914.0594
                                                                        41.7504
        25.5004
 -22441783.80148 -17440188.15247
                  20563566.1024                                   20563562.0634
                                                                        51.7504
        43.2504
 -18646361.11748 -14501489.99646
                  20378129.2114                                   20378125.6254
                                                                        51.2504
        41.5004
   1290528.52746   1020101.44143
                  23281433.3284                                   23281429.1174
                                                                        41.5004
        22.7504
   5290906.83646   4163367.13743
                  24580685.7114                                   24580680.6094
                                                                        41.2504
        23.7504
 -11334352.67248  -8809668.63346
                  22397728.9304                                   22397725.7034
                                                                        48.5004
        37.2504
  -9902017.57847  -7682127.55144
                  23634832.2424                                   23634827.3834
                                                                        43.7504
        25.2504
 -15479062.66847 -12025575.93045
                  22473072.7584                                   22473068.4414
                                                                        46.7504
        32.7504
 09 10 28  0 50  0.0000000  0  9G02G08G05G10G13G21G29G16G07
   2680596.87547   2101350.32445
                  22775035.5084                                   22775029.6334
                                                                        46.2504
        32.7504
     -8832.27747     34415.64844
                  23860893.5164                                   23860890.1564
                                                                        42.0004
        26.0004
 -22545725.57448 -17521181.74647
                  20543786.6644                                   20543782.8954
                                                                        51.2504
        43.5004
 -18723422.36748 -14561537.71146
                  20363464.9614                                   20363461.2464
                                                                        50.2504
        41.0004
   1306875.21947   1032839.14843
                  23284544.1724                                   23284539.0904
                                                                        43.2504
        22.5004
   5102403.78547   4016481.66444
                  24544814.1094                                   24544809.9494
                                                                        42.2504
        25.5004
 -11369989.40648  -8837437.52746
                  22390947.6564                                   22390944.2034
                                                                        48.5004
        36.7504
  -9962983.41847  -7729633.40644
                  23623230.7814                                   23623225.4494
                                                                        44.5004
        26.7504
 -15595787.05948 -12116530.02745
                  22450860.5944                                   22450856.0204
                                                                        48.0004
        32.2504
 09 10 28  0 50 30.0000000  0  9G02G08G05G10G13G21G29G16G07
   2700024.03147   2116488.37545
                  22778732.2734                                   22778726.9064
                                                                        45.5004
        31.5004
   -192580.70346   -108764.93044
                  23825926.6954                                   23825924.4734
                                                                        41.2504
        25.0004
 -22649107.96948 -17601739.46147
                  20524113.4144                                   20524109.4844
                                                                        51.2504
        43.7504
 -18799892.22748 -14621124.61346
                  20348913.2034                                   20348909.5204
                                                                        51.0004
        41.0004
   1323544.82847   1045828.48043
                  23287715.9694                                   23287711.1914
                                                                        42.5004
        22.0004
   4914065.25447   3869724.35944
                  24508975.1884                                   24508970.2074
                                                                        42.5004
        24.2504
 -11405064.64548  -8864768.88746
                  22384273.2584                                   22384269.7344
                                                                        49.0004
        37.0004
 -10023332.68747  -7776658.79744
                  23611747.2504                                   23611741.5434
                                                                        45.2504
        24.7504
 -15711887.26647 -12206997.71945
                  22428767.5234                                   22428763.1414
                                                                        47.7504
        31.0004
 09 10 28  0 51  0.0000000  0  9G02G08G05G10G13G21G29G16G07
   2719758.34847   2131865.75845
                  22782487.3364                                   22782482.0664
                                                                        44.7504
        32.0004
   -376018.69146   -251703.52044
                  23791020.0084                                   23791017.0864
                                                                        40.7504
        26.5004
 -22751931.71148 -17681861.85547
                  20504546.9144                                   20504542.7704
                                                                        50.0004
        43.7504
 -18875770.89548 -14680250.83246
                  20334473.8674                                   20334470.2504
                                                                        50.2504
        41.0004
   1340535.15246   1059067.68443
                  23290949.2974                                   23290944.8364
                                                                        40.5004
        22.5004
   4725892.26647   3723096.06643
                  24473166.7664                                   24473161.4384
                                                                        42.5004
        22.5004
 -11439581.03548  -8891664.76646
                  22377704.8674                                   22377701.1484
                                                                        49.2504
        37.7504
 -10083067.11747  -7823205.10244
                  23600379.3674                                   23600374.7034
                                                                        44.2504
        25.0004
 -15827362.16447 -12296978.12145
                  22406793.5944                                   22406788.9104
                                                                        47.2504
        31.7504
 09 10 28  0 51 30.0000000  0  9G02G08G05G10G13G21G29G16G07
   2739794.18447   2147478.07045
                  22786300.1644                                   22786294.7304
                                                                        45.5004
        31.7504
   -559147.39147   -394401.21544
                  23756171.2664                                   23756168.6334
                                                                        42.0004
        25.5004
 -22854198.71948 -17761550.43047
                  20485085.9224                                   20485082.1134
                                                                        50.0004
        44.2504
 -18951061.56248 -14738918.88346
                  20320146.6174                                   20320142.8204
                                                                        51.5004
        41.2504
   1357839.34846   1072551.45343
                  23294241.2734                                   23294237.9184
                                                                        39.7504
        21.7504
   4537883.89546   3576596.00443
                  24437389.3834                                   24437383.7154
                                                                        40.5004
        21.5004
 -11473542.55148  -8918128.28146
                  22371242.3444                                   22371238.9264
                                                                        49.0004
        38.0004
 -10142191.02747  -7869275.68444
                  23589128.4924                                   23589123.4344
                                                                        44.5004
        25.5004
 -15942214.50847 -12386473.51645
                  22384937.9924                                   22384933.3984
                                                                        46.7504
        32.5004
 09 10 28  0 52  0.0000000  0  9G02G08G05G10G13G21G29G16G07
   2760128.59847   2163323.05945
                  22790169.9774                                   22790164.4924
                                                                        46.0004
        31.7504
   -741963.75446   -536855.50844
                  23721382.4694                                   23721379.5984
                                                                        41.5004
        25.5004
 -22955909.30148 -17840805.41447
                  20465731.1644                                   20465727.0354
                                                                        51.0004
        43.5004
 -19025765.77348 -14797129.94546
                  20305930.7504                                   20305927.0824
                                                                        51.0004
        41.5004
   1375455.19546   1086278.02043
                  23297594.6884                                   23297590.3914
                                                                        40.0004
        23.5004
   4350041.87146   3430225.59843
                  24401643.6094                                   24401639.2664
                                                                        39.0004
        19.0004
 -11506952.35248  -8944161.91046
                  22364884.5554                                   22364880.9454
                                                                        49.2504
        38.0004
 -10200705.44547  -7914871.32444
                  23577993.6724                                   23577988.5664
                                                                        44.0004
        26.2504
 -16056442.86347 -12475482.61345
                  22363201.4304                                   22363196.6884
                                                                        47.2504
        32.2504
 09 10 28  0 52 30.0000000  0  9G02G08G05G10G13G21G29G16G07
   2780757.59847   2179397.59445
                  22794095.6254                                   22794089.7974
                                                                        46.0004
        32.0004
   -924466.75847   -679065.57444
                  23686653.8594                                   23686650.3794
                                                                        43.5004
        25.5004
 -23057064.44548 -17919627.59047
                  20446482.0634                                   20446477.6564
                                                                        50.0004
        44.0004
 -19099885.05148 -14854885.20346
                  20291826.4064                                   20291822.8094
                                                                        49.7504
        41.0004
   1393377.44546   1100243.35544
                  23301005.0864                                   23301001.0864
                                                                        40.7504
        25.0004
   4162367.26646   3283985.71543
                  24365931.2814                                   24365926.3554
                                                                        41.7504
        22.7504
 -11539812.84848  -8969767.48046
                  22358631.7814                                   22358627.6994
                                                                        49.7504
        38.2504
 -10258613.05147  -7959994.12544
                  23566974.2034                                   23566968.9614
                                                                        43.7504
        25.0004
 -16170048.29747 -12564006.32845
                  22341582.8204                                   22341578.4694
                                                                        47.5004
        32.5004
 09 10 28  0 53  0.0000000  0  9G02G08G05G10G13G21G29G16G07
   2801680.87547   2195701.39545
                  22798077.1884                                   22798071.3874
                                                                        45.7504
        33.0004
  -1106651.07047   -821027.37544
                  23651985.1884                                   23651981.4774
                                                                        43.5004
        25.7504
 -23157661.54348 -17998014.93047
                  20427338.9924                                   20427335.1214
                                                                        50.5004
        44.0004
 -19173417.78548 -14912183.41846
                  20277833.3754                                   20277830.2304
                                                                        50.2504
        41.2504
   1411606.90646   1114448.10243
                  23304473.8134                                   23304469.3014
                                                                        40.7504
        22.7504
   3974864.46547   3137879.66444
                  24330251.0554                                   24330245.9454
                                                                        43.5004
        26.0004
 -11572124.05148  -8994945.04746
                  22352483.1094                                   22352479.1454
                                                                        49.2504
        38.0004
 -10315911.99647  -8004642.67644
                  23556070.0164                                   23556065.5944
                                                                        43.5004
        25.2504
 -16283026.90247 -12652041.63745
                  22320083.4534                                   22320079.1804
                                                                        47.5004
        32.5004
 09 10 28  0 53 30.0000000  0  9G02G08G05G10G13G21G29G16G07
   2822896.49647   2212233.01645
                  22802114.0234                                   22802108.5554
                                                                        45.2504
        31.5004
  -1288514.07847   -962738.78944
                  23617378.2274                                   23617374.1844
                                                                        44.5004
        25.5004
 -23257700.77348 -18075967.56247
                  20408302.2274                                   20408297.7664
                                                                        50.7504
        43.7504
 -19246365.28548 -14969025.61346
                  20263951.9924                                   20263948.8874
                                                                        51.2504
        41.5004
   1430138.87546   1128888.55543
                  23308000.0164                                   23307995.8594
                                                                        41.5004
        23.0004
   3787533.62547   2991907.60244
                  24294603.1024                                   24294598.5084
                                                                        43.5004
        27.2504
 -11603888.99648  -9019696.95346
                  22346438.0634                                   22346434.6214
                                                                        49.0004
        37.5004
 -10372605.80147  -8048819.65244
                  23545282.0164                                   23545277.4104
                                                                        44.0004
        25.0004
 -16395378.34448 -12739588.20345
                  22298703.7894                                   22298699.1214
                                                                        48.2504
        32.2504
 09 10 28  0 54  0.0000000  0  9G02G08G05G10G13G21G29G16G07
   2844400.65647   2228989.48845
                  22806206.0704                                   22806200.8834
                                                                        45.5004
        32.5004
  -1470053.77047  -1104198.30144
                  23582832.0234                                   23582828.5124
                                                                        44.5004
        26.5004
 -23357182.57848 -18153485.82447
                  20389371.3204                                   20389367.2424
                                                                        50.5004
        43.2504
 -19318728.62148 -15025412.62546
                  20250181.9064                                   20250177.8874
                                                                        51.2504
        41.7504
   1448971.32846   1143563.18043
                  23311583.8754                                   23311579.6604
                                                                        40.7504
        21.7504
   3600377.26647   2846071.49644
                  24258988.5864                                   24258983.8244
                                                                        43.2504
        27.5004
 -11635110.12948  -9044025.09846
                  22340496.6414                                   22340493.3794
                                                                        48.7504
        36.5004
 -10428695.28147  -8092525.75044
                  23534608.7274                                   23534604.0904
                                                                        43.2504
        24.5004
 -16507102.26647 -12826645.74645
                  22277443.3444                                   22277438.9694
                                                                        47.5004
        33.0004
 09 10 28  0 54 30.0000000  0  9G02G08G05G10G13G21G29G16G07
   2866189.25447   2245967.58645
                  22810352.6024                                   22810347.0664
                                                                        46.2504
        31.5004
  -1651268.87547  -1245404.85944
                  23548347.5394                                   23548344.9734
                                                                        43.7504
        26.5004
 -23456107.47348 -18230570.14847
                  20370546.4144                                   20370542.3714
                                                                        49.7504
        43.7504
 -19390509.29748 -15081345.62546
                  20236522.3594                                   20236519.0084
                                                                        49.5004
        41.5004
   1468099.04346   1158467.86343
                  23315223.8364                                   23315219.9024
                                                                        40.0004
        22.7504
   3413396.61747   2700372.30944
                  24223406.4614                                   24223401.7154
                                                                        42.2504
        25.5004
 -11665789.79348  -9067931.31646
                  22334658.6484                                   22334655.2934
                                                                        48.2504
        37.2504
 -10484182.57047  -8135762.60944
                  23524049.7664                                   23524045.1954
                                                                        43.7504
        24.7504
 -16618199.01647 -12913214.62545
                  22256302.0084                                   22256297.6054
                                                                        47.0004
        33.0004
 09 10 28  0 55  0.0000000  0  9G02G08G05G10G13G21G29G16G07
   2888259.85547   2263165.43445
                  22814552.7344                                   22814547.2624
                                                                        45.0004
        32.2504
  -1832156.41447  -1386356.14144
                  23513925.6884                                   23513922.8244
                                                                        44.2504
        25.7504
 -23554475.82848 -18307220.81247
                  20351827.8364                                   20351823.8164
                                                                        51.2504
        43.5004
 -19461708.44148 -15136825.48046
                  20222973.6564                                   20222970.1524
                                                                        50.7504
        41.5004
   1487519.54746   1173600.65643
                  23318919.3524                                   23318914.9804
                                                                        38.5004
        20.7504
   3226592.82046   2554810.92643
                  24187858.7344                                   24187854.3324
                                                                        40.5004
        22.0004
 -11695930.74648  -9091417.75846
                  22328923.2504                                   22328919.1844
                                                                        49.0004
        37.5004
 -10539069.37947  -8178531.57444
                  23513604.8674                                   23513600.8134
                                                                        43.7504
        25.5004
 -16728667.68047 -12999294.09045
                  22235280.6334                                   22235276.3554
                                                                        47.7504
        33.5004
 09 10 28  0 55 30.0000000  0  9G02G08G05G10G13G21G29G16G07
   4486032.12147   3508182.79745
                  23118598.6644                                   23118592.9804
                                                                        45.0004
        31.5004
   -437284.74247   -299443.14844
                  23779360.7114                                   23779358.1604
                                                                        44.0004
        25.7504
 -22076861.21948 -17155832.80947
                  20633008.3524                                   20633004.3634
                                                                        51.5004
        43.5004
 -17956901.59048 -13964248.71546
                  20509329.0234                                   20509325.5664
                                                                        51.5004
        41.5004
   3082652.35246   2416561.31643
                  23622462.5164                                   23622458.9924
                                                                        39.7504
        22.5004
   4615396.49246   3636995.63343
                  24452139.0554                                   24452134.7034
                                                                        39.7504
        22.7504
 -10150111.52048  -7886883.30946
                  22623082.6724                                   22623079.4384
                                                                        48.0004
        37.0004
  -9017932.82847  -6993230.37144
                  23803067.5314                                   23803063.2424
                                                                        43.5004
        26.2504
 -15263080.91448 -11857278.43445
                  22514172.5004                                   22514168.4384
                                                                        48.0004
        33.5004
 09 10 28  0 56  0.0000000  0  9G02G08G05G10G13G21G29G16G07
   4508663.09447   3525817.28145
                  23122905.1644                                   23122899.4694
                                                                        44.2504
        30.2504
   -617504.97347   -439874.46544
                  23745066.3834                                   23745063.2154
                                                                        43.0004
        25.0004
 -22174111.57848 -17231612.30947
                  20614502.1174                                   20614498.3954
                                                                        50.7504
        43.5004
 -18026935.78548 -14018820.82046
                  20496001.9694                                   20495998.2234
                                                                        49.7504
        41.7504
   3102654.33646   2432147.25443
                  23626269.1564                                   23626265.0514
                                                                        41.5004
        21.5004
   4428955.96546   3491717.32843
                  24416660.2194                                   24416655.9224
                                                                        41.5004
        21.7504
 -10179177.34448  -7909531.98446
                  22617551.5944                                   22617548.6764
                                                                        48.0004
        37.0004
  -9071619.66847  -7035064.30144
                  23792851.3134                                   23792847.6684
                                                                        43.7504
        24.2504
 -15372287.17647 -11942374.20345
                  22493391.4614                                   22493387.2974
                                                                        47.7504
        34.0004
 09 10 28  0 56 30.0000000  0  9G02G08G05G10G13G21G29G16G07
   4531571.84447   3543668.23045
                  23127263.9144                                   23127258.6684
                                                                        43.0004
        31.0004
   -797386.16047   -580041.60944
                  23710835.9304                                   23710833.2424
                                                                        42.2504
        25.2504
 -22270801.03148 -17306954.73847
                  20596102.9844                                   20596098.9534
                                                                        51.0004
        43.7504
 -18096386.86748 -14072938.54746
                  20482785.9064                                   20482781.9844
                                                                        50.2504
        41.2504
   3122943.76646   2447957.22343
                  23630130.5864                                   23630126.3404
                                                                        40.5004
        23.2504
   4242702.09047   3346584.41843
                  24381218.8204                                   24381212.8554
                                                                        42.0004
        23.0004
 -10207707.05148  -7931762.91046
                  22612122.9224                                   22612119.5904
                                                                        49.5004
        38.2504
  -9124706.17647  -7076430.41444
                  23782749.2034                                   23782745.6804
                                                                        43.5004
        26.0004
 -15480859.54347 -12026976.07845
                  22472730.8054                                   22472726.7774
                                                                        47.2504
        33.5004
 09 10 28  0 57  0.0000000  0  9G02G08G05G10G13G21G29G16G07
   4554754.91847   3561732.91445
                  23131675.7664                                   23131670.5824
                                                                        44.0004
        30.7504
   -976926.25047   -719942.96144
                  23676670.7584                                   23676668.0274
                                                                        43.7504
        25.2504
 -22366930.72748 -17381860.99247
                  20577809.9534                                   20577805.9144
                                                                        50.7504
        43.2504
 -18165256.56648 -14126603.25046
                  20469680.2664                                   20469676.8134
                                                                        50.5004
        41.5004
   3143517.23446   2463988.51243
                  23634045.4924                                   23634041.4454
                                                                        40.5004
        22.7504
   4056635.53147   3201597.46544
                  24345811.1954                                   24345806.3484
                                                                        44.0004
        24.5004
 -10235703.82448  -7953578.57846
                  22606795.1564                                   22606791.8244
                                                                        48.0004
        37.5004
  -9177195.55147  -7117331.21944
                  23772760.5314                                   23772756.8674
                                                                        43.7504
        26.2504
 -15588797.89147 -12111083.85945
                  22452191.1414                                   22452187.0124
                                                                        47.5004
        33.5004
 09 10 28  0 57 30.0000000  0  9G02G08G05G10G13G21G29G16G07
   4578207.50847   3580007.64545
                  23136138.8914                                   23136133.5084
                                                                        45.0004
        31.7504
  -1156124.87547   -859578.25044
                  23642569.7814                                   23642566.7624
                                                                        43.5004
        26.5004
 -22462502.46548 -17456332.48447
                  20559623.2664                                   20559619.7194
                                                                        49.5004
        43.5004
 -18233548.00048 -14179817.35946
                  20456684.8444                                   20456681.4804
                                                                        49.7504
        41.2504
   3164369.78546   2480237.18043
                  23638014.1094                                   23638009.9104
                                                                        40.7504
        22.5004
   3870756.35947   3056756.55144
                  24310440.0004                                   24310434.6684
                                                                        44.5004
        27.2504
 -10263172.10948  -7974982.44546
                  22601567.9454                                   22601564.8204
                                                                        48.7504
        37.2504
  -9229091.17647  -7157769.38344
                  23762885.5004                                   23762881.2234
                                                                        44.0004
        24.5004
 -15696104.25447 -12194699.21145
                  22431771.1884                                   22431767.1604
                                                                        47.5004
        34.0004
 09 10 28  0 58  0.0000000  0  9G02G08G05G10G13G21G29G16G07
   4601929.39547   3598492.23445
                  23140652.8674                                   23140647.3054
                                                                        43.2504
        30.2504
  -1334976.94147   -998943.52044
                  23608535.7734                                   23608532.7734
                                                                        43.5004
        27.5004
 -22557513.87148 -17530367.33247
                  20541543.1024                                   20541539.7624
                                                                        50.2504
        43.5004
 -18301259.32048 -14232579.42246
                  20443799.7584                                   20443796.7344
                                                                        49.7504
        41.2504
   3185500.17246   2496702.40243
                  23642034.6094                                   23642030.4884
                                                                        40.5004
        21.5004
   3685068.10947   2912064.41844
                  24275104.3524                                   24275099.5394
                                                                        44.2504
        27.7504
 -10290111.86748  -7995974.46146
                  22596441.1484                                   22596437.8204
                                                                        48.0004
        36.7504
  -9280392.63747  -7197744.53144
                  23753123.3134                                   23753119.1334
                                                                        44.5004
        25.7504
 -15802775.06647 -12277819.31245
                  22411472.1884                                   22411467.9454
                                                                        47.7504
        33.2504
 09 10 28  0 58 30.0000000  0 10G02G08G05G10G13G21G29G16G07G15
   4625917.30947   3617184.09844
                  23145218.0234                                   23145212.1524
                                                                        43.7504
        29.7504
  -1513480.25847  -1138037.05144
                  23574567.8444                                   23574564.6844
                                                                        43.0004
        26.5004
 -22651965.04348 -17603965.64847
                  20523569.6884                                   20523565.9924
                                                                        50.5004
        43.2504
 -18368392.00048 -14284890.59846
                  20431024.8984                                   20431021.0314
                                                                        50.0004
        40.7504
   3206905.94546   2513382.20343
                  23646107.5634                                   23646103.8984
                                                                        39.7504
        19.7504
   3499573.91446   2767523.50444
                  24239805.5784                                   24239801.2974
                                                                        41.5004
        26.2504
 -10316525.15648  -8016556.23846
                  22591415.3284                                   22591411.8954
                                                                        49.0004
        36.5004
  -9331100.69947  -7237257.30944
                  23743473.8674                                   23743469.4884
                                                                        44.0004
        26.7504
 -15908809.93748 -12360443.88345
                  22391294.5394                                   22391290.3914
                                                                        48.2504
        33.5004
   9123514.66057   7124868.54354
                  24433062.8754                                   24433060.4694
                                                                        42.0004
        27.2504
 09 10 28  0 59  0.0000000  0 10G02G08G05G10G13G21G29G16G07G15
   4650162.84847   3636076.71944
                  23149831.5084                                   23149825.8134
                                                                        44.5004
        29.0004
  -1691637.68447  -1276861.03144
                  23540665.9534                                   23540662.7034
                                                                        43.5004
        27.7504
 -22745862.44548 -17677132.45747
                  20505701.4384                                   20505697.4104
                                                                        51.0004
        43.5004
 -18434952.70748 -14336756.09046
                  20418358.8834                                   20418355.2234
                                                                        51.5004
        41.5004
   3228579.05146   2530270.38343
                  23650231.6094                                   23650227.9024
                                                                        40.5004
        20.2504
   3314268.21946   2623129.50844
                  24204542.4534                                   24204538.8244
                                                                        40.2504
        25.2504
 -10342421.08248  -8036734.88346
                  22586487.9534                                   22586484.2384
                                                                        48.7504
        36.5004
  -9381224.44947  -7276314.79344
                  23733935.9454                                   23733931.5944
                                                                        44.5004
        27.0004
 -16014214.43048 -12442577.24645
                  22371236.9144                                   22371232.8014
                                                                        48.0004
        33.5004
   8923075.08647   6968681.95744
                  24394920.3984                                   24394918.2504
                                                                        42.2504
        27.2504
 09 10 28  0 59 30.0000000  0 10G02G08G05G10G13G21G29G16G07G15
   4674664.22747   3655168.68045
                  23154494.0864                                   23154488.7114
                                                                        44.0004
        30.5004
  -1869446.21547  -1415413.04744
                  23506829.2504                                   23506827.0824
                                                                        42.0004
        28.0004
 -22839204.77048 -17749866.73047
                  20487939.1724                                   20487935.2624
                                                                        50.5004
        43.7504
 -18500941.74648 -14388176.11746
                  20405801.6804                                   20405798.3484
                                                                        51.0004
        41.2504
   3250515.36346   2547363.61743
                  23654406.6884                                   23654402.2274
                                                                        40.5004
        22.5004
   3129154.73446   2478885.27744
                  24169316.8284                                   24169312.7114
                                                                        39.2504
        24.0004
 -10367800.27048  -8056510.86746
                  22581657.8834                                   22581654.2814
                                                                        48.2504
        36.5004
  -9430763.71547  -7314916.80944
                  23724508.5394                                   23724503.9574
                                                                        44.7504
        25.2504
 -16118987.68748 -12524218.77745
                  22351299.3984                                   22351295.1094
                                                                        48.2504
        33.5004
   8722769.82047   6812600.01644
                  24356804.7034                                   24356800.6764
                                                                        44.2504
        28.5004
 09 10 28  1  0  0.0000000  0 10G02G08G05G10G13G21G29G16G07G15
   4699420.53947   3674459.28545
                  23159205.1414                                   23159199.7344
                                                                        43.7504
        31.0004
  -2046901.13347  -1553689.56244
                  23473060.8364                                   23473058.2774
                                                                        42.5004
        28.7504
 -22931990.52348 -17822167.33247
                  20470282.4614                                   20470278.6484
                                                                        50.5004
        43.7504
 -18566357.79748 -14439149.66046
                  20393353.1954                                   20393349.8524
                                                                        51.2504
        41.5004
   3272714.88346   2564661.96943
                  23658631.0784                                   23658627.1764
                                                                        41.0004
        22.7504
   2944236.86747   2334793.45743
                  24134128.1484                                   24134123.5274
                                                                        42.0004
        22.5004
 -10392663.69148  -8075884.94946
                  22576926.7734                                   22576922.6684
                                                                        48.5004
        36.5004
  -9479718.12547  -7353063.10244
                  23715193.0944                                   23715188.6174
                                                                        45.0004
        26.0004
 -16223126.52748 -12605365.94145
                  22331482.1174                                   22331478.0234
                                                                        48.0004
        33.2504
   8522601.73047   6656624.85544
                  24318713.4064                                   24318709.8164
                                                                        45.5004
        27.5004
 09 10 28  1  0 30.0000000  0 10G02G08G05G10G13G21G29G16G07G15
   4724433.47747   3693949.86744
                  23163964.5704                                   23163959.1134
                                                                        44.5004
        29.7504
  -2223995.73447  -1691685.32844
                  23439360.6174                                   23439358.1954
                                                                        42.2504
        27.0004
 -23024215.30548 -17894030.79747
                  20452733.2424                                   20452729.4184
                                                                        50.5004
        43.5004
 -18631198.07848 -14489674.55146
                  20381014.4064                                   20381011.2344
                                                                        50.7504
        40.5004
   3295178.48046   2582166.03543
                  23662905.3134                                   23662902.1954
                                                                        41.2504
        22.5004
   2759520.72747   2190858.80944
                  24098978.7194                                   24098972.7304
                                                                        43.5004
        24.2504
 -10417009.00848  -8094855.32446
                  22572294.0234                                   22572290.6134
                                                                        48.7504
        36.2504
  -9528085.72747  -7390752.14544
                  23705988.8914                                   23705984.5944
                                                                        44.5004
        26.2504
 -16326626.46148 -12686015.25845
                  22311786.7974                                   22311782.6414
                                                                        48.2504
        33.5004
   8322577.65647   6500761.90244
                  24280650.1804                                   24280646.0784
                                                                        45.2504
        26.2504
 09 10 28  1  1  0.0000000  0 10G02G08G05G10G13G21G29G16G07G15
   4749702.39847   3713639.91844
                  23168773.1564                                   23168767.8554
                                                                        44.5004
        29.7504
  -2400724.73847  -1829396.16444
                  23405730.7664                                   23405726.8094
                                                                        43.5004
        26.2504
 -23115877.00448 -17965455.49247
                  20435290.2114                                   20435286.4064
                                                                        50.0004
        43.5004
 -18695461.28948 -14539749.78146
                  20368785.5704                                   20368782.0474
                                                                        50.0004
        41.2504
   3317906.51246   2599876.17543
                  23667231.0164                                   23667226.8984
                                                                        38.2504
        21.7504
   2575009.62547   2047083.89144
                  24063867.1024                                   24063861.3674
                                                                        44.7504
        24.7504
 -10440837.19948  -8113422.76246
                  22567759.4844                                   22567755.9804
                                                                        48.0004
        36.5004
  -9575866.48047  -7427983.89544
                  23696896.9614                                   23696892.2304
                                                                        44.7504
        25.5004
 -16429484.72348 -12766164.52045
                  22292213.7274                                   22292209.6524
                                                                        48.0004
        33.5004
   8122701.29747   6345013.94544
                  24242614.7814                                   24242611.5204
                                                                        43.2504
        26.5004
 09 10 28  1  1 30.0000000  0 10G02G08G05G10G13G21G29G16G07G15
   4775226.91447   3733529.12545
                  23173630.7894                                   23173625.5234
                                                                        44.7504
        30.5004
  -2577083.93447  -1966818.85544
                  23372170.8054                                   23372167.3054
                                                                        43.7504
        27.0004
 -23206973.51648 -18036439.78947
                  20417955.0864                                   20417951.3714
                                                                        50.0004
        43.5004
 -18759145.72748 -14589374.03146
                  20356666.9144                                   20356663.8714
                                                                        50.2504
        40.7504
   3340897.82446   2617791.44943
                  23671605.9304                                   23671601.7464
                                                                        39.5004
        20.0004
   2390709.55147   1903473.42244
                  24028796.5314                                   24028790.6054
                                                                        44.5004
        25.5004
 -10464147.39847  -8131586.55546
                  22563323.3834                                   22563320.0904
                                                                        47.5004
        36.2504
  -9623058.56647  -7464756.96944
                  23687915.9304                                   23687911.7814
                                                                        44.7504
        24.5004
 -16531698.69148 -12845811.77745
                  22272762.6884                                   22272758.5474
                                                                        48.7504
        34.0004
   7922977.19146   6189384.74644
                  24204608.6094                                   24204606.0824
                                                                        41.2504
        25.2504
 09 10 28  1  2  0.0000000  0 10G02G08G05G10G13G21G29G16G07G15
   4801006.19547   3753616.82044
                  23178535.9454                                   23178530.8834
                                                                        44.2504
        29.7504
  -2753068.43447  -2103949.55944
                  23338681.7664                                   23338678.5234
                                                                        44.0004
        27.5004
 -23297503.31648 -18106982.48447
                  20400728.0474                                   20400724.0314
                                                                        49.7504
        43.5004
 -18822250.88748 -14638546.88346
                  20344658.5944                                   20344655.1454
                                                                        49.5004
        41.5004
   3364150.86346   2635910.67643
                  23676030.5704                                   23676026.6414
                                                                        40.0004
        19.7504
   2206622.71547   1760029.12944
                  23993765.2894                                   23993760.3954
                                                                        43.0004
        25.5004
 -10486940.75448  -8149347.61746
                  22558986.5554                                   22558982.9884
                                                                        48.0004
        36.7504
  -9669662.68047  -7501071.86344
                  23679048.3914                                   23679043.2704
                                                                        45.0004
        26.7504
 -16633265.95748 -12924955.09445
                  22253435.0474                                   22253430.7274
                                                                        48.2504
        34.0004
   7723409.00846   6033877.01244
                  24166631.6094                                   24166629.6804
                                                                        41.5004
        27.5004
 09 10 28  1  2 30.0000000  0 10G02G08G05G10G13G21G29G16G07G15
   4827038.79347   3773901.94544
                  23183490.1804                                   23183484.3794
                                                                        44.5004
        29.7504
  -2928674.83647  -2240785.70744
                  23305264.7974                                   23305262.2304
                                                                        43.5004
        28.0004
 -23387464.87948 -18177082.40647
                  20383608.7504                                   20383604.9414
                                                                        50.5004
        43.2504
 -18884776.69548 -14687268.29346
                  20332759.9614                                   20332756.5474
                                                                        50.0004
        40.7504
   3387664.43446   2654232.91843
                  23680504.8984                                   23680501.1454
                                                                        41.0004
        21.5004
   2022753.16446   1616754.18844
                  23958775.1174                                   23958771.6884
                                                                        41.5004
        26.7504
 -10509217.51648  -8166706.14546
                  22554747.3674                                   22554744.0354
                                                                        48.0004
        37.0004
  -9715679.01247  -7536928.71544
                  23670291.6174                                   23670286.5554
                                                                        44.5004
        25.5004
 -16734185.23047 -13003593.49245
                  22234230.9774                                   22234226.9734
                                                                        47.7504
        33.5004
   7524000.25047   5878493.53545
                  24128686.4384                                   24128683.7114
                                                                        42.2504
        30.2504
 09 10 28  1  3  0.0000000  0 10G02G08G05G10G13G21G29G16G07G15
   4853320.04347   3794380.78544
                  23188490.9064                                   23188485.2974
                                                                        42.2504
        28.7504
  -3103902.15247  -2377326.49644
                  23271921.0704                                   23271917.9884
                                                                        43.2504
        27.5004
 -23476860.48848 -18246741.32447
                  20366596.9694                                   20366593.1294
                                                                        50.2504
        43.5004
 -18946725.68448 -14735540.23046
                  20320971.9614                                   20320968.0634
                                                                        49.7504
        41.2504
   3411433.02046   2672753.89843
                  23685028.7584                                   23685024.4774
                                                                        40.7504
        21.2504
   1839100.37547   1473648.16044
                  23923827.6804                                   23923823.3524
                                                                        43.0004
        26.7504
 -10530983.12548  -8183666.35946
                  22550605.4454                                   22550601.9804
                                                                        48.2504
        37.2504
  -9761111.66847  -7572330.77344
                  23661645.5394                                   23661640.6684
                                                                        45.5004
        25.5004
 -16834457.62548 -13081727.81245
                  22215149.2894                                   22215145.8204
                                                                        48.0004
        33.0004
   7324750.77347   5723234.27044
                  24090770.2194                                   24090767.1564
                                                                        43.5004
        29.7504
 09 10 28  1  3 30.0000000  0 10G02G08G05G10G13G21G29G16G07G15
   4879850.55547   3815053.84844
                  23193540.1174                                   23193534.6024
                                                                        43.5004
        29.7504
  -3278744.73047  -2513567.46944
                  23238649.5394                                   23238646.2734
                                                                        44.2504
        27.2504
 -23565686.93448 -18315956.74247
                  20349694.2114                                   20349690.2584
                                                                        48.5004
        43.5004
 -19008095.54348 -14783360.89846
                  20309293.3524                                   20309289.5204
                                                                        48.2504
        41.2504
   3435457.76246   2691474.49643
                  23689600.4694                                   23689594.9104
                                                                        41.5004
        19.0004
   1655670.25447   1330715.62144
                  23888922.4924                                   23888917.7424
                                                                        44.2504
        28.2504
 -10552236.15248  -8200227.16846
                  22546561.0234                                   22546557.4694
                                                                        48.7504
        36.5004
  -9805958.53547  -7607276.35944
                  23653111.6254                                   23653106.6884
                                                                        45.7504
        25.0004
 -16934079.93748 -13159355.61745
                  22196192.3134                                   22196188.0084
                                                                        48.2504
        33.5004
   7125665.98047   5568103.29744
                  24052886.3204                                   24052882.5354
                                                                        44.2504
        29.7504
 09 10 28  1  4  0.0000000  0 10G02G08G05G10G13G21G29G16G07G15
   4906628.93847   3835920.09844
                  23198635.8134                                   23198630.0634
                                                                        43.5004
        28.5004
  -3453198.77347  -2649505.72744
                  23205451.5474                                   23205448.5434
                                                                        43.5004
        27.0004
 -23653942.66848 -18384727.43747
                  20332899.7584                                   20332895.8984
                                                                        49.5004
        43.7504
 -19068886.38348 -14830730.37946
                  20297725.2734                                   20297721.3484
                                                                        48.5004
        41.5004
   3459737.07046   2710393.43843
                  23694220.1174                                   23694215.4924
                                                                        41.0004
        19.5004
   1472466.01647   1187959.08644
                  23854059.8134                                   23854055.1214
                                                                        44.0004
        28.0004
 -10572977.52747  -8216389.27346
                  22542613.7894                                   22542610.6484
                                                                        47.0004
        36.5004
  -9850219.94947  -7641765.75844
                  23644689.0704                                   23644684.0084
                                                                        45.0004
        24.2504
 -17033050.03148 -13236475.17245
                  22177358.6174                                   22177354.8794
                                                                        48.2504
        33.5004
   6926749.21147   5413103.24644
                  24015032.8834                                   24015029.4104
                                                                        43.5004
        27.5004
 09 10 28  1  4 30.0000000  0 10G02G08G05G10G13G21G29G16G07G15
   4933652.39547   3856977.31644
                  23203777.9924                                   23203772.3594
                                                                        43.5004
        28.2504
  -3627261.37547  -2785138.92244
                  23172328.4454                                   23172325.4384
                                                                        42.7504
        27.2504
 -23741628.75448 -18453054.25847
                  20316213.7974                                   20316209.7344
                                                                        51.5004
        44.2504
 -19129099.61348 -14877649.78146
                  20286267.4454                                   20286263.5314
                                                                        50.5004
        41.0004
   3484267.67246   2729508.16443
                  23698887.7274                                   23698884.1374
                                                                        39.0004
        20.7504
   1289488.10547   1045378.87944
                  23819240.4534                                   23819235.3874
                                                                        43.7504
        26.2504
 -10593210.87147  -8232155.50846
                  22538763.8054                                   22538760.2304
                                                                        47.5004
        36.0004
  -9893899.51647  -7675801.78144
                  23636377.2034                                   23636371.8164
                                                                        45.2504
        24.5004
 -17131367.96947 -13313086.53545
                  22158649.6174                                   22158645.1804
                                                                        47.5004
        34.0004
   6728001.44546   5258234.91044
                  23977212.1724                                   23977208.5124
                                                                        41.0004
        24.5004
 09 10 28  1  5  0.0000000  0 10G02G08G05G10G13G21G29G16G07G15
   6536334.24647   5105820.30144
                  23508758.4064                                   23508752.4144
                                                                        43.5004
        28.5004
  -2225507.47747  -1692863.16844
                  23439073.3444                                   23439070.3634
                                                                        43.7504
        28.5004
 -22253325.04348 -17293337.09447
                  20599428.3134                                   20599424.5084
                                                                        49.0004
        43.7504
 -17613316.92248 -13696520.41846
                  20574710.9454                                   20574707.0084
                                                                        49.0004
        41.0004
   5084462.46146   3976413.10243
                  24003394.8204                                   24003391.2624
                                                                        38.0004
        19.5004
   2682163.12547   2130580.20344
                  24084257.6724                                   24084252.0554
                                                                        44.5004
        27.0004
  -9037519.64847  -7019928.58245
                  22834801.4844                                   22834798.4144
                                                                        47.7504
        35.5004
  -8361579.10947  -6481785.88344
                  23927967.6724                                   23927962.4574
                                                                        44.5004
        24.5004
 -15653613.28947 -12161589.38345
                  22439856.6024                                   22439852.3794
                                                                        47.7504
        33.5004
   8104849.19547   6331103.39144
                  24239216.7504                                   24239213.9224
                                                                        42.0004
        26.0004
 09 10 28  1  5 30.0000000  0 10G02G08G05G10G13G21G29G16G07G15
   6563835.31647   5127249.66444
                  23513991.5394                                   23513986.0784
                                                                        44.0004
        29.7504
  -2398784.47747  -1827884.21944
                  23406099.9774                                   23406097.0824
                                                                        44.2504
        29.0004
 -22339875.87148 -17360779.28947
                  20582958.3914                                   20582954.5944
                                                                        51.5004
        43.5004
 -17672381.61748 -13742544.85546
                  20563470.9614                                   20563467.3554
                                                                        51.5004
        41.0004
   5109482.46146   3995909.18443
                  24008155.9454                                   24008152.6214
                                                                        40.0004
        21.7504
   2499642.28147   1988356.17244
                  24049524.7424                                   24049519.6254
                                                                        44.2504
        24.5004
  -9056746.70748  -7034910.68745
                  22831142.8364                                   22831139.3164
                                                                        48.0004
        35.2504
  -8404101.86747  -6514920.51643
                  23919875.9534                                   23919870.8054
                                                                        43.7504
        22.7504
 -15750630.48848 -12237187.20345
                  22421394.8134                                   22421390.3244
                                                                        48.2504
        33.7504
   7906442.43047   6176500.73045
                  24201462.4844                                   24201459.2274
                                                                        44.7504
        30.0004
 09 10 28  1  6  0.0000000  0 10G02G08G05G10G13G21G29G16G07G15
   6591570.34047   5148861.34444
                  23519269.4534                                   23519264.1174
                                                                        42.7504
        28.7504
  -2571665.37947  -1962596.57444
                  23373201.5164                                   23373198.5474
                                                                        43.7504
        28.5004
 -22425860.55548 -17427780.34447
                  20566596.1334                                   20566591.9774
                                                                        50.5004
        43.5004
 -17730874.74248 -13788123.91846
                  20552340.5634                                   20552337.1454
                                                                        50.2504
        40.7504
   5134741.93846   4015591.81343
                  24012963.0704                                   24012959.3444
                                                                        40.0004
        21.5004
   2317350.66447   1846310.74644
                  24014835.7814                                   24014830.4024
                                                                        44.5004
        25.7504
  -9075476.59048  -7049505.41045
                  22827579.2114                                   22827575.4384
                                                                        48.0004
        35.5004
  -8446051.39847  -6547608.48843
                  23911892.8364                                   23911888.3484
                                                                        43.5004
        23.7504
 -15846997.84447 -12312278.62945
                  22403056.7424                                   22403052.9064
                                                                        47.7504
        33.5004
   7708207.59047   6022032.05145
                  24163739.1884                                   24163735.9884
                                                                        45.7504
        30.7504
 09 10 28  1  6 30.0000000  0 10G02G08G05G10G13G21G29G16G07G15
   6619537.25047   5170653.69544
                  23524591.7194                                   23524586.1054
                                                                        45.0004
        29.2504
  -2744147.35547  -2096998.05544
                  23340379.6954                                   23340376.8014
                                                                        43.7504
        28.7504
 -22511278.36348 -17494339.67647
                  20550341.5394                                   20550337.5554
                                                                        49.5004
        43.5004
 -17788796.66448 -13833257.87946
                  20541318.3054                                   20541314.1604
                                                                        49.2504
        41.2504
   5160239.53546   4035460.06343
                  24017814.7664                                   24017810.6884
                                                                        41.7504
        19.7504
   2135292.77047   1704447.44944
                  23980191.4844                                   23980186.6174
                                                                        44.5004
        26.0004
  -9093708.92247  -7063712.41845
                  22824109.2344                                   22824106.1804
                                                                        47.0004
        35.5004
  -8487427.05547  -6579849.28143
                  23904019.3444                                   23904015.4184
                                                                        42.5004
        23.0004
 -15942714.37148 -12386862.91045
                  22384842.3284                                   22384838.7234
                                                                        48.0004
        33.7504
   7510148.16047   5867700.12545
                  24126049.6884                                   24126047.1684
                                                                        45.5004
        30.7504
 09 10 28  1  7  0.0000000  0 10G02G08G05G10G13G21G29G16G07G15
   6647733.14547   5192624.47344
                  23529956.9614                                   23529951.6994
                                                                        44.7504
        29.5004
  -2916227.80547  -2231086.64544
                  23307633.2814                                   23307630.4694
                                                                        43.5004
        27.7504
 -22596130.41848 -17560458.15247
                  20534195.0554                                   20534190.6484
                                                                        50.2504
        43.5004
 -17846149.04348 -13877948.03546
                  20530404.2504                                   20530400.4884
                                                                        51.0004
        41.0004
   5185970.62146   4055510.29343
                  24022711.9304                                   24022707.1764
                                                                        41.2504
        18.5004
   1953467.97747   1562765.80144
                  23945591.0784                                   23945586.3754
                                                                        44.5004
        26.0004
  -9111448.75847  -7077535.66845
                  22820733.6484                                   22820730.1054
                                                                        47.5004
        35.7504
  -8528232.95747  -6611646.12543
                  23896254.6334                                   23896250.0314
                                                                        43.5004
        21.7504
 -16037780.14547 -12460940.11745
                  22366752.4774                                   22366748.2734
                                                                        47.0004
        33.7504
   7312264.75847   5713505.32845
                  24088394.0164                                   24088390.7274
                                                                        44.0004
        30.5004
 09 10 28  1  7 30.0000000  0 10G02G08G05G10G13G21G29G16G07G15
   6676154.20347   5214770.73844
                  23535365.4224                                   23535360.0354
                                                                        44.7504
        27.7504
  -3087905.84847  -2364861.68444
                  23274963.9924                                   23274961.1954
                                                                        43.7504
        28.0004
 -22680417.07048 -17626136.07047
                  20518155.5704                                   20518151.5704
                                                                        49.5004
        43.2504
 -17902933.88348 -13922195.97746
                  20519598.7034                                   20519595.0554
                                                                        49.2504
        41.0004
   5211932.00046   4075739.93843
                  24027651.9224                                   24027647.5824
                                                                        39.5004
        18.5004
   1771879.22747   1421268.11344
                  23911035.8834                                   23911031.6054
                                                                        44.5004
        28.0004
  -9128697.99248  -7090976.62945
                  22817451.3594                                   22817447.2424
                                                                        48.7504
        35.5004
  -8568470.66047  -6643000.22744
                  23888597.3054                                   23888593.3204
                                                                        43.7504
        26.5004
 -16132196.38747 -12534511.21945
                  22348785.6254                                   22348781.0164
                                                                        46.7504
        33.5004
   7114559.42647   5559449.25444
                  24050771.5784                                   24050768.0984
                                                                        44.5004
        29.0004
 09 10 28  1  8  0.0000000  0 10G02G08G05G10G13G21G29G16G07G15
   6704799.62547   5237091.84444
                  23540815.7424                                   23540810.5204
                                                                        43.2504
        26.5004
  -3259176.73447  -2498319.43444
                  23242372.9614                                   23242369.0354
                                                                        44.5004
        28.2504
 -22764137.54348 -17691372.80947
                  20502224.3284                                   20502220.0594
                                                                        51.0004
        43.7504
 -17959150.53548 -13966001.15646
                  20508901.0164                                   20508897.5004
                                                                        51.5004
        41.0004
   5238122.52346   4096148.14843
                  24032635.2974                                   24032631.7664
                                                                        38.2504
        18.5004
   1590529.38747   1279956.54744
                  23876526.7274                                   23876521.8524
                                                                        44.5004
        27.7504
  -9145458.10948  -7104036.44545
                  22814261.7344                                   22814258.4694
                                                                        48.0004
        35.7504
  -8608140.90247  -6673912.10544
                  23881048.4064                                   23881043.5474
                                                                        44.0004
        25.0004
 -16225961.00047 -12607574.56645
                  22330942.2344                                   22330938.3244
                                                                        47.0004
        33.5004
   6917035.17247   5405534.31344
                  24013183.8364                                   24013179.9924
                                                                        42.2504
        26.5004
 09 10 28  1  8 30.0000000  0 10G02G08G05G10G13G21G29G16G07G15
   6733666.29747   5259585.33644
                  23546309.3594                                   23546303.7894
                                                                        43.5004
        25.5004
  -3430038.07447  -2631458.07444
                  23209858.6024                                   23209855.5434
                                                                        43.7504
        27.7504
 -22847292.04748 -17756168.53947
                  20486400.5864                                   20486396.2974
                                                                        50.2504
        43.5004
 -18014800.57448 -14009364.82846
                  20498311.4064                                   20498307.7894
                                                                        50.7504
        41.2504
   5264539.65646   4116732.87943
                  24037662.0634                                   24037658.8134
                                                                        38.5004
        18.2504
   1409420.17647   1138832.49644
                  23842062.1174                                   23842057.4384
                                                                        45.7504
        27.7504
  -9161731.90247  -7116717.30146
                  22811165.4844                                   22811161.7624
                                                                        47.5004
        36.0004
  -8647245.83247  -6704383.49644
                  23873606.7424                                   23873602.9344
                                                                        44.2504
        26.0004
 -16319073.53947 -12680129.80145
                  22313224.1414                                   22313219.7384
                                                                        46.5004
        33.5004
   6719694.05947   5251762.03144
                  23975630.8594                                   23975627.8244
                                                                        42.0004
        27.5004
 09 10 28  1  9  0.0000000  0 10G02G08G05G10G13G21G29G16G07G15
   6762751.20747   5282248.83644
                  23551844.0314                                   23551838.9304
                                                                        43.7504
        28.5004
  -3600488.08647  -2764276.30944
                  23177422.5864                                   23177419.6134
                                                                        43.5004
        28.2504
 -22929880.85248 -17820523.44147
                  20470684.0394                                   20470680.3914
                                                                        50.0004
        43.2504
 -18069885.32848 -14052288.03146
                  20487829.1884                                   20487825.0944
                                                                        50.7504
        41.0004
   5291180.19146   4137491.71543
                  24042732.1644                                   24042728.7704
                                                                        40.5004
        20.7504
   1228554.52347    997898.22344
                  23807645.1884                                   23807640.4454
                                                                        45.7504
        28.0004
  -9177521.61747  -7129020.98046
                  22808160.8754                                   22808156.9184
                                                                        47.5004
        36.2504
  -8685786.77347  -6734415.41444
                  23866273.4774                                   23866268.4964
                                                                        43.7504
        24.2504
 -16411534.61347 -12752177.39545
                  22295629.3134                                   22295624.9774
                                                                        47.0004
        34.0004
   6522537.87147   5098133.85244
                  23938113.6414                                   23938109.9614
                                                                        42.5004
        28.0004
 09 10 28  1  9 30.0000000  0 10G02G08G05G10G13G21G29G16G07G15
   6792052.19547   5305080.65244
                  23557420.0864                                   23557415.1024
                                                                        43.7504
        29.5004
  -3770523.66847  -2896771.53544
                  23145066.2584                                   23145063.6644
                                                                        44.0004
        28.2504
 -23011905.01648 -17884438.36347
                  20455075.7114                                   20455071.5434
                                                                        50.2504
        43.5004
 -18124406.01648 -14094771.65646
                  20477453.8284                                   20477450.4224
                                                                        51.0004
        41.0004
   5318040.53146   4158421.85543
                  24047843.9614                                   24047840.1414
                                                                        41.7504
        21.7504
   1047932.21947    857153.58644
                  23773273.4774                                   23773268.6484
                                                                        45.0004
        27.0004
  -9192830.99647  -7140950.35945
                  22805246.8594                                   22805243.8484
                                                                        46.2504
        35.7504
  -8723768.11747  -6764011.28544
                  23859045.2114                                   23859040.6374
                                                                        45.0004
        24.5004
 -16503344.54747 -12823717.60545
                  22278158.4924                                   22278153.9414
                                                                        47.5004
        33.7504
   6325568.30547   4944651.12545
                  23900631.9304                                   23900628.0234
                                                                        43.5004
        30.0004
 09 10 28  1 10  0.0000000  0 10G02G08G05G10G13G21G29G16G07G15
   6821561.57847   5328074.89544
                  23563035.4384                                   23563030.4224
                                                                        45.5004
        29.7504
  -3940147.47347  -3028945.89144
                  23112788.4454                                   23112785.0044
                                                                        44.0004
        29.0004
 -23093368.72348 -17947916.55547
                  20439573.3594                                   20439569.5664
                                                                        50.0004
        44.0004
 -18178368.53148 -14136820.39146
                  20467185.1024                                   20467181.8204
                                                                        51.2504
        40.5004
   5345113.73846   4179517.89843
                  24052996.0704                                   24052991.5664
                                                                        40.7504
        21.5004
    867552.85247    716598.25044
                  23738948.3674                                   23738943.7704
                                                                        45.0004
        27.5004
  -9207665.83647  -7152509.97345
                  22802423.8674                                   22802421.0824
                                                                        47.5004
        35.5004
  -8761194.26647  -6793174.51644
                  23851923.6174                                   23851918.7074
                                                                        45.5004
        24.7504
 -16594507.57048 -12894753.71945
                  22260810.4534                                   22260806.2234
                                                                        48.0004
        33.5004
   6128783.11347   4791312.07045
                  23863184.3364                                   23863181.2814
                                                                        43.2504
        30.2504
 09 10 28  1 10 30.0000000  0 10G02G08G05G10G13G21G29G16G07G15
   6851279.04347   5351231.33244
                  23568691.2974                                   23568685.6334
                                                                        45.0004
        29.2504
  -4109354.05947  -3160795.16444
                  23080589.2584                                   23080585.6134
                                                                        44.0004
        28.5004
 -23174270.57448 -18010956.96147
                  20424178.4144                                   20424174.0784
                                                                        50.5004
        43.7504
 -18231771.44148 -14178433.08246
                  20457023.1024                                   20457019.3324
                                                                        51.2504
        41.0004
   5372399.28946   4200779.34843
                  24058187.8364                                   24058184.0514
                                                                        39.2504
        19.7504
    687419.32047    576234.47344
                  23704670.2584                                   23704665.7304
                                                                        45.5004
        28.2504
  -9222027.57047  -7163700.93445
                  22799691.3834                                   22799687.9694
                                                                        47.0004
        35.0004
  -8798066.14147  -6821905.84844
                  23844908.0554                                   23844902.6294
                                                                        45.2504
        24.7504
 -16685020.83648 -12965283.53545
                  22243586.4064                                   22243582.2894
                                                                        48.2504
        34.0004
   5932186.12547   4638119.64145
                  23825773.9304                                   23825769.8554
                                                                        43.5004
        30.5004
 09 10 28  1 11  0.0000000  0 10G02G08G05G10G13G21G29G16G07G15
   6881206.21947   5374551.18044
                  23574385.4224                                   23574380.5164
                                                                        43.5004
        27.0004
  -4278137.03147  -3292314.39544
                  23048470.4534                                   23048467.6764
                                                                        44.5004
        29.2504
 -23254606.33248 -18073556.25047
                  20408890.8134                                   20408886.7304
                                                                        50.5004
        43.2504
 -18284611.98048 -14219607.49646
                  20446967.5864                                   20446963.6684
                                                                        50.7504
        40.7504
   5399898.35946   4222207.19143
                  24063420.8134                                   24063416.4774
                                                                        38.2504
        18.2504
    507538.49647    436067.60244
                  23670440.1414                                   23670435.3364
                                                                        45.7504
        28.5004
  -9235913.69547  -7174521.28145
                  22797048.5474                                   22797045.1334
                                                                        47.5004
        35.2504
  -8834380.66047  -6850202.90244
                  23837996.7344                                   23837992.3134
                                                                        45.0004
        24.5004
 -16774880.64848 -13035304.16845
                  22226486.6884                                   22226482.3284
                                                                        48.5004
        33.5004
   5735784.03547   4485079.13745
                  23788399.1804                                   23788395.6294
                                                                        44.2504
        31.5004
 09 10 28  1 11 30.0000000  0 10G02G08G05G10G13G21G29G16G07G15
   6911338.47647   5398030.76143
                  23580118.9304                                   23580113.8714
                                                                        42.5004
        23.5004
  -4446495.89147  -3423503.07444
                  23016433.1804                                   23016430.0354
                                                                        44.0004
        28.5004
 -23334378.65648 -18135716.53547
                  20393710.5474                                   20393707.1954
                                                                        49.2504
        43.7504
 -18336893.87148 -14260346.62546
                  20437019.0084                                   20437015.2034
                                                                        50.0004
        40.7504
   5427606.64846   4243798.09842
                  24068692.5394                                   24068689.4024
                                                                        37.2504
        17.2504
    327910.06347    296097.39144
                  23636257.8594                                   23636252.7854
                                                                        46.5004
        28.2504
  -9249329.74647  -7184975.34045
                  22794496.2034                                   22794492.2464
                                                                        47.0004
        34.5004
  -8870142.83247  -6878069.50044
                  23831191.7114                                   23831186.7034
                                                                        45.2504
        26.2504
 -16864089.16047 -13104817.28945
                  22209510.9534                                   22209506.7464
                                                                        47.5004
        34.0004
   5539576.51247   4332190.19945
                  23751062.4844                                   23751059.1914
                                                                        43.7504
        31.2504
 09 10 28  1 12  0.0000000  0 10G02G08G05G10G13G21G29G16G07G15
   6941680.16447   5421673.52743
                  23585892.8364                                   23585887.7814
                                                                        43.2504
        22.7504
  -4614420.76247  -3554353.59044
                  22984477.7584                                   22984474.8794
                                                                        44.2504
        29.5004
 -23413580.22348 -18197432.07047
                  20378639.0784                                   20378635.3834
                                                                        49.5004
        43.5004
 -18388610.34848 -14300645.16446
                  20427177.4454                                   20427173.9844
                                                                        49.7504
        40.2504
   5455528.41046   4265555.23842
                  24074006.5394                                   24074003.0124
                                                                        38.5004
        16.2504
    148544.09847    156331.72344
                  23602125.5784                                   23602120.5634
                                                                        45.2504
        26.7504
  -9262270.18047  -7195058.79345
                  22792032.9224                                   22792029.8674
                                                                        47.0004
        34.7504
  -8905346.72747  -6905501.09844
                  23824492.7504                                   23824487.6214
                                                                        44.7504
        27.0004
 -16952638.68048 -13173816.91445
                  22192660.5474                                   22192656.2584
                                                                        48.2504
        34.0004
   5343572.95347   4179460.20344
                  23713763.9844                                   23713760.2934
                                                                        43.0004
        28.5004
 09 10 28  1 12 30.0000000  0 10G02G08G05G10G13G21G29G16G07G15
   6972222.84447   5445472.96944
                  23591705.8914                                   23591700.1214
                                                                        43.5004
        25.5004
  -4781915.18047  -3684868.67244
                  22952604.5004                                   22952601.3754
                                                                        44.5004
        28.2504
 -23492217.79348 -18258708.09047
                  20363675.0004                                   20363670.9184
                                                                        51.0004
        43.5004
 -18439769.14848 -14340509.17246
                  20417442.1804                                   20417438.7114
                                                                        50.7504
        40.2504
   5483654.57446   4287471.76643
                  24079359.6254                                   24079355.3324
                                                                        40.0004
        18.5004
    -30564.93747     16766.25044
                  23568041.8914                                   23568037.2344
                                                                        44.5004
        27.0004
  -9274744.47347  -7204779.01245
                  22789659.3834                                   22789656.0354
                                                                        47.0004
        34.7504
  -8940001.82047  -6932505.07444
                  23817897.5784                                   23817892.8444
                                                                        45.2504
        26.2504
 -17040535.69547 -13242308.10245
                  22175934.5474                                   22175929.9924
                                                                        47.7504
        33.5004
   5147768.87547   4026885.62544
                  23676503.3674                                   23676500.0274
                                                                        42.7504
        29.5004
 09 10 28  1 13  0.0000000  0 10G02G08G05G10G13G21G29G16G07G15
   7002964.27747   5469427.31344
                  23597556.2424                                   23597550.5984
                                                                        44.5004
        28.0004
  -4948976.40247  -3815046.25444
                  22920813.6174                                   22920810.9184
                                                                        43.7504
        27.5004
 -23570291.23448 -18319544.52747
                  20348818.0474                                   20348813.9804
                                                                        50.5004
        43.0004
 -18490371.10548 -14379939.29346
                  20407812.8674                                   20407809.4614
                                                                        51.5004
        40.7504
   5511983.10246   4309545.95743
                  24084749.9844                                   24084745.4694
                                                                        38.2504
        20.2504
   -209413.34447   -122596.14544
                  23534008.2504                                   23534003.6724
                                                                        44.7504
        28.0004
  -9286753.88347  -7214136.98045
                  22787374.1724                                   22787370.6804
                                                                        46.5004
        35.5004
  -8974108.04747  -6959081.35544
                  23811408.1254                                   23811403.0234
                                                                        43.7504
        24.5004
 -17127779.41847 -13310290.22345
                  22159332.4774                                   22159328.1294
                                                                        47.0004
        33.5004
   4952167.56647   3874469.02745
                  23639282.2114                                   23639278.3364
                                                                        44.0004
        30.7504
 09 10 28  1 13 30.0000000  0 10G02G08G05G10G13G21G29G16G07G15
   7033899.44947   5493532.63744
                  23603442.7344                                   23603437.6294
                                                                        43.7504
        28.5004
  -5115604.16047  -3944886.02744
                  22889105.1564                                   22889102.5704
                                                                        44.7504
        29.2504
 -23647803.34048 -18379943.55947
                  20334068.0704                                   20334063.9694
                                                                        49.7504
        43.0004
 -18540420.10548 -14418938.57446
                  20398288.9614                                   20398285.4304
                                                                        50.5004
        40.5004
   5540508.25846   4331773.33243
                  24090177.5704                                   24090174.1804
                                                                        39.0004
        19.7504
   -388002.20347   -261756.28944
                  23500024.3204                                   23500019.1334
                                                                        45.5004
        28.5004
  -9298304.39847  -7223137.37945
                  22785176.4454                                   22785172.7734
                                                                        46.2504
        34.5004
  -9007671.09047  -6985234.39144
                  23805020.0084                                   23805016.0044
                                                                        43.2504
        24.0004
 -17214372.50447 -13377765.35545
                  22142854.4454                                   22142849.8984
                                                                        47.0004
        34.2504
   4756768.04347   3722209.70745
                  23602098.5704                                   23602095.3094
                                                                        44.5004
        31.0004
 09 10 28  1 14  0.0000000  0  9G02G08G05G10G21G29G16G07G15
   8640446.81347   6745387.69544
                  23909158.4614                                   23909153.6254
                                                                        43.2504
        28.5004
  -3706368.16047  -2846779.99244
                  23157274.7344                                   23157271.3484
                                                                        45.0004
        29.2504
 -22149329.65248 -17212301.71547
                  20619218.0634                                   20619214.1644
                                                                        49.5004
        43.2504
 -17014493.14548 -13229904.56646
                  20688663.4844                                   20688659.7194
                                                                        48.5004
        41.0004
   1009099.18347    826894.14644
                  23765883.9534                                   23765878.9804
                                                                        46.0004
        29.5004
  -7733975.30547  -6004179.64845
                  23082858.2734                                   23082854.6214
                                                                        46.0004
        35.2504
  -7465269.44947  -5783362.98843
                  24098529.7894                                   24098525.4494
                                                                        43.0004
        23.5004
 -15724890.15647 -12217129.77345
                  22426293.3054                                   22426289.1604
                                                                        47.5004
        33.5004
   6137000.94547   4797715.93445
                  23864748.0944                                   23864744.6024
                                                                        44.5004
        30.5004
 09 10 28  1 14 30.0000000  0  9G02G08G05G10G21G29G16G07G15
   8671765.30947   6769791.62544
                  23915117.5084                                   23915113.2464
                                                                        42.0004
        27.0004
  -3872117.54747  -2975935.34045
                  23125733.5314                                   23125730.2894
                                                                        45.5004
        30.0004
 -22225715.99648 -17271823.53547
                  20604682.3134                                   20604678.4534
                                                                        49.0004
        43.5004
 -17063435.29748 -13268041.33646
                  20679349.9384                                   20679346.6604
                                                                        49.5004
        40.2504
    831041.09047    688147.58245
                  23732001.1804                                   23731995.4064
                                                                        46.2504
        30.0004
  -7744610.42647  -6012466.74245
                  23080834.5164                                   23080830.8794
                                                                        45.7504
        35.2504
  -7497747.21547  -5808670.32844
                  24092349.6254                                   24092345.4384
                                                                        43.0004
        24.5004
 -15810178.57448 -12283588.28945
                  22410063.2114                                   22410058.7464
                                                                        48.5004
        33.5004
   5942015.77347   4645779.46945
                  23827643.2734                                   23827640.2194
                                                                        44.0004
        31.0004
 09 10 28  1 15  0.0000000  0  9G02G08G05G10G21G29G16G07G15
   8703278.02746   6794346.89844
                  23921114.3284                                   23921109.6334
                                                                        41.2504
        24.7504
  -4037417.83247  -3104740.74645
                  23094278.2894                                   23094274.4384
                                                                        45.7504
        30.0004
 -22301534.41048 -17330902.81247
                  20590254.5784                                   20590250.7504
                                                                        50.5004
        43.5004
 -17111820.09848 -13305743.75446
                  20670142.4534                                   20670139.1174
                                                                        50.0004
        40.2504
    653255.88347    549613.65244
                  23698169.1644                                   23698164.7544
                                                                        46.2504
        28.7504
  -7754786.82047  -6020396.39845
                  23078897.6644                                   23078893.9924
                                                                        47.2504
        34.5004
  -7529680.98447  -5833553.81643
                  24086272.6024                                   24086268.2934
                                                                        42.5004
        22.5004
 -15894808.64148 -12349533.78545
                  22393959.1724                                   22393954.6884
                                                                        48.2504
        34.0004
   5747246.25047   4494011.07045
                  23790579.6334                                   23790576.4574
                                                                        43.7504
        30.5004
 09 10 28  1 15 30.0000000  0  9G02G08G05G10G21G29G16G07G15
   8734981.88747   6819051.15244
                  23927148.2974                                   23927142.8284
                                                                        43.7504
        24.5004
  -4202266.72347  -3233194.41044
                  23062907.6414                                   23062904.3874
                                                                        45.0004
        29.2504
 -22376784.80148 -17389539.48847
                  20575934.7974                                   20575930.9734
                                                                        50.7504
        43.2504
 -17159648.80948 -13343012.86346
                  20661041.0234                                   20661037.5634
                                                                        50.7504
        40.5004
    475747.94947    411295.80544
                  23664390.5394                                   23664385.6804
                                                                        45.5004
        29.2504
  -7764505.34047  -6027969.26245
                  23077048.3594                                   23077045.4534
                                                                        45.7504
        35.0004
  -7561070.44147  -5858013.15244
                  24080298.9384                                   24080294.5784
                                                                        42.5004
        24.0004
 -15978780.72748 -12414966.58645
                  22377979.5474                                   22377975.1914
                                                                        48.0004
        33.2504
   5552695.35947   4342413.03945
                  23753557.8674                                   23753555.3244
                                                                        43.5004
        31.2504
 09 10 28  1 16  0.0000000  0  9G02G08G05G10G21G29G16G07G15
   8766870.27347   6843899.30144
                  23933216.1484                                   23933210.3164
                                                                        45.5004
        25.7504
  -4366665.88347  -3361297.63745
                  23031623.8284                                   23031620.6334
                                                                        46.0004
        30.0004
 -22451471.89548 -17447737.21147
                  20561722.2814                                   20561717.8364
                                                                        51.2504
        43.2504
 -17206926.59448 -13379852.71146
                  20652044.6094                                   20652041.0314
                                                                        50.7504
        40.0004
    298514.21947    273191.61344
                  23630663.8594                                   23630659.2854
                                                                        44.7504
        27.7504
  -7773773.75047  -6035191.40645
                  23075284.8284                                   23075281.8484
                                                                        45.7504
        35.2504
  -7591923.38347  -5882054.39143
                  24074428.5944                                   24074424.0314
                                                                        42.2504
        22.7504
 -16062098.75448 -12479889.73045
                  22362124.5314                                   22362120.3674
                                                                        48.0004
        33.2504
   5358360.72347   4190983.50045
                  23716577.6954                                   23716574.2344
                                                                        45.0004
        32.5004
 09 10 28  1 16 30.0000000  0  9G02G08G05G10G21G29G16G07G15
   8798939.93447   6868888.60944
                  23939318.7894                                   23939313.0204
                                                                        44.2504
        26.7504
  -4530613.38347  -3489048.92245
                  23000425.7894                                   23000422.3484
                                                                        46.0004
        30.0004
 -22525597.23048 -17505497.25047
                  20547616.7894                                   20547612.7234
                                                                        49.5004
        43.2504
 -17253655.53948 -13416264.85246
                  20643152.0314                                   20643148.3404
                                                                        49.0004
        41.0004
    121555.81347    135301.96144
                  23596989.6094                                   23596984.9694
                                                                        45.5004
        27.7504
  -7782596.17247  -6042066.03145
                  23073606.2274                                   23073603.1294
                                                                        46.5004
        35.0004
  -7622242.86347  -5905679.96943
                  24068658.8364                                   24068653.6134
                                                                        42.5004
        22.7504
 -16144763.70748 -12544304.02045
                  22346394.1174                                   22346389.5084
                                                                        48.0004
        33.5004
   5164243.28947   4039723.21145
                  23679638.2974                                   23679634.5824
                                                                        45.0004
        31.5004
 09 10 28  1 17  0.0000000  0  9G02G08G05G10G21G29G16G07G15
   8831183.22347   6894013.18444
                  23945454.6024                                   23945449.5634
                                                                        42.7504
        27.0004
  -4694111.89847  -3616450.34444
                  22969312.7814                                   22969309.9184
                                                                        44.7504
        29.2504
 -22599166.12548 -17562823.68047
                  20533617.2034                                   20533613.2384
                                                                        51.5004
        43.0004
 -17299842.43448 -13452254.63346
                  20634363.2814                                   20634360.0354
                                                                        51.2504
        40.5004
    -55130.20347     -2375.46944
                  23563367.8594                                   23563362.3554
                                                                        46.0004
        28.7504
  -7790979.84847  -6048598.76645
                  23072010.2114                                   23072006.9924
                                                                        45.5004
        34.0004
  -7652036.32447  -5928895.62143
                  24062988.5634                                   24062984.3444
                                                                        43.0004
        22.7504
 -16226781.42647 -12608213.93445
                  22330786.5474                                   22330782.3794
                                                                        47.0004
        33.5004
   4970340.05947   3888629.82445
                  23642739.8204                                   23642735.9264
                                                                        45.5004
        30.0004
 09 10 28  1 17 30.0000000  0  9G02G08G05G10G21G29G16G07G15
   8863598.46547   6919271.79344
                  23951622.8284                                   23951618.1094
                                                                        42.0004
        25.5004
  -4857158.05947  -3743499.28944
                  22938285.9694                                   22938282.9924
                                                                        44.0004
        29.7504
 -22672177.94948 -17619716.02347
                  20519723.3984                                   20519719.5664
                                                                        50.7504
        43.2504
 -17345487.48848 -13487822.23446
                  20625677.2894                                   20625673.6024
                                                                        50.0004
        40.5004
   -231539.73047   -139837.43444
                  23529798.3984                                   23529792.8364
                                                                        47.0004
        29.0004
  -7798925.86347  -6054790.45345
                  23070498.2274                                   23070495.1134
                                                                        46.0004
        34.2504
  -7681304.16447  -5951701.71943
                  24057420.0704                                   24057415.0394
                                                                        42.0004
        22.5004
 -16308150.81248 -12671618.67245
                  22315302.3524                                   22315298.1454
                                                                        48.0004
        33.0004
   4776654.66047   3737706.17645
                  23605882.6804                                   23605878.0554
                                                                        44.0004
        30.2504
 09 10 28  1 18  0.0000000  0  9G02G08G05G10G21G29G16G07G15
   8896181.86746   6944661.39144
                  23957822.7344                                   23957818.6294
                                                                        40.7504
        25.2504
  -5019750.43747  -3870194.63345
                  22907345.8594                                   22907342.5204
                                                                        44.0004
        31.0004
 -22744634.41048 -17676175.62147
                  20505935.4774                                   20505931.5904
                                                                        51.0004
        43.0004
 -17390593.44548 -13522969.72746
                  20617093.7814                                   20617090.1884
                                                                        49.7504
        40.2504
   -407673.24247   -277084.35244
                  23496280.8284                                   23496275.9064
                                                                        47.0004
        29.0004
  -7806439.20347  -6060645.01245
                  23069068.7344                                   23069065.0554
                                                                        46.2504
        34.0004
  -7710050.76647  -5974101.68743
                  24051949.6024                                   24051944.6884
                                                                        42.7504
        22.5004
 -16388873.20748 -12734519.23845
                  22299941.5314                                   22299937.1644
                                                                        48.5004
        33.5004
   4583187.03547   3586952.19145
                  23569066.6414                                   23569063.1054
                                                                        43.0004
        30.7504
 09 10 28  1 18 30.0000000  0  9G02G08G05G10G21G29G16G07G15
   8928930.08647   6970179.31644
                  23964055.3134                                   23964050.1334
                                                                        43.5004
        26.5004
  -5181887.28147  -3996534.99645
                  22876492.3364                                   22876489.7814
                                                                        45.5004
        30.5004
 -22816536.32448 -17732203.08247
                  20492252.7974                                   20492249.0824
                                                                        51.0004
        43.0004
 -17435161.90648 -13557698.39846
                  20608612.8524                                   20608609.0744
                                                                        50.5004
        41.0004
   -583527.83647   -414113.89844
                  23462817.0784                                   23462812.1414
                                                                        46.7504
        29.0004
  -7813521.64147  -6066163.77745
                  23067720.7974                                   23067717.0664
                                                                        46.7504
        33.5004
  -7738277.66847  -5996096.68443
                  24046577.7504                                   24046573.7304
                                                                        42.5004
        23.7504
 -16468949.44548 -12796916.31645
                  22284703.5474                                   22284699.2974
                                                                        48.0004
        33.2504
   4389939.71547   3436369.91445
                  23532292.7894                                   23532289.5904
                                                                        43.2504
        30.7504
 09 10 28  1 19  0.0000000  0  9G02G08G05G10G21G29G16G07G15
   8961842.20347   6995824.84844
                  23970318.8134                                   23970313.4454
                                                                        44.5004
        28.5004
  -5343564.41447  -4122517.14845
                  22845726.4534                                   22845723.2384
                                                                        46.0004
        31.0004
 -22887883.32048 -17787798.15247
                  20478675.8594                                   20478671.9264
                                                                        50.0004
        43.7504
 -17479192.71148 -13592008.12546
                  20600234.0784                                   20600230.5004
                                                                        50.0004
        41.0004
   -759101.03147   -550924.17244
                  23429406.7584                                   23429401.5904
                                                                        46.5004
        29.5004
  -7820175.34047  -6071348.46545
                  23066455.2664                                   23066450.7894
                                                                        45.7504
        33.5004
  -7765986.53547  -6017688.02343
                  24041305.3754                                   24041300.8674
                                                                        42.5004
        23.5004
 -16548378.48847 -12858809.09445
                  22269589.0864                                   22269584.6024
                                                                        47.7504
        33.5004
   4196915.56347   3285961.55945
                  23495561.6954                                   23495558.5164
                                                                        45.0004
        32.2504
 09 10 28  1 19 30.0000000  0  9G02G08G05G10G21G29G16G07G15
   8994918.29347   7021598.12944
                  23976613.0164                                   23976607.6054
                                                                        43.5004
        25.7504
  -5504776.82047  -4248137.20745
                  22815048.4064                                   22815045.4064
                                                                        45.2504
        30.5004
 -22958672.36348 -17842958.45347
                  20465205.3364                                   20465201.2774
                                                                        50.0004
        43.7504
 -17522684.53148 -13625897.86346
                  20591957.7894                                   20591954.1724
                                                                        51.2504
        40.7504
   -934387.22347   -687510.80944
                  23396050.7114                                   23396045.9884
                                                                        46.2504
        28.7504
  -7826400.03547  -6076198.87545
                  23065269.9774                                   23065266.3324
                                                                        47.2504
        34.0004
  -7793176.44547  -6038874.97743
                  24036131.4454                                   24036126.7584
                                                                        43.0004
        22.5004
 -16627157.91048 -12920195.65245
                  22254597.3054                                   22254593.6644
                                                                        48.5004
        33.0004
   4004119.65247   3135731.01245
                  23458874.1254                                   23458870.5784
                                                                        43.7504
        32.7504
 09 10 28  1 20  0.0000000  0  9G02G08G05G10G21G29G16G07G15
   9028150.35246   7047492.98844
                  23982936.6174                                   23982931.9384
                                                                        41.5004
        24.2504
  -5665528.18447  -4373397.97345
                  22784458.5944                                   22784455.5354
                                                                        45.2504
        30.7504
 -23028910.73848 -17897689.65647
                  20451839.5234                                   20451835.8244
                                                                        51.0004
        43.5004
 -17565644.99248 -13659373.54746
                  20583782.5474                                   20583779.1454
                                                                        51.0004
        40.5004
  -1109391.57447   -823877.83245
                  23362748.2194                                   23362743.5744
                                                                        46.5004
        30.7504
  -7832205.14147  -6080722.32845
                  23064165.7664                                   23064162.1804
                                                                        46.5004
        33.7504
  -7819856.95347  -6059665.00843
                  24031054.0474                                   24031049.5744
                                                                        43.5004
        22.7504
 -16705294.48848 -12981081.29745
                  22239729.0634                                   22239724.2384
                                                                        48.5004
        33.0004
   3811547.94547   2985675.16845
                  23422228.9694                                   23422225.4654
                                                                        45.7504
        31.7504
 09 10 28  1 20 30.0000000  0  9G02G08G05G10G21G29G16G07G15
   9061538.62946   7073509.60244
                  23989290.3914                                   23989285.1564
                                                                        41.5004
        25.2504
  -5825812.43747  -4498294.77745
                  22753957.6564                                   22753954.2464
                                                                        45.0004
        31.2504
 -23098595.05148 -17951989.12547
                  20438579.0234                                   20438574.8794
                                                                        50.0004
        43.5004
 -17608071.94548 -13692433.52046
                  20575709.0554                                   20575705.6684
                                                                        50.2504
        40.5004
  -1284106.82047   -960019.57844
                  23329501.1414                                   23329496.4344
                                                                        46.7504
        29.0004
  -7837588.33247  -6084917.02745
                  23063141.0394                                   23063137.9384
                                                                        45.5004
        33.7504
  -7846024.84847  -6080055.58243
                  24026074.7194                                   24026069.7974
                                                                        42.7504
        22.7504
 -16782784.13748 -13041462.84045
                  22224982.7584                                   22224978.5704
                                                                        48.5004
        33.0004
   3619206.34047   2835798.62545
                  23385627.3364                                   23385623.5864
                                                                        45.0004
        32.0004
