     2.11           OBSERVATION DATA    G (GPS)             RINEX VERSION / TYPE
teqc  2019Feb25                         20221121 12:27:54UTCPGM / RUN BY / DATE
OSX ker:10.11.6|Core i5|gcc 4.3 -m64|OSX ker:10.10+|=+      COMMENT
BIT 2 OF LLI FLAGS DATA COLLECTED UNDER A/S CONDITION       COMMENT
04712740                                                    MARKER NAME
2740                                                        MARKER NUMBER
-Unknown-           -Unknown-                               OBSERVER / AGENCY
0220400471          TRIMBLE R7          2.30                REC # / TYPE / VERS
-Unknown-           TRM39105.00     NONE                    ANT # / TYPE
  1449461.5386 -1709239.1149  5952443.1029                  APPROX POSITION XYZ
        0.0000        0.0000        0.0000                  ANTENNA: DELTA H/E/N
     1     1                                                WAVELENGTH FACT L1/2
    20    L1    L2    L5    L6    L7    L8    C1    P1    C2# / TYPES OF OBSERV
          P2    C5    C6    C7    C8    S1    S2    S5    S6# / TYPES OF OBSERV
          S7    S8                                          # / TYPES OF OBSERV
    30.0000                                                 INTERVAL
    15                                                      LEAP SECONDS
Forced Modulo Decimation to 30 seconds                      COMMENT
 SNR is mapped to RINEX snr flag value [0-9]                COMMENT
  L1 & L2: min(max(int(snr_dBHz/6), 0), 9)                  COMMENT
teqc edited: Beidou # 1 - 37 excluded                       COMMENT
  2009    10     1     0     0    0.0000000     GPS         TIME OF FIRST OBS
                                                            END OF HEADER
 09 10  1  0  0  0.0000000  0  8G23G12G30G02G31G13G04G20
 -32832183.76248 -25545861.13345
                  21865288.7114                                   21865283.2774
                                                                        48.7504
        34.7504
 -33257422.20747 -25878923.98845
                  23616915.5634                                   23616912.3284
                                                                        46.2504
        31.0004
 -25088294.03547 -19513022.40245
                  22682469.0474                                   22682467.1644
                                                                        45.0004
        30.2504
 -35069678.54748 -27314665.20746
                  21118832.7504                                   21118828.1334
                                                                        51.7504
        41.2504
 -18831094.27747 -14642132.36744
                  23785227.2974                                   23785223.8364
                                                                        43.0004
        27.5004
 -19182997.26648 -14935308.83245
                  22351072.7814                                   22351069.9264
                                                                        48.0004
        31.7504
 -46791139.86748 -36418024.01647
                  20656444.8054                                   20656442.3754
                                                                        53.0004
        42.0004
 -43255179.15647 -33666817.00043
                  24021959.5784                                   24021955.8164
                                                                        44.0004
        20.2504
 09 10  1  0  0 30.0000000  0  8G23G12G30G02G31G13G04G20
 -32916196.30148 -25611325.36745
                  21849301.5474                                   21849296.3404
                                                                        48.0004
        34.7504
 -33263875.12147 -25883952.14845
                  23615686.7034                                   23615684.6764
                                                                        46.5004
        31.2504
 -25142526.82047 -19555281.73445
                  22672148.7194                                   22672146.8634
                                                                        45.0004
        30.7504
 -35212449.84448 -27425915.54346
                  21091664.5474                                   21091659.5824
                                                                        50.5004
        41.0004
 -18889760.76246 -14687846.55544
                  23774063.4384                                   23774060.1334
                                                                        40.7504
        28.5004
 -19348789.43748 -15064497.50445
                  22319523.5084                                   22319520.4774
                                                                        48.0004
        31.2504
 -46852026.28148 -36465467.93446
                  20644858.2734                                   20644855.9264
                                                                        51.5004
        41.7504
 -43231656.71147 -33648487.64543
                  24026435.9144                                   24026432.1334
                                                                        42.5004
        19.7504
 09 10  1  0  1  0.0000000  0  8G23G12G30G02G31G13G04G20
 -32999567.93748 -25676290.21145
                  21833436.7274                                   21833431.0204
                                                                        49.5004
        35.0004
 -33269914.77747 -25888658.40245
                  23614537.8674                                   23614535.4184
                                                                        46.7504
        31.5004
 -25196106.78547 -19597032.40245
                  22661952.5394                                   22661950.9414
                                                                        46.0004
        31.5004
 -35354751.31248 -27536799.80146
                  21064585.3284                                   21064580.5744
                                                                        51.0004
        41.5004
 -18947843.33646 -14733105.64544
                  23763010.4304                                   23763007.6954
                                                                        41.5004
        28.0004
 -19514096.20347 -15193307.96545
                  22288066.7814                                   22288063.3954
                                                                        47.7504
        32.5004
 -46912355.17248 -36512477.39847
                  20633377.9144                                   20633375.6764
                                                                        52.7504
        42.0004
 -43207946.32846 -33630011.93043
                  24030947.0234                                   24030943.7934
                                                                        40.2504
        20.7504
 09 10  1  0  1 30.0000000  0  8G23G12G30G02G31G13G04G20
 -33082302.04348 -25740758.25445
                  21817692.8054                                   21817687.2544
                                                                        49.5004
        35.0004
 -33275545.36347 -25893045.78545
                  23613466.3444                                   23613463.4614
                                                                        46.5004
        31.5004
 -25249037.16047 -19638276.84045
                  22651880.2664                                   22651878.2344
                                                                        45.5004
        30.0004
 -35496583.52048 -27647318.39146
                  21037595.4774                                   21037590.4804
                                                                        52.0004
        41.2504
 -19005346.58647 -14777913.41044
                  23752067.9924                                   23752064.4104
                                                                        42.0004
        28.2504
 -19678917.41448 -15321740.05945
                  22256702.5474                                   22256699.2704
                                                                        48.5004
        32.7504
 -46972130.23048 -36559055.36347
                  20622003.3134                                   20622001.0704
                                                                        52.5004
        42.0004
 -43184053.46146 -33611394.23443
                  24035493.6414                                   24035491.3594
                                                                        37.5004
        19.0004
 09 10  1  0  2  0.0000000  0  8G23G12G30G02G31G13G04G20
 -33164396.04748 -25804727.60245
                  21802070.5784                                   21802065.1414
                                                                        50.5004
        34.7504
 -33280767.79347 -25897115.17245
                  23612472.8524                                   23612470.0784
                                                                        46.5004
        31.5004
 -25301316.98447 -19679014.33245
                  22641931.9384                                   22641930.0474
                                                                        46.0004
        31.0004
 -35637941.99648 -27757467.88346
                  21010695.8054                                   21010690.9774
                                                                        52.2504
        41.2504
 -19062268.92246 -14822268.44944
                  23741236.3754                                   23741232.2464
                                                                        40.7504
        27.7504
 -19843247.79348 -15449789.67645
                  22225431.5784                                   22225428.0474
                                                                        49.0004
        31.5004
 -47031349.32848 -36605200.16047
                  20610734.3984                                   20610731.5784
                                                                        51.7504
        42.0004
 -43159977.82446 -33592634.11343
                  24040075.1804                                   24040072.3284
                                                                        39.5004
        20.7504
 09 10  1  0  2 30.0000000  0  8G23G12G30G02G31G13G04G20
 -33245851.58648 -25868199.42645
                  21786570.5234                                   21786564.9534
                                                                        50.5004
        35.2504
 -33285587.13347 -25900870.52045
                  23611555.6804                                   23611552.4414
                                                                        46.5004
        31.2504
 -25352950.16447 -19719247.92644
                  22632105.8754                                   22632104.8554
                                                                        45.2504
        29.0004
 -35778827.34048 -27867248.66446
                  20983886.3444                                   20983881.1484
                                                                        52.7504
        41.7504
 -19118613.14546 -14866173.01244
                  23730513.7894                                   23730510.6294
                                                                        40.7504
        27.0004
 -20007086.91848 -15577456.49245
                  22194253.7114                                   22194250.4654
                                                                        48.7504
        31.5004
 -47090015.02048 -36650913.55947
                  20599570.7664                                   20599568.0944
                                                                        51.7504
        42.7504
 -43135722.84046 -33573734.09843
                  24044690.5704                                   24044688.1024
                                                                        40.7504
        22.0004
 09 10  1  0  3  0.0000000  0  8G23G12G30G02G31G13G04G20
 -33326665.64148 -25931171.42245
                  21771191.7584                                   21771186.1024
                                                                        49.5004
        34.5004
 -33290001.57047 -25904310.31645
                  23610715.6334                                   23610712.5044
                                                                        46.0004
        31.0004
 -25403933.80147 -19758975.40244
                  22622404.8674                                   22622402.8554
                                                                        45.5004
        29.2504
 -35919233.96548 -27976656.39846
                  20957167.8984                                   20957162.9574
                                                                        52.2504
        41.7504
 -19174376.26647 -14909624.71144
                  23719902.7194                                   23719899.0274
                                                                        44.0004
        27.2504
 -20170429.02348 -15704736.11745
                  22163170.7584                                   22163167.2344
                                                                        49.2504
        32.0004
 -47148124.61748 -36696193.64547
                  20588512.5474                                   20588510.0594
                                                                        52.5004
        42.0004
 -43111287.80946 -33554693.77043
                  24049341.2424                                   24049337.8594
                                                                        40.5004
        21.5004
 09 10  1  0  3 30.0000000  0  8G23G12G30G02G31G13G04G20
 -33406839.69948 -25993644.72745
                  21755935.1174                                   21755929.1524
                                                                        50.0004
        34.2504
 -33294016.61747 -25907438.96145
                  23609951.5394                                   23609948.3794
                                                                        46.0004
        31.2504
 -25454272.23447 -19798200.13744
                  22612824.8204                                   22612823.3594
                                                                        45.5004
        29.5004
 -36059162.37948 -28085691.52047
                  20930540.3054                                   20930535.6884
                                                                        52.0004
        42.0004
 -19229562.11347 -14952626.59844
                  23709401.0314                                   23709397.7074
                                                                        43.5004
        26.5004
 -20333272.00848 -15831626.72345
                  22132183.0394                                   22132179.5124
                                                                        48.5004
        32.5004
 -47205680.88748 -36741042.59846
                  20577559.9384                                   20577557.3794
                                                                        51.7504
        41.0004
 -43086676.59846 -33535516.20743
                  24054024.7734                                   24054020.4414
                                                                        41.5004
        22.5004
 09 10  1  0  4  0.0000000  0  8G23G12G30G02G31G13G04G20
 -33486374.34048 -26055619.79745
                  21740799.9304                                   21740794.5944
                                                                        50.5004
        34.2504
 -33297633.34847 -25910257.24645
                  23609263.4844                                   23609260.4844
                                                                        46.0004
        31.7504
 -25503965.50047 -19836922.16045
                  22603368.8054                                   22603367.3204
                                                                        45.2504
        30.2504
 -36198609.89548 -28194351.88747
                  20904004.3594                                   20903999.5234
                                                                        53.0004
        42.0004
 -19284171.03947 -14995178.98044
                  23699009.6804                                   23699005.4844
                                                                        42.0004
        26.7504
 -20495613.99648 -15958126.95745
                  22101290.0164                                   22101287.0164
                                                                        49.5004
        32.5004
 -47262684.42248 -36785460.88346
                  20566712.5394                                   20566710.1334
                                                                        52.5004
        41.5004
 -43061891.07846 -33516202.75443
                  24058740.8984                                   24058737.8134
                                                                        40.0004
        19.5004
 09 10  1  0  4 30.0000000  0  8G23G12G30G02G31G13G04G20
 -33565268.50448 -26117095.80545
                  21725787.1094                                   21725781.4964
                                                                        50.5004
        35.0004
 -33300854.25447 -25912767.07845
                  23608650.7274                                   23608647.7114
                                                                        45.7504
        31.2504
 -25553014.81647 -19875142.41445
                  22594035.3204                                   22594033.2384
                                                                        46.5004
        30.0004
 -36337574.30948 -28302635.77047
                  20877560.2814                                   20877555.9494
                                                                        52.5004
        42.2504
 -19338203.85547 -15037282.59444
                  23688727.5474                                   23688723.8914
                                                                        44.0004
        26.5004
 -20657451.11348 -16084233.67645
                  22070493.5864                                   22070490.3914
                                                                        49.0004
        32.7504
 -47319135.00048 -36829448.31247
                  20555970.3594                                   20555967.9414
                                                                        52.5004
        42.0004
 -43036933.08246 -33496754.98842
                  24063489.5164                                   24063486.7304
                                                                        38.2504
        17.2504
 09 10  1  0  5  0.0000000  0  8G23G12G30G02G31G13G04G20
 -33643521.00848 -26178071.81645
                  21710896.3364                                   21710890.7664
                                                                        50.0004
        34.7504
 -33303680.94147 -25914969.73045
                  23608112.1254                                   23608109.8134
                                                                        46.0004
        31.5004
 -25601420.33247 -19912860.98845
                  22584823.9304                                   22584821.9024
                                                                        46.5004
        30.7504
 -36476052.71948 -28410540.97346
                  20851208.6174                                   20851203.6254
                                                                        52.5004
        41.7504
 -19391659.80547 -15078936.63744
                  23678555.1094                                   23678551.3874
                                                                        44.5004
        28.0004
 -20818779.33648 -16209943.93045
                  22039793.7344                                   22039790.6684
                                                                        48.5004
        32.7504
 -47375031.99648 -36873004.35547
                  20545333.5634                                   20545330.7624
                                                                        53.0004
        42.2504
 -43011802.88346 -33477173.02743
                  24068272.0864                                   24068269.4304
                                                                        38.7504
        19.0004
 09 10  1  0  5 30.0000000  0  8G23G12G30G02G31G13G04G20
 -33721140.16448 -26238554.35245
                  21696126.0474                                   21696120.4694
                                                                        49.5004
        34.5004
 -33306123.54347 -25916873.09845
                  23607647.6804                                   23607644.4654
                                                                        46.2504
        31.0004
 -25649191.09447 -19950084.96545
                  22575733.8834                                   22575731.8484
                                                                        46.5004
        30.0004
 -36614051.18048 -28518072.21547
                  20824948.4924                                   20824943.3834
                                                                        52.2504
        42.0004
 -19444547.72347 -15120148.06644
                  23668491.1334                                   23668486.9454
                                                                        45.2504
        27.7504
 -20979604.44148 -16335262.22345
                  22009189.4064                                   22009186.6484
                                                                        48.7504
        32.2504
 -47430384.33648 -36916136.05146
                  20534800.1094                                   20534796.9804
                                                                        53.0004
        41.5004
 -42986510.78146 -33457464.94543
                  24073084.9304                                   24073082.2344
                                                                        39.2504
        19.7504
 09 10  1  0  6  0.0000000  0  8G23G12G30G02G31G13G04G20
 -33798121.24648 -26298539.66045
                  21681477.0944                                   21681471.7894
                                                                        50.2504
        35.5004
 -33308180.43047 -25918475.89545
                  23607256.7734                                   23607253.4774
                                                                        46.5004
        31.0004
 -25696324.27047 -19986812.10245
                  22566764.3364                                   22566762.2464
                                                                        46.0004
        30.2504
 -36751563.35948 -28625224.53146
                  20798780.4694                                   20798775.5044
                                                                        52.5004
        41.7504
 -19496864.23047 -15160914.18744
                  23658535.9694                                   23658531.3484
                                                                        45.2504
        28.0004
 -21139918.32048 -16460182.13345
                  21978683.1254                                   21978680.2814
                                                                        48.7504
        32.5004
 -47485187.57048 -36958839.85246
                  20524371.5634                                   20524368.8594
                                                                        53.0004
        41.5004
 -42961053.57846 -33437628.18043
                  24077929.4774                                   24077926.3714
                                                                        39.5004
        21.0004
 09 10  1  0  6 30.0000000  0  8G23G12G30G02G31G13G04G20
 -33874465.16448 -26358028.47745
                  21666949.5084                                   21666943.9694
                                                                        49.5004
        34.5004
 -33309854.32447 -25919780.22745
                  23606938.3284                                   23606935.3164
                                                                        46.2504
        30.5004
 -25742821.46947 -20023043.61744
                  22557916.4144                                   22557914.6024
                                                                        45.2504
        29.5004
 -36888587.43448 -28731996.54346
                  20772705.9304                                   20772700.8054
                                                                        52.5004
        41.7504
 -19548610.72347 -15201236.10244
                  23648688.0554                                   23648684.5984
                                                                        45.0004
        28.2504
 -21299719.28148 -16584702.33245
                  21948274.0704                                   21948270.4414
                                                                        48.7504
        33.0004
 -47539443.35548 -37001117.03946
                  20514046.7664                                   20514044.2154
                                                                        52.5004
        41.7504
 -42935434.72346 -33417665.44143
                  24082804.3284                                   24082801.9884
                                                                        40.5004
        21.7504
 09 10  1  0  7  0.0000000  0  8G23G12G30G02G31G13G04G20
 -32374749.93448 -25189419.23445
                  21952336.0164                                   21952330.1174
                                                                        48.7504
        34.7504
 -31735728.08247 -24693188.34045
                  23906483.9924                                   23906481.2074
                                                                        46.0004
        30.7504
 -24213263.40647 -18831180.18745
                  22848982.1564                                   22848979.1054
                                                                        47.0004
        30.7504
 -35449698.33248 -27610784.23446
                  21046517.1644                                   21046512.1954
                                                                        52.0004
        41.7504
 -18024367.21147 -14013513.80144
                  23938742.4224                                   23938738.6844
                                                                        44.5004
        29.2504
 -19883579.67648 -15481216.91845
                  22217756.1644                                   22217753.1844
                                                                        48.7504
        33.2504
 -46017730.95748 -35815367.12546
                  20803619.0474                                   20803616.6294
                                                                        52.5004
        41.5004
 -41334237.48846 -32169979.30143
                  24387502.7424                                   24387500.0434
                                                                        40.0004
        23.5004
 09 10  1  0  7 30.0000000  0  8G23G12G30G02G31G13G04G20
 -32449818.64548 -25247914.40645
                  21938050.5474                                   21938044.9924
                                                                        49.2504
        34.2504
 -31736642.79747 -24693901.09045
                  23906310.2114                                   23906307.1374
                                                                        45.2504
        30.0004
 -24258492.75847 -18866423.89545
                  22840375.2894                                   22840372.2544
                                                                        46.2504
        30.2504
 -35585740.92648 -27716791.40646
                  21020629.2584                                   21020624.3984
                                                                        51.2504
        41.5004
 -18074976.10246 -14052949.25044
                  23929111.7114                                   23929108.0744
                                                                        41.5004
        28.0004
 -20042345.46548 -15604930.55145
                  22187544.2114                                   22187541.1054
                                                                        49.0004
        33.0004
 -46070892.80548 -35856791.91846
                  20793502.6334                                   20793499.8524
                                                                        51.5004
        41.5004
 -41308299.45746 -32149767.93743
                  24392438.5234                                   24392435.3914
                                                                        40.5004
        21.2504
 09 10  1  0  8  0.0000000  0  8G23G12G30G02G31G13G04G20
 -32524250.91848 -25305913.58645
                  21923886.4534                                   21923881.4884
                                                                        48.5004
        34.5004
 -31737183.74247 -24694322.58244
                  23906206.8754                                   23906203.9184
                                                                        45.7504
        29.2504
 -24303092.32847 -18901176.75845
                  22831887.8524                                   22831885.6294
                                                                        47.0004
        30.7504
 -35721291.55548 -27822415.21947
                  20994834.8914                                   20994829.7274
                                                                        52.2504
        42.0004
 -18125019.43046 -14091943.93044
                  23919588.8134                                   23919585.3484
                                                                        41.0004
        27.5004
 -20200590.58648 -15728238.49645
                  22157431.6644                                   22157428.1564
                                                                        49.2504
        32.7504
 -46123510.02748 -35897792.35546
                  20783490.1724                                   20783487.5554
                                                                        52.0004
        41.7504
 -41282205.83246 -32129435.19543
                  24397403.2814                                   24397400.8484
                                                                        38.7504
        18.5004
 09 10  1  0  8 30.0000000  0  8G23G12G30G02G31G13G04G20
 -32598052.76648 -25363421.70345
                  21909842.7814                                   21909837.4924
                                                                        49.7504
        34.5004
 -31737356.84847 -24694457.52045
                  23906173.8524                                   23906171.2114
                                                                        44.2504
        31.5004
 -24347066.78147 -18935442.60945
                  22823519.4304                                   22823517.7424
                                                                        46.7504
        31.0004
 -35856352.06248 -27927657.19146
                  20969133.5864                                   20969128.4454
                                                                        52.2504
        41.7504
 -18174502.13347 -14130501.73044
                  23910172.1094                                   23910168.7234
                                                                        44.2504
        27.0004
 -20358317.41448 -15851142.57445
                  22127416.8284                                   22127413.7624
                                                                        48.7504
        33.0004
 -46175587.84048 -35938372.48447
                  20773580.1254                                   20773577.4844
                                                                        53.0004
        42.0004
 -41255963.62946 -32108986.68842
                  24402397.1254                                   24402394.2814
                                                                        38.0004
        16.2504
 09 10  1  0  9  0.0000000  0  8G23G12G30G02G31G13G04G20
 -32671218.31248 -25420433.93745
                  21895919.9304                                   21895914.4924
                                                                        49.0004
        35.0004
 -31737159.88347 -24694304.05145
                  23906211.9614                                   23906209.0594
                                                                        45.2504
        30.7504
 -24390412.98847 -18969218.91445
                  22815271.1484                                   22815268.9184
                                                                        45.5004
        30.5004
 -35990915.94948 -28032512.25047
                  20943527.0784                                   20943522.4304
                                                                        52.2504
        42.0004
 -18223420.83246 -14168620.12144
                  23900863.2664                                   23900859.6604
                                                                        40.7504
        28.2504
 -20515517.77748 -15973636.44545
                  22097502.8594                                   22097499.3364
                                                                        48.5004
        33.5004
 -46227121.59048 -35978528.64546
                  20763773.3754                                   20763770.7624
                                                                        52.2504
        41.7504
 -41229569.39546 -32088419.71943
                  24407419.5944                                   24407416.9774
                                                                        38.5004
        18.5004
 09 10  1  0  9 30.0000000  0  7G23G12G30G02G31G13G04
 -32743748.35948 -25476950.73445
                  21882117.7034                                   21882112.4384
                                                                        49.0004
        34.5004
 -31736597.38347 -24693865.72745
                  23906319.1644                                   23906316.0314
                                                                        45.7504
        31.0004
 -24433133.86747 -19002507.85944
                  22807142.1024                                   22807139.1414
                                                                        46.5004
        29.7504
 -36124982.43448 -28136979.48847
                  20918015.0084                                   20918010.1134
                                                                        52.2504
        42.2504
 -18271777.71946 -14206300.85944
                  23891661.2424                                   23891657.8634
                                                                        40.0004
        26.2504
 -20672189.88348 -16095718.59845
                  22067689.0554                                   22067686.0204
                                                                        48.2504
        34.0004
 -46278113.58648 -36018262.68446
                  20754069.9694                                   20754067.6604
                                                                        51.2504
        41.7504
 09 10  1  0 10  0.0000000  0  7G23G12G30G02G31G13G04
 -32815646.80547 -25532975.54745
                  21868435.9774                                   21868430.3754
                                                                        47.5004
        34.0004
 -31735673.16447 -24693145.55145
                  23906495.0634                                   23906491.5434
                                                                        45.7504
        31.0004
 -24475232.56047 -19035312.00345
                  22799131.0314                                   22799128.4144
                                                                        44.2504
        30.7504
 -36258552.25448 -28241059.91446
                  20892597.4064                                   20892592.5704
                                                                        51.7504
        41.7504
 -18319575.87547 -14243546.16044
                  23882565.1414                                   23882562.2584
                                                                        44.0004
        27.2504
 -20828333.95348 -16217389.29745
                  22037975.4774                                   22037972.4964
                                                                        48.0004
        33.2504
 -46328566.64548 -36057576.75446
                  20744469.1564                                   20744466.5084
                                                                        52.5004
        41.5004
 09 10  1  0 10 30.0000000  0  7G23G12G30G02G31G13G04
 -32886908.60548 -25588504.31245
                  21854875.3914                                   21854870.0004
                                                                        48.7504
        34.7504
 -31734386.27047 -24692142.77745
                  23906739.3364                                   23906736.3714
                                                                        45.5004
        30.0004
 -24516707.35547 -19067629.95345
                  22791238.1024                                   22791235.6884
                                                                        45.0004
        30.2504
 -36391619.30148 -28344748.52747
                  20867275.5234                                   20867270.7584
                                                                        51.2504
        42.0004
 -18366812.36747 -14280353.78144
                  23873576.6884                                   23873573.1414
                                                                        42.7504
        26.2504
 -20983942.16848 -16338642.42645
                  22008364.5164                                   22008361.1174
                                                                        49.0004
        33.0004
 -46378476.97348 -36096467.84447
                  20734971.6954                                   20734968.9344
                                                                        53.0004
        42.0004
 09 10  1  0 11  0.0000000  0  7G23G12G30G02G31G13G04
 -32957530.62948 -25643534.45745
                  21841436.4304                                   21841430.9494
                                                                        49.5004
        34.0004
 -31732734.60547 -24690855.74644
                  23907053.9924                                   23907050.3634
                                                                        44.0004
        29.5004
 -24557555.55947 -19099459.66045
                  22783464.8674                                   22783462.5124
                                                                        44.7504
        31.0004
 -36524177.64848 -28448040.73847
                  20842050.5634                                   20842045.7234
                                                                        51.2504
        42.5004
 -18413484.47346 -14316721.56644
                  23864695.1094                                   23864691.8244
                                                                        39.5004
        26.2504
 -21139008.82048 -16459473.55145
                  21978856.4844                                   21978852.9064
                                                                        49.2504
        33.0004
 -46427842.04348 -36134934.17246
                  20725577.4614                                   20725574.9064
                                                                        51.2504
        41.2504
 09 10  1  0 11 30.0000000  0  7G23G12G30G02G31G13G04
 -33027514.23048 -25698067.02345
                  21828118.9144                                   21828114.0744
                                                                        48.7504
        34.7504
 -31730723.01247 -24689288.24644
                  23907436.8674                                   23907433.5314
                                                                        45.0004
        29.0004
 -24597780.38347 -19130803.64545
                  22775810.0084                                   22775808.3954
                                                                        45.0004
        30.0004
 -36656227.05948 -28550936.34847
                  20816922.2814                                   20816917.3594
                                                                        51.7504
        42.7504
 -18459594.85947 -14352651.75844
                  23855920.9384                                   23855917.0084
                                                                        43.5004
        27.5004
 -21293532.58648 -16579881.68745
                  21949451.7814                                   21949447.7664
                                                                        49.0004
        33.5004
 -46476663.66448 -36172977.01646
                  20716287.1564                                   20716284.8014
                                                                        53.2504
        41.2504
 09 10  1  0 12  0.0000000  0  7G23G12G30G02G31G13G04
 -33096866.67248 -25752107.87545
                  21814921.7734                                   21814916.4064
                                                                        48.5004
        34.5004
 -31728359.83647 -24687446.84044
                  23907885.9534                                   23907883.5354
                                                                        44.2504
        29.5004
 -24637389.10247 -19161667.53145
                  22768272.7584                                   22768270.9184
                                                                        43.7504
        30.5004
 -36787772.11748 -28653438.98447
                  20791890.3444                                   20791885.4734
                                                                        51.0004
        42.5004
 -18505150.81646 -14388149.94144
                  23847251.3984                                   23847248.4844
                                                                        39.5004
        27.2504
 -21447517.08248 -16699869.57845
                  21920149.0394                                   21920145.7034
                                                                        49.2504
        33.5004
 -46524948.96548 -36210601.89146
                  20707098.6954                                   20707096.1644
                                                                        52.5004
        41.5004
 09 10  1  0 12 30.0000000  0  7G23G12G30G02G31G13G04
 -33165589.51248 -25805658.15645
                  21801844.1334                                   21801838.8874
                                                                        48.7504
        34.5004
 -31725649.74247 -24685335.14845
                  23908401.6254                                   23908399.3794
                                                                        44.7504
        31.0004
 -24676385.83647 -19192054.54745
                  22760851.5084                                   22760850.0944
                                                                        44.7504
        30.0004
 -36918812.38348 -28755548.20347
                  20766953.9304                                   20766949.2774
                                                                        51.2504
        42.2504
 -18550155.41847 -14423218.52044
                  23838687.6024                                   23838684.3204
                                                                        43.0004
        26.0004
 -21600961.19148 -16819436.43745
                  21890949.3914                                   21890946.0554
                                                                        49.5004
        33.5004
 -46572700.53948 -36247810.96546
                  20698011.7814                                   20698009.5394
                                                                        53.2504
        41.7504
 09 10  1  0 13  0.0000000  0  8G29G23G12G30G02G31G13G04
   1326462.06657   1070689.04754
                  24345040.2194                                   24345037.5784
                                                                        42.0004
        27.0004
 -33233686.78148 -25858720.87545
                  21788885.6484                                   21788880.5784
                                                                        49.0004
        34.5004
 -31722599.13347 -24682958.10545
                  23908982.4384                                   23908980.1914
                                                                        44.5004
        30.5004
 -24714776.00447 -19221968.94144
                  22753546.1414                                   22753544.4454
                                                                        44.5004
        29.5004
 -37049350.51648 -28857266.29747
                  20742113.4304                                   20742108.5594
                                                                        51.5004
        42.5004
 -18594613.50447 -14457861.18444
                  23830227.3754                                   23830224.2934
                                                                        42.5004
        27.0004
 -21753865.79348 -16938582.88745
                  21861852.8204                                   21861849.4884
                                                                        49.0004
        34.0004
 -46619922.80548 -36284607.52047
                  20689026.0314                                   20689023.3554
                                                                        53.0004
        42.0004
 09 10  1  0 13 30.0000000  0  8G29G23G12G30G02G31G13G04
   1138968.58646    924590.19544
                  24309361.1484                                   24309359.6374
                                                                        41.7504
        27.0004
 -33301164.12147 -25911300.52745
                  21776045.1724                                   21776039.9574
                                                                        47.0004
        34.5004
 -31719214.64147 -24680320.82845
                  23909626.4064                                   23909623.8554
                                                                        45.2504
        30.5004
 -24752565.89147 -19251415.59845
                  22746355.2114                                   22746353.5084
                                                                        44.2504
        30.5004
 -37179388.94548 -28958594.95347
                  20717368.0474                                   20717363.2464
                                                                        51.0004
        42.5004
 -18638531.27347 -14492082.82844
                  23821870.1174                                   23821867.0634
                                                                        44.5004
        27.2504
 -21906233.27048 -17057310.74245
                  21832858.2584                                   21832854.8204
                                                                        49.2504
        33.7504
 -46666621.18748 -36320995.84846
                  20680139.5554                                   20680136.6844
                                                                        52.5004
        41.7504
 09 10  1  0 14  0.0000000  0  8G29G23G12G30G02G31G13G04
    951698.07046    778665.27744
                  24273724.7344                                   24273723.2154
                                                                        40.5004
        26.2504
 -33368025.84448 -25963400.50045
                  21763321.4064                                   21763315.9574
                                                                        49.0004
        35.0004
 -31715502.62147 -24677428.32845
                  23910333.2814                                   23910330.1764
                                                                        45.0004
        30.2504
 -24789760.12547 -19280398.05145
                  22739277.6884                                   22739275.0704
                                                                        45.5004
        30.5004
 -37308929.61748 -29059535.76647
                  20692717.4144                                   20692712.4804
                                                                        51.7504
        42.2504
 -18681913.71147 -14525887.29744
                  23813614.9454                                   23813611.6644
                                                                        43.7504
        27.2504
 -22058065.30148 -17175621.39845
                  21803965.4774                                   21803962.3554
                                                                        49.7504
        34.7504
 -46712800.58248 -36356979.76246
                  20671351.9774                                   20671349.1054
                                                                        53.0004
        41.2504
 09 10  1  0 14 30.0000000  0  8G29G23G12G30G02G31G13G04
    764654.23046    632917.00044
                  24238131.0944                                   24238129.6414
                                                                        39.0004
        26.2504
 -33434269.19148 -26015018.63345
                  21750715.8674                                   21750710.5434
                                                                        48.0004
        35.0004
 -31711463.93447 -24674281.22745
                  23911101.6954                                   23911098.5314
                                                                        46.0004
        30.2504
 -24826359.26647 -19308916.78944
                  22732312.8834                                   22732310.8134
                                                                        44.0004
        29.5004
 -37437968.77748 -29160085.77347
                  20668162.1174                                   20668157.0634
                                                                        50.7504
        42.2504
 -18724759.41847 -14559273.57444
                  23805461.8364                                   23805458.4264
                                                                        44.2504
        28.0004
 -22209356.05948 -17293510.30945
                  21775175.9924                                   21775172.9574
                                                                        48.5004
        34.0004
 -46758459.43748 -36392558.07846
                  20662663.0944                                   20662660.5904
                                                                        53.5004
        41.2504
 09 10  1  0 15  0.0000000  0  8G29G23G12G30G02G31G13G04
    577842.79346    487349.91444
                  24202581.4224                                   24202580.4064
                                                                        38.5004
        25.2504
 -33499892.89848 -26066153.90245
                  21738227.8204                                   21738222.4304
                                                                        49.0004
        34.0004
 -31707098.80147 -24670879.85244
                  23911931.8984                                   23911928.9454
                                                                        44.5004
        29.5004
 -24862362.20347 -19336970.97345
                  22725461.6094                                   22725459.2154
                                                                        44.5004
        30.2504
 -37566502.19948 -29260241.68047
                  20643702.9454                                   20643697.7584
                                                                        51.5004
        42.7504
 -18767067.73046 -14592241.09444
                  23797410.5634                                   23797407.6564
                                                                        41.5004
        28.7504
 -22360101.44948 -17410974.23045
                  21746489.7894                                   21746486.8714
                                                                        48.7504
        34.7504
 -46803596.13748 -36427729.55546
                  20654074.1724                                   20654071.2974
                                                                        52.0004
        41.7504
 09 10  1  0 15 30.0000000  0  8G29G23G12G30G02G31G13G04
    391270.28546    341968.96944
                  24167078.6414                                   24167075.8284
                                                                        40.2504
        25.5004
 -33564893.91848 -26116804.06245
                  21725858.5394                                   21725853.3484
                                                                        48.0004
        34.5004
 -31702405.67647 -24667222.85244
                  23912825.4144                                   23912821.9734
                                                                        44.5004
        26.7504
 -24897767.37547 -19364559.39545
                  22718724.0704                                   22718721.8594
                                                                        43.7504
        30.0004
 -37694524.26648 -29359999.12947
                  20619341.2424                                   20619335.9024
                                                                        51.0004
        43.0004
 -18808836.39147 -14624788.15244
                  23789462.3834                                   23789458.8874
                                                                        45.0004
        28.5004
 -22510295.05148 -17528008.15645
                  21717909.2114                                   21717905.7934
                                                                        49.5004
        33.2504
 -46848208.02748 -36462492.01246
                  20645584.6334                                   20645582.1604
                                                                        53.5004
        41.5004
 09 10  1  0 16  0.0000000  0  8G29G23G12G30G02G31G13G04
    204940.67247    196777.13344
                  24131621.1024                                   24131618.0044
                                                                        42.2504
        24.7504
 -33629271.14848 -26166968.07445
                  21713608.2274                                   21713602.5164
                                                                        48.5004
        35.2504
 -31697386.03947 -24663311.50444
                  23913779.9534                                   23913776.9844
                                                                        44.0004
        27.7504
 -24932574.55147 -19391681.82845
                  22712101.0394                                   22712098.5124
                                                                        44.7504
        30.0004
 -37822032.49648 -29459356.26247
                  20595077.0314                                   20595072.5434
                                                                        51.7504
        42.5004
 -18850065.13747 -14656914.46944
                  23781617.2034                                   23781613.3484
                                                                        43.7504
        28.2504
 -22659933.24248 -17644609.31645
                  21689433.4224                                   21689430.5594
                                                                        49.0004
        34.0004
 -46892294.57448 -36496845.10946
                  20637195.2814                                   20637192.3714
                                                                        53.0004
        41.7504
 09 10  1  0 16 30.0000000  0  8G29G23G12G30G02G31G13G04
   1594282.45747   1279381.12144
                  24396003.9924                                   24396001.1524
                                                                        42.0004
        25.7504
 -32117602.49248 -24989044.30945
                  22001268.7734                                   22001263.7034
                                                                        48.0004
        34.5004
 -30116623.06247 -23431548.14844
                  24214589.5004                                   24214586.6884
                                                                        43.7504
        29.0004
 -23391365.18747 -18190739.40645
                  23005383.2424                                   23005380.9844
                                                                        45.0004
        30.7504
 -36373600.73848 -28330708.15247
                  20870704.4694                                   20870699.3634
                                                                        51.2504
        42.2504
 -17315334.14546 -13461020.28944
                  24073667.0164                                   24073662.9774
                                                                        41.2504
        28.0004
 -21233587.59448 -16533171.09445
                  21960858.1254                                   21960855.0864
                                                                        49.0004
        34.2504
 -45360435.02748 -35303188.32046
                  20928698.3834                                   20928695.4844
                                                                        52.5004
        41.2504
 09 10  1  0 17  0.0000000  0  8G29G23G12G30G02G31G13G04
   1408448.08246   1134575.18844
                  24360640.4614                                   24360638.6454
                                                                        41.0004
        26.0004
 -32180732.23048 -25038236.22745
                  21989255.7194                                   21989250.5394
                                                                        48.5004
        34.5004
 -30110956.84447 -23427132.87945
                  24215668.3134                                   24215665.0434
                                                                        45.2504
        30.0004
 -23424981.39547 -18216933.81645
                  22998986.1954                                   22998983.0004
                                                                        45.5004
        30.0004
 -36500074.19948 -28429258.89547
                  20846637.4774                                   20846632.4454
                                                                        51.7504
        42.2504
 -17355485.86346 -13492307.53144
                  24066025.8674                                   24066022.2154
                                                                        41.0004
        27.5004
 -21382105.01248 -16648898.90645
                  21932596.6954                                   21932592.8874
                                                                        48.5004
        34.0004
 -45403472.04748 -35336723.61746
                  20920508.4384                                   20920505.9264
                                                                        52.5004
        41.5004
 09 10  1  0 17 30.0000000  0  8G29G23G12G30G02G31G13G04
   1222867.40646    989966.97344
                  24325325.0634                                   24325324.1374
                                                                        40.7504
        25.2504
 -32243237.86748 -25086941.97345
                  21977361.3524                                   21977355.8324
                                                                        48.2504
        35.0004
 -30104970.05547 -23422467.96145
                  24216807.2814                                   24216804.8134
                                                                        45.0004
        31.0004
 -23458003.27747 -18242665.11745
                  22992702.2584                                   22992699.7154
                                                                        45.5004
        30.5004
 -36626026.02048 -28527403.11347
                  20822669.5784                                   20822664.5744
                                                                        52.0004
        42.7504
 -17395099.57847 -13523175.57844
                  24058487.6884                                   24058484.4224
                                                                        42.7504
        26.5004
 -21530057.30548 -16764186.38345
                  21904442.0394                                   21904438.4534
                                                                        48.5004
        34.7504
 -45445984.08249 -35369849.85547
                  20912418.7894                                   20912416.0744
                                                                        54.0004
        42.0004
 09 10  1  0 18  0.0000000  0  8G29G23G12G30G02G31G13G04
   1037542.71546    845558.14144
                  24290058.9614                                   24290058.0904
                                                                        41.2504
        26.2504
 -32305119.62148 -25135161.45745
                  21965585.5164                                   21965580.2974
                                                                        48.0004
        34.5004
 -30098665.02747 -23417555.07045
                  24218007.5084                                   24218004.4844
                                                                        45.2504
        30.7504
 -23490433.02747 -18267935.02044
                  22986530.8444                                   22986528.3984
                                                                        46.0004
        29.5004
 -36751454.85548 -28625139.88747
                  20798800.7734                                   20798796.3244
                                                                        51.0004
        42.0004
 -17434176.37947 -13553625.05944
                  24051052.1724                                   24051048.8054
                                                                        42.7504
        27.0004
 -21677441.69548 -16879031.37945
                  21876396.0394                                   21876392.4694
                                                                        49.0004
        34.5004
 -45487972.48448 -35402568.19546
                  20904428.7664                                   20904426.2074
                                                                        53.2504
        41.5004
 09 10  1  0 18 30.0000000  0  8G29G23G12G30G02G31G13G04
    852476.98847    701351.12544
                  24254842.7344                                   24254840.7704
                                                                        42.2504
        26.2504
 -32366378.32048 -25182895.46945
                  21953928.3834                                   21953922.9344
                                                                        49.2504
        33.7504
 -30092044.19947 -23412395.98845
                  24219267.2194                                   24219264.8954
                                                                        45.0004
        31.0004
 -23522272.73847 -18292745.14844
                  22980472.2664                                   22980469.5434
                                                                        45.2504
        29.2504
 -36876359.31648 -28722468.21147
                  20775032.6564                                   20775027.9304
                                                                        52.0004
        43.0004
 -17472718.60247 -13583658.16844
                  24043717.5944                                   24043714.6374
                                                                        42.0004
        26.5004
 -21824255.92648 -16993432.02745
                  21848457.9924                                   21848454.4224
                                                                        49.0004
        34.0004
 -45529437.87948 -35434878.88746
                  20896538.0864                                   20896535.3984
                                                                        53.0004
        41.2504
 09 10  1  0 19  0.0000000  0  8G29G23G12G30G02G31G13G04
    667668.57047    557344.66844
                  24219675.1414                                   24219673.3134
                                                                        43.2504
        28.2504
 -32427019.25448 -25230148.11745
                  21942388.5634                                   21942383.3094
                                                                        49.2504
        34.5004
 -30085115.29347 -23406996.84844
                  24220585.1724                                   24220582.6174
                                                                        43.5004
        27.7504
 -23553528.68047 -18317100.40244
                  22974524.4144                                   22974521.3134
                                                                        44.5004
        29.2504
 -37000741.90648 -28819389.69547
                  20751363.3914                                   20751358.7154
                                                                        52.0004
        42.5004
 -17510731.32046 -13613278.43744
                  24036483.7504                                   24036480.4964
                                                                        41.5004
        26.2504
 -21970502.23448 -17107390.13345
                  21820628.0944                                   21820624.6374
                                                                        48.7504
        34.7504
 -45570385.91848 -35466786.35546
                  20888745.7894                                   20888743.2074
                                                                        53.0004
        41.2504
 09 10  1  0 19 30.0000000  0  9G29G10G23G12G30G02G31G13G04
    483121.65247    413542.03944
                  24184556.6024                                   24184554.8754
                                                                        43.5004
        27.0004
   2880383.82556   2284741.40954
                  24170855.2114                                   24170853.8914
                                                                        40.5004
        24.0004
 -32487041.84848 -25276918.93445
                  21930967.0474                                   21930961.6294
                                                                        49.0004
        34.5004
 -30077879.47747 -23401358.63744
                  24221962.3984                                   24221959.8984
                                                                        42.5004
        26.5004
 -23584201.02347 -18341000.87544
                  22968687.2734                                   22968684.8404
                                                                        44.0004
        29.5004
 -37124599.56648 -28915902.16447
                  20727794.3674                                   20727789.3054
                                                                        51.7504
        43.0004
 -17548214.98846 -13642486.42244
                  24029350.5704                                   24029347.7194
                                                                        41.2504
        24.5004
 -22116176.69548 -17220902.63745
                  21792907.2734                                   21792904.0634
                                                                        48.7504
        34.5004
 -45610816.06648 -35498290.30546
                  20881052.2734                                   20881049.3134
                                                                        53.0004
        41.2504
 09 10  1  0 20  0.0000000  0  9G29G10G23G12G30G02G31G13G04
    298835.85947    269942.82044
                  24149488.1954                                   24149485.8954
                                                                        42.2504
        27.0004
   2676526.80946   2125891.74643
                  24132063.0394                                   24132061.1564
                                                                        41.7504
        23.5004
 -32546449.20748 -25323210.37945
                  21919662.3984                                   21919656.4384
                                                                        49.0004
        35.0004
 -30070341.70747 -23395485.10244
                  24223396.7584                                   24223393.5354
                                                                        43.0004
        26.5004
 -23614294.73447 -18364450.48844
                  22962960.9774                                   22962958.3594
                                                                        45.5004
        29.0004
 -37247933.59848 -29012006.57447
                  20704324.3594                                   20704319.6454
                                                                        51.7504
        42.7504
 -17585173.91846 -13671285.59044
                  24022318.2814                                   24022314.8134
                                                                        41.5004
        24.5004
 -22261279.65248 -17333969.84045
                  21765294.5004                                   21765291.5234
                                                                        48.7504
        35.5004
 -45650732.36348 -35529393.99246
                  20873456.6414                                   20873453.9264
                                                                        53.7504
        41.5004
 09 10  1  0 20 30.0000000  0  9G29G10G23G12G30G02G31G13G04
    114812.05147    126547.78544
                  24114469.5164                                   24114466.9884
                                                                        42.5004
        25.5004
   2472807.23447   1967149.19144
                  24093297.3204                                   24093294.2424
                                                                        43.5004
        24.5004
 -32605244.92248 -25369025.23845
                  21908473.5004                                   21908467.9774
                                                                        48.2504
        34.2504
 -30062507.61347 -23389380.68044
                  24224887.9304                                   24224884.5514
                                                                        43.0004
        26.7504
 -23643814.41847 -18387452.78544
                  22957343.4224                                   22957340.7734
                                                                        43.5004
        29.7504
 -37370744.65648 -29107703.44147
                  20680954.2424                                   20680949.1414
                                                                        52.0004
        42.7504
 -17621611.82846 -13699678.62544
                  24015384.0394                                   24015380.4144
                                                                        41.5004
        25.5004
 -22405811.45348 -17446591.96145
                  21737791.0314                                   21737788.1684
                                                                        49.0004
        34.7504
 -45690138.19148 -35560099.85246
                  20865957.7664                                   20865955.3674
                                                                        53.0004
        41.2504
 09 10  1  0 21  0.0000000  0  9G29G10G23G12G30G02G31G13G04
    -68944.50146    -16639.03744
                  24079500.8284                                   24079499.0594
                                                                        41.0004
        25.0004
   2269230.02047   1808517.60244
                  24054556.9384                                   24054555.0554
                                                                        43.5004
        24.5004
 -32663427.28948 -25414362.18745
                  21897401.9304                                   21897396.0634
                                                                        48.5004
        34.2504
 -30054376.78147 -23383045.01244
                  24226435.1884                                   24226431.8444
                                                                        43.5004
        28.0004
 -23672759.09047 -18410007.03144
                  22951835.4304                                   22951832.8244
                                                                        45.2504
        29.0004
 -37493029.03148 -29202989.94147
                  20657684.2734                                   20657679.7974
                                                                        52.5004
        42.7504
 -17657527.81247 -13727664.91444
                  24008549.6804                                   24008546.1454
                                                                        43.0004
        26.0004
 -22549767.54748 -17558765.46945
                  21710397.2274                                   21710394.0434
                                                                        49.0004
        35.2504
 -45729032.00048 -35590406.76646
                  20858556.5944                                   20858554.1454
                                                                        52.7504
        40.7504
 09 10  1  0 21 30.0000000  0  9G29G10G23G12G30G02G31G13G04
   -252429.66446   -159614.35544
                  24044584.8984                                   24044582.6724
                                                                        40.5004
        25.7504
   2065799.37547   1650000.19544
                  24015845.9694                                   24015843.2774
                                                                        43.0004
        27.7504
 -32720994.38748 -25459219.65245
                  21886447.1954                                   21886441.6914
                                                                        49.0004
        34.0004
 -30045950.63347 -23376479.25844
                  24228038.9454                                   24228035.5124
                                                                        44.0004
        28.5004
 -23701129.31247 -18432113.65244
                  22946435.7734                                   22946434.6174
                                                                        43.5004
        28.2504
 -37614783.48448 -29297863.57047
                  20634515.3524                                   20634510.6644
                                                                        52.0004
        43.0004
 -17692921.62546 -13755244.38344
                  24001813.9774                                   24001810.3554
                                                                        39.5004
        25.2504
 -22693143.21948 -17670486.70745
                  21683113.8984                                   21683110.3094
                                                                        49.5004
        35.0004
 -45767412.58248 -35620313.68746
                  20851253.1484                                   20851250.5314
                                                                        52.7504
        41.0004
 09 10  1  0 22  0.0000000  0  9G29G10G23G12G30G02G31G13G04
   -435638.53146   -302374.38744
                  24009721.6644                                   24009719.6054
                                                                        41.0004
        27.5004
   1862519.93846   1491600.66844
                  23977162.2194                                   23977160.6294
                                                                        39.7504
        24.5004
 -32777945.09848 -25503596.78945
                  21875609.7424                                   21875604.1054
                                                                        49.5004
        34.7504
 -30037229.12947 -23369683.29744
                  24229698.4614                                   24229695.8404
                                                                        44.2504
        29.7504
 -23728925.19147 -18453772.79745
                  22941147.2584                                   22941145.5744
                                                                        44.5004
        30.0004
 -37736003.68748 -29392320.87547
                  20611447.9694                                   20611443.3014
                                                                        52.7504
        43.0004
 -17727792.81247 -13782416.59844
                  23995177.8444                                   23995174.4304
                                                                        42.5004
        26.2504
 -22835933.85948 -17781752.09445
                  21655941.3204                                   21655938.3164
                                                                        49.5004
        34.7504
 -45805278.93048 -35649819.84846
                  20844047.4614                                   20844044.6214
                                                                        52.5004
        41.0004
 09 10  1  0 22 30.0000000  0  9G29G10G23G12G30G02G31G13G04
   -618563.91446   -444913.49644
                  23974912.3364                                   23974910.5314
                                                                        40.7504
        27.7504
   1659397.99246   1333323.82444
                  23938510.0234                                   23938508.0664
                                                                        41.2504
        27.2504
 -32834277.38748 -25547492.08245
                  21864890.2814                                   21864884.7814
                                                                        49.7504
        34.0004
 -30028211.12147 -23362656.23844
                  24231414.7114                                   24231411.7894
                                                                        44.2504
        28.2504
 -23756144.45347 -18474982.59845
                  22935967.4224                                   22935965.6454
                                                                        44.5004
        30.2504
 -37856684.82048 -29486358.14847
                  20588483.1334                                   20588478.1414
                                                                        52.0004
        42.7504
 -17762139.50846 -13809180.23844
                  23988641.9614                                   23988638.6524
                                                                        41.0004
        24.7504
 -22978134.21548 -17892557.53545
                  21628881.8524                                   21628878.1724
                                                                        50.0004
        35.0004
 -45842629.18048 -35678923.95346
                  20836939.5394                                   20836937.0744
                                                                        53.0004
        41.2504
 09 10  1  0 23  0.0000000  0  9G29G10G23G12G30G02G31G13G04
   -801205.27747   -587231.34044
                  23940156.4694                                   23940154.3554
                                                                        42.2504
        28.5004
   1456434.30146   1175170.34044
                  23899887.3364                                   23899885.3094
                                                                        41.7504
        27.0004
 -32889991.80148 -25590905.82845
                  21854288.1174                                   21854282.8404
                                                                        48.2504
        34.2504
 -30018901.35547 -23355401.80944
                  24233186.1564                                   24233183.4534
                                                                        43.2504
        28.5004
 -23782791.48847 -18495746.58244
                  22930897.0634                                   22930894.9184
                                                                        45.5004
        29.7504
 -37976826.50448 -29579975.04747
                  20565620.9534                                   20565615.9694
                                                                        52.5004
        43.0004
 -17795964.20346 -13835537.04744
                  23982205.5004                                   23982201.9614
                                                                        41.7504
        27.7504
 -23119742.39148 -18002901.55545
                  21601934.7504                                   21601930.8794
                                                                        49.7504
        34.7504
 -45879464.73448 -35707627.07046
                  20829930.1644                                   20829927.4804
                                                                        52.5004
        41.0004
 09 10  1  0 23 30.0000000  0  9G29G10G23G12G30G02G31G13G04
   -983559.09846   -729325.12144
                  23905455.7274                                   23905453.9144
                                                                        41.2504
        27.2504
   1253632.01647   1017142.63344
                  23861296.0704                                   23861293.4414
                                                                        43.2504
        28.7504
 -32945091.21948 -25633840.45345
                  21843802.5634                                   21843797.2974
                                                                        48.7504
        33.0004
 -30009302.01647 -23347921.83244
                  24235012.9774                                   24235010.0984
                                                                        43.0004
        29.0004
 -23808867.32047 -18516065.42645
                  22925935.2894                                   22925933.0084
                                                                        44.2504
        30.0004
 -38096427.05548 -29673170.29347
                  20542861.7814                                   20542856.4924
                                                                        52.0004
        42.5004
 -17829268.71146 -13861488.65644
                  23975868.4844                                   23975864.3324
                                                                        41.2504
        27.0004
 -23260757.44148 -18112783.38745
                  21575099.9614                                   21575096.5084
                                                                        49.0004
        34.5004
 -45915787.44948 -35735930.61746
                  20823018.3364                                   20823015.8284
                                                                        52.0004
        41.0004
 09 10  1  0 24  0.0000000  0  9G29G10G23G12G30G02G31G13G04
  -1165622.85947   -871192.91044
                  23870810.7734                                   23870807.9654
                                                                        42.0004
        27.7504
   1050992.31647    859241.51244
                  23822734.7194                                   23822732.1604
                                                                        43.0004
        26.0004
 -32999575.92248 -25676296.05945
                  21833434.4844                                   21833429.2074
                                                                        48.7504
        33.5004
 -29999415.99647 -23340218.44144
                  24236894.0634                                   24236891.5394
                                                                        42.7504
        27.0004
 -23834374.69547 -18535941.30945
                  22921080.7504                                   22921079.0514
                                                                        44.7504
        30.0004
 -38215485.58648 -29765943.14847
                  20520205.4384                                   20520200.5704
                                                                        51.7504
        42.5004
 -17862054.91046 -13887036.35944
                  23969629.1334                                   23969625.3714
                                                                        41.5004
        27.5004
 -23401176.67648 -18222200.96145
                  21548379.2974                                   21548376.3444
                                                                        49.7504
        34.7504
 -45951598.13748 -35763835.05146
                  20816204.0474                                   20816201.1764
                                                                        52.2504
        41.2504
 09 10  1  0 24 30.0000000  0  9G29G10G23G12G30G02G31G13G04
  -1347395.98447  -1012834.26644
                  23836219.6094                                   23836217.5634
                                                                        42.0004
        28.0004
    848516.03947    701467.82844
                  23784204.4844                                   23784201.7384
                                                                        42.0004
        25.2504
 -33053448.16848 -25718274.41045
                  21823182.7974                                   21823177.1374
                                                                        48.7504
        33.0004
 -29989247.87547 -23332295.23044
                  24238828.5474                                   24238826.5514
                                                                        43.2504
        27.7504
 -23859318.09447 -18555377.75045
                  22916334.5234                                   22916332.2974
                                                                        44.7504
        30.5004
 -38334002.27748 -29858293.78147
                  20497652.4694                                   20497647.7234
                                                                        52.0004
        43.0004
 -17894326.14547 -13912182.74644
                  23963487.7814                                   23963484.0944
                                                                        44.2504
        28.5004
 -23540999.43048 -18331153.69145
                  21521772.0784                                   21521768.3204
                                                                        49.5004
        34.7504
 -45986899.71948 -35791342.74246
                  20809486.5234                                   20809483.3914
                                                                        53.2504
        41.0004
 09 10  1  0 25  0.0000000  0  9G29G10G23G12G30G02G31G13G04
  -1528872.37646  -1154244.37044
                  23801685.5634                                   23801683.1414
                                                                        40.2504
        27.0004
    646209.05146    543826.03544
                  23745707.0474                                   23745704.3674
                                                                        41.7504
        25.0004
 -33106706.92248 -25759774.77745
                  21813048.4774                                   21813042.9184
                                                                        48.2504
        33.0004
 -29978797.33547 -23324151.95644
                  24240817.9304                                   24240815.0514
                                                                        43.7504
        29.0004
 -23883695.84847 -18574373.40544
                  22911695.2114                                   22911693.2304
                                                                        45.2504
        29.0004
 -38451973.08248 -29950219.07047
                  20475203.3674                                   20475198.5164
                                                                        51.7504
        43.2504
 -17926081.26647 -13936926.96544
                  23957445.0864                                   23957441.8164
                                                                        42.7504
        28.5004
 -23680221.92648 -18439638.79745
                  21495278.8364                                   21495275.4414
                                                                        50.0004
        35.0004
 -46021691.13748 -35818452.95746
                  20802865.6024                                   20802862.3874
                                                                        53.0004
        41.0004
 09 10  1  0 25 30.0000000  0  9G29G10G23G12G30G02G31G13G04
   -134627.02346    -67819.38744
                  24067001.7504                                   24066999.5744
                                                                        40.2504
        26.2504
   2019497.00047   1613920.55543
                  24007034.8834                                   24007032.5274
                                                                        42.2504
        23.5004
 -31583932.96148 -24573197.66445
                  22102822.8444                                   22102817.1134
                                                                        48.5004
        34.0004
 -28392651.11747 -22088193.88344
                  24542651.2814                                   24542647.8364
                                                                        42.5004
        26.7504
 -22332093.52047 -17365332.69544
                  23206955.5784                                   23206953.2974
                                                                        44.5004
        29.7504
 -36993975.30148 -28814116.89147
                  20752651.0164                                   20752645.9184
                                                                        51.7504
        43.0004
 -16381904.05147 -12733672.05544
                  24251292.6564                                   24251288.9964
                                                                        43.2504
        28.2504
 -22243418.37948 -17320051.58245
                  21768693.5164                                   21768689.9064
                                                                        49.5004
        35.0004
 -44480554.32848 -34617567.13746
                  21096134.1564                                   21096131.5004
                                                                        52.5004
        40.5004
 09 10  1  0 26  0.0000000  0  9G29G10G23G12G30G02G31G13G04
   -315510.53146   -208767.58244
                  24032580.5864                                   24032578.3954
                                                                        41.0004
        26.7504
   1817527.00047   1456541.36744
                  23968601.1484                                   23968599.4534
                                                                        43.7504
        28.5004
 -31635973.70348 -24613748.88345
                  22092919.3834                                   22092914.4534
                                                                        48.5004
        34.2504
 -28381652.68447 -22079623.69544
                  24544744.5554                                   24544740.8364
                                                                        43.0004
        27.7504
 -22355356.24647 -17383459.56244
                  23202528.7894                                   23202526.6134
                                                                        45.0004
        29.2504
 -37110857.68048 -28905194.09447
                  20730409.2344                                   20730404.1214
                                                                        52.2504
        43.0004
 -16412639.91047 -12757622.15244
                  24245443.1024                                   24245439.8094
                                                                        42.5004
        28.0004
 -22381439.35948 -17427600.39545
                  21742428.8754                                   21742425.3914
                                                                        49.0004
        35.0004
 -44514335.60948 -34643890.27046
                  21089705.6804                                   21089703.2274
                                                                        52.7504
        40.5004
 09 10  1  0 26 30.0000000  0  9G29G10G23G12G30G02G31G13G04
   -496093.31647   -349481.43744
                  23998216.9534                                   23998215.1644
                                                                        42.5004
        28.5004
   1615729.86347   1299296.82444
                  23930200.7814                                   23930198.2974
                                                                        44.5004
        28.5004
 -31687407.96148 -24653827.53545
                  22083131.8594                                   22083126.8834
                                                                        48.0004
        33.7504
 -28370383.89847 -22070842.89544
                  24546887.9924                                   24546885.5784
                                                                        42.2504
        26.7504
 -22378064.37947 -17401154.26644
                  23198208.3134                                   23198205.5514
                                                                        45.2504
        28.7504
 -37227193.45748 -28995845.32447
                  20708270.9614                                   20708266.2664
                                                                        52.0004
        43.0004
 -16442868.98847 -12781177.32044
                  24239691.3284                                   24239688.1214
                                                                        42.0004
        26.5004
 -22518857.48448 -17534679.46545
                  21716279.0234                                   21716276.0784
                                                                        50.0004
        35.0004
 -44547613.82448 -34669821.35546
                  21083373.1334                                   21083370.7774
                                                                        51.7504
        41.0004
 09 10  1  0 27  0.0000000  0  9G29G10G23G12G30G02G31G13G04
   -676374.59047   -489960.33244
                  23963911.4304                                   23963908.3674
                                                                        43.0004
        28.7504
   1414104.70747   1142186.30544
                  23891832.6414                                   23891830.3134
                                                                        43.7504
        28.5004
 -31738237.73048 -24693435.11745
                  22073459.5084                                   22073453.8714
                                                                        48.5004
        34.0004
 -28358849.85946 -22061855.28944
                  24549083.1414                                   24549079.9414
                                                                        41.2504
        25.5004
 -22400222.49247 -17418420.30944
                  23193990.9454                                   23193988.7544
                                                                        44.5004
        28.5004
 -37342983.46948 -29086071.28947
                  20686237.1564                                   20686232.4224
                                                                        52.7504
        43.0004
 -16472594.63347 -12804340.17644
                  24234034.3284                                   24234031.2464
                                                                        42.5004
        26.2504
 -22655672.03148 -17641288.20745
                  21690244.1174                                   21690241.2424
                                                                        49.2504
        35.7504
 -44580392.03548 -34695362.78146
                  21077135.4614                                   21077133.1564
                                                                        53.0004
        41.5004
 09 10  1  0 27 30.0000000  0  9G29G10G23G12G30G02G31G13G04
   -856353.34047   -630203.49644
                  23929662.1644                                   23929659.8244
                                                                        42.5004
        29.7504
   1212652.86746    985210.90244
                  23853496.6884                                   23853495.0354
                                                                        41.7504
        27.0004
 -31788466.97348 -24732574.79345
                  22063901.1724                                   22063895.8014
                                                                        48.7504
        34.0004
 -28347054.67646 -22052664.17244
                  24551327.7194                                   24551324.7854
                                                                        41.5004
        25.5004
 -22421834.51647 -17435260.83644
                  23189878.8524                                   23189876.1454
                                                                        45.0004
        28.2504
 -37458228.28148 -29175872.43047
                  20664306.7194                                   20664301.8594
                                                                        52.7504
        42.7504
 -16501820.66846 -12827113.75043
                  24228472.6564                                   24228469.6414
                                                                        40.7504
        23.5004
 -22791883.19948 -17747426.78145
                  21664324.0634                                   21664321.0434
                                                                        49.7504
        35.2504
 -44612673.68048 -34720517.33246
                  21070992.6024                                   21070990.4844
                                                                        52.7504
        40.5004
 09 10  1  0 28  0.0000000  0  9G29G10G23G12G30G02G31G13G04
  -1036026.87147   -770208.81644
                  23895471.7114                                   23895468.9884
                                                                        43.0004
        28.2504
   1011376.75846    828372.41444
                  23815195.5394                                   23815192.9694
                                                                        40.5004
        25.2504
 -31838095.83648 -24771246.62145
                  22054457.4304                                   22054451.6954
                                                                        49.0004
        34.5004
 -28335001.25846 -22043271.88744
                  24553621.8364                                   24553618.8444
                                                                        41.7504
        26.7504
 -22442902.85947 -17451677.74244
                  23185869.3984                                   23185867.1134
                                                                        44.0004
        27.7504
 -37572925.98448 -29265247.23847
                  20642480.4454                                   20642475.8834
                                                                        52.0004
        42.7504
 -16530548.48846 -12849499.03543
                  24223006.2664                                   24223002.2894
                                                                        40.7504
        23.2504
 -22927488.17248 -17853092.93745
                  21638519.2734                                   21638515.7304
                                                                        49.5004
        35.2504
 -44644459.13348 -34745285.17246
                  21064944.0234                                   21064941.9184
                                                                        53.0004
        41.0004
 09 10  1  0 28 30.0000000  0  9G29G10G23G12G30G02G31G13G04
  -1215390.22347   -909972.44544
                  23861339.4304                                   23861337.1054
                                                                        42.0004
        29.0004
    810280.46546    671674.02044
                  23776927.6644                                   23776925.6684
                                                                        41.2504
        26.0004
 -31887123.36748 -24809449.90245
                  22045127.5554                                   22045122.0164
                                                                        48.5004
        34.5004
 -28322690.35546 -22033679.05144
                  24555963.8834                                   24555961.9924
                                                                        40.5004
        26.0004
 -22463427.53547 -17467671.00844
                  23181963.3364                                   23181960.9144
                                                                        43.0004
        28.0004
 -37687073.51248 -29354193.33247
                  20620758.7584                                   20620754.1604
                                                                        52.2504
        43.5004
 -16558777.82847 -12871495.88344
                  24217633.8834                                   24217630.6954
                                                                        42.2504
        25.0004
 -23062483.21548 -17958283.83245
                  21612830.6644                                   21612827.2154
                                                                        49.7504
        35.5004
 -44675747.77748 -34769665.92246
                  21058989.8984                                   21058987.5314
                                                                        52.5004
        40.7504
 09 10  1  0 29  0.0000000  0  9G29G10G23G12G30G02G31G13G04
  -1394444.77047  -1049495.44544
                  23827266.5164                                   23827263.6054
                                                                        42.0004
        27.5004
    609362.71547    515114.71544
                  23738694.9614                                   23738692.3834
                                                                        43.0004
        28.0004
 -31935554.77748 -24847188.67245
                  22035911.1334                                   22035905.7114
                                                                        48.5004
        33.5004
 -28310128.41047 -22023890.58644
                  24558354.9144                                   24558352.6884
                                                                        43.0004
        27.7504
 -22483414.93047 -17483245.59844
                  23178160.1954                                   23178157.1174
                                                                        44.5004
        28.2504
 -37800673.66448 -29442712.94547
                  20599141.7344                                   20599136.7074
                                                                        52.0004
        43.0004
 -16586514.72347 -12893109.02044
                  24212356.6094                                   24212351.9924
                                                                        42.0004
        24.0004
 -23196870.06248 -18063000.83245
                  21587257.6174                                   21587254.2504
                                                                        50.0004
        35.5004
 -44706544.84448 -34793663.60946
                  21053129.6334                                   21053127.0124
                                                                        52.2504
        40.7504
 09 10  1  0 29 30.0000000  0  8G29G10G23G30G02G31G13G04
  -1573186.77746  -1188774.86344
                  23793252.6954                                   23793250.7154
                                                                        41.0004
        27.0004
    408627.01647    358697.34844
                  23700496.7734                                   23700494.2034
                                                                        43.0004
        28.5004
 -31983391.03948 -24884463.70745
                  22026808.3524                                   22026802.5124
                                                                        49.2504
        34.0004
 -22502866.49247 -17498402.61344
                  23174459.0164                                   23174456.2934
                                                                        44.0004
        28.5004
 -37913724.11348 -29530804.18747
                  20577628.7114                                   20577623.7504
                                                                        52.5004
        43.2504
 -16613760.67647 -12914339.60243
                  24207171.7974                                   24207167.2544
                                                                        42.5004
        22.7504
 -23330647.14148 -18167242.73045
                  21561800.7114                                   21561797.0904
                                                                        49.7504
        35.5004
 -44736851.32848 -34817279.02346
                  21047362.2584                                   21047359.9024
                                                                        52.2504
        40.7504
 09 10  1  0 30  0.0000000  0  8G29G10G23G30G02G31G13G04
  -1751611.96547  -1327807.43444
                  23759299.8984                                   23759297.3554
                                                                        42.5004
        26.0004
    208077.01646    202424.65644
                  23662333.5084                                   23662330.8554
                                                                        41.5004
        28.2504
 -32030631.04348 -24921274.12945
                  22017818.6954                                   22017813.1954
                                                                        48.7504
        33.7504
 -22521783.21947 -17513142.91444
                  23170858.8524                                   23170857.0434
                                                                        43.2504
        28.5004
 -38026222.19148 -29618465.01647
                  20556221.1724                                   20556216.3444
                                                                        52.2504
        43.5004
 -16640515.61347 -12935187.58644
                  24202080.1804                                   24202076.0944
                                                                        42.2504
        26.0004
 -23463809.93048 -18271005.94146
                  21536460.5394                                   21536457.1724
                                                                        50.2504
        36.0004
 -44766666.44148 -34840511.54346
                  21041688.6644                                   21041686.1254
                                                                        52.2504
        40.2504
 09 10  1  0 30 30.0000000  0  8G29G10G23G30G02G31G13G04
  -1929715.61747  -1466589.48444
                  23725407.7424                                   23725405.2154
                                                                        43.0004
        28.2504
      7717.37147     46300.25844
                  23624205.6414                                   23624203.6564
                                                                        42.5004
        27.7504
 -32077273.63748 -24957619.03945
                  22008943.3524                                   22008937.9924
                                                                        48.0004
        33.0004
 -22540165.11347 -17527466.39844
                  23167360.9304                                   23167358.8164
                                                                        44.0004
        28.5004
 -38138164.04348 -29705692.43047
                  20534918.9614                                   20534914.0354
                                                                        52.0004
        43.0004
 -16666778.61747 -12955652.29344
                  24197082.6174                                   24197078.5864
                                                                        43.5004
        26.2504
 -23596354.15648 -18374287.11346
                  21511238.2584                                   21511234.5984
                                                                        50.0004
        36.0004
 -44795989.06648 -34863360.32046
                  21036108.8674                                   21036106.1844
                                                                        52.5004
        40.5004
 09 10  1  0 31  0.0000000  0  8G29G10G23G30G02G31G13G04
  -2107492.12947  -1605116.61744
                  23691578.2114                                   23691575.3794
                                                                        43.7504
        28.7504
   -192446.78147   -109671.80544
                  23586115.2274                                   23586113.2304
                                                                        42.0004
        26.7504
 -32123317.35547 -24993497.30545
                  22000181.1024                                   22000175.8134
                                                                        47.5004
        33.0004
 -22558012.26647 -17541373.29344
                  23163964.9064                                   23163962.8324
                                                                        44.5004
        29.2504
 -38249545.99648 -29792483.56247
                  20513723.8444                                   20513718.7424
                                                                        52.5004
        43.2504
 -16692549.27046 -12975733.36344
                  24192178.9694                                   24192175.2194
                                                                        40.7504
        27.5004
 -23728275.62548 -18477083.04746
                  21486134.1644                                   21486130.5944
                                                                        50.2504
        36.0004
 -44824818.06248 -34885824.50846
                  21030622.7814                                   21030620.0394
                                                                        52.5004
        41.0004
 09 10  1  0 31 30.0000000  0  8G29G10G23G30G02G31G13G04
  -2284939.05147  -1743386.92644
                  23657811.4694                                   23657808.5664
                                                                        44.7504
        29.2504
   -392413.18747   -265489.75844
                  23548063.4384                                   23548060.8714
                                                                        44.2504
        27.7504
 -32168764.32448 -25028910.55945
                  21991532.8984                                   21991527.3164
                                                                        48.5004
        33.5004
 -22575327.10947 -17554865.37944
                  23160669.7664                                   23160667.7934
                                                                        43.5004
        29.5004
 -38360367.40648 -29878837.93047
                  20492635.1724                                   20492630.1374
                                                                        52.0004
        43.0004
 -16717829.72746 -12995432.39844
                  24187368.0234                                   24187364.1054
                                                                        40.7504
        28.0004
 -23859573.38348 -18579392.95346
                  21461149.0314                                   21461145.6884
                                                                        49.7504
        36.2504
 -44853155.59448 -34907905.74646
                  21025230.3834                                   21025228.1604
                                                                        51.7504
        40.7504
 09 10  1  0 32  0.0000000  0  8G29G10G23G30G02G31G13G04
  -2462059.83247  -1881403.10245
                  23624106.3284                                   23624103.7034
                                                                        44.2504
        30.0004
   -592185.75447   -421156.67244
                  23510048.0164                                   23510045.3794
                                                                        44.2504
        27.7504
 -32213621.94148 -25063864.58245
                  21982997.0784                                   21982991.5044
                                                                        49.0004
        33.7504
 -22592118.03947 -17567949.21544
                  23157474.6884                                   23157473.1994
                                                                        43.2504
        29.7504
 -38470632.79748 -29964759.04347
                  20471652.6254                                   20471647.4614
                                                                        52.0004
        42.5004
 -16742628.17247 -13014755.84444
                  24182648.9694                                   24182645.4184
                                                                        42.0004
        26.0004
 -23990251.53148 -18681220.07846
                  21436281.8594                                   21436278.2384
                                                                        50.5004
        36.2504
 -44881008.76648 -34929609.63746
                  21019929.9384                                   21019927.2234
                                                                        52.5004
        40.5004
 09 10  1  0 32 30.0000000  0  9G29G10G23G05G30G02G31G13G04
  -2638855.52047  -2019165.92644
                  23590462.5394                                   23590460.7664
                                                                        44.5004
        29.2504
   -791765.75447   -576673.56644
                  23472069.5634                                   23472066.8404
                                                                        45.0004
        28.5004
 -32257894.43448 -25098362.64545
                  21974572.3754                                   21974566.2384
                                                                        48.7504
        33.5004
   4460661.02357   3488325.07854
                  24246459.2504                                   24246457.1134
                                                                        42.2504
        27.0004
 -22608391.94547 -17580630.17244
                  23154377.7664                                   23154376.0664
                                                                        42.5004
        28.5004
 -38580344.60548 -30050248.74647
                  20450775.0164                                   20450769.8754
                                                                        52.0004
        42.7504
 -16766950.18746 -13033708.07844
                  24178020.1254                                   24178016.9924
                                                                        39.2504
        25.5004
 -24120310.73048 -18782564.91046
                  21411532.6094                                   21411529.2194
                                                                        50.7504
        36.5004
 -44908382.10548 -34950939.57446
                  21014721.1954                                   21014718.4804
                                                                        51.2504
        40.5004
 09 10  1  0 33  0.0000000  0  9G29G10G23G05G30G02G31G13G04
  -2815326.89147  -2156676.02044
                  23556881.2584                                   23556879.1374
                                                                        43.5004
        28.5004
   -991154.91047   -732041.95344
                  23434126.8914                                   23434124.5904
                                                                        44.5004
        28.0004
 -32301587.69548 -25132409.31645
                  21966258.0234                                   21966252.0234
                                                                        49.0004
        33.0004
   4260526.73447   3332376.14844
                  24208375.7584                                   24208372.5204
                                                                        42.7504
        28.0004
 -22624154.58247 -17592912.81644
                  23151378.3674                                   23151376.5314
                                                                        43.2504
        28.2504
 -38689505.64848 -30135309.27047
                  20430002.5554                                   20429997.6254
                                                                        52.5004
        42.5004
 -16790801.86347 -13052293.85544
                  24173481.8284                                   24173478.4494
                                                                        42.2504
        27.2504
 -24249754.58248 -18883430.27046
                  21386900.0704                                   21386896.4574
                                                                        50.2504
        36.2504
 -44935281.30148 -34971899.97346
                  21009602.6484                                   21009599.8794
                                                                        51.0004
        40.5004
 09 10  1  0 33 30.0000000  0  9G29G10G23G05G30G02G31G13G04
  -2991474.93447  -2293934.17244
                  23523361.2974                                   23523359.0314
                                                                        44.0004
        29.5004
  -1190353.42647   -887261.67644
                  23396220.2894                                   23396218.0704
                                                                        44.2504
        29.0004
 -32344705.68748 -25166007.76245
                  21958052.2584                                   21958047.1254
                                                                        48.5004
        33.0004
   4060508.50847   3176517.72744
                  24170313.8054                                   24170310.3754
                                                                        44.5004
        29.0004
 -22639411.93046 -17604801.73844
                  23148474.9144                                   23148472.7544
                                                                        41.5004
        27.5004
 -38798117.71548 -30219942.05947
                  20409334.4534                                   20409329.5124
                                                                        51.2504
        43.0004
 -16814187.85946 -13070516.72344
                  24169031.0704                                   24169028.4224
                                                                        40.7504
        26.0004
 -24378583.59448 -18983816.56646
                  21362384.6804                                   21362381.3204
                                                                        51.0004
        36.0004
 -44961710.35948 -34992494.03946
                  21004573.3364                                   21004570.7074
                                                                        51.2504
        40.2504
 09 10  1  0 34  0.0000000  0  9G29G10G23G05G30G02G31G13G04
  -3167297.34447  -2430938.60944
                  23489903.7894                                   23489901.4454
                                                                        45.0004
        28.7504
  -1389359.93747  -1042331.65644
                  23358350.7274                                   23358348.8874
                                                                        43.0004
        28.5004
 -32387250.74648 -25199159.76645
                  21949956.6334                                   21949950.8444
                                                                        48.5004
        32.7504
   3860607.62547   3020750.86344
                  24132273.6174                                   24132270.5664
                                                                        42.5004
        28.7504
 -22654167.10247 -17616299.31644
                  23145667.2584                                   23145664.3714
                                                                        43.0004
        27.0004
 -38906180.68448 -30304146.94947
                  20388770.2664                                   20388765.6054
                                                                        51.5004
        42.7504
 -16837111.02046 -13088379.00444
                  24164669.1884                                   24164666.5864
                                                                        40.5004
        25.0004
 -24506796.85248 -19083723.04346
                  21337986.5784                                   21337983.2664
                                                                        51.0004
        36.5004
 -44987671.74648 -35012723.65246
                  20999632.9454                                   20999630.2154
                                                                        51.7504
        39.7504
 09 10  1  0 34 30.0000000  0  9G29G10G23G05G30G02G31G13G04
  -1767360.91447  -1340079.02344
                  23756302.9454                                   23756300.0634
                                                                        45.5004
        29.7504
    -12740.64547     30358.73444
                  23620312.6644                                   23620310.8134
                                                                        42.7504
        29.0004
 -30853797.94548 -24004261.53145
                  22241762.8984                                   22241757.6174
                                                                        49.0004
        33.5004
   5236257.28946   4092685.66844
                  24394050.8594                                   24394047.6604
                                                                        41.5004
        27.0004
 -21092997.21147 -16399803.32044
                  23442747.9534                                   23442745.0744
                                                                        43.5004
        27.2504
 -37438264.98048 -29160316.52347
                  20668105.4614                                   20668100.4574
                                                                        52.0004
        42.5004
 -15284147.64846 -11878277.64144
                  24460188.5234                                   24460185.3984
                                                                        41.0004
        25.7504
 -23058964.35248 -17955541.89546
                  21613500.2114                                   21613496.7074
                                                                        50.5004
        36.0004
 -43437741.05948 -33804985.29746
                  21294574.8984                                   21294572.3094
                                                                        52.2504
        40.2504
 09 10  1  0 35  0.0000000  0  9G29G10G23G05G30G02G31G13G04
  -1942510.54347  -1476559.23445
                  23722972.5004                                   23722970.2074
                                                                        45.2504
        30.2504
   -211342.55547   -124395.95344
                  23582519.6024                                   23582517.5354
                                                                        42.2504
        29.2504
 -30895187.84048 -24036513.38345
                  22233886.8284                                   22233881.2624
                                                                        49.5004
        33.7504
   5036610.23446   3937116.44544
                  24356057.8674                                   24356056.8554
                                                                        39.5004
        27.0004
 -21106741.72347 -16410513.36744
                  23440132.3364                                   23440128.9304
                                                                        44.7504
        25.2504
 -37545212.61348 -29243652.30147
                  20647754.0394                                   20647749.0984
                                                                        52.0004
        43.2504
 -15306137.73447 -11895412.75044
                  24456003.9694                                   24456000.7034
                                                                        42.2504
        26.2504
 -23185929.02348 -18054475.41446
                  21589339.6804                                   21589336.1414
                                                                        50.5004
        36.0004
 -43462757.89848 -33824478.83246
                  21289814.1254                                   21289811.5864
                                                                        52.5004
        40.5004
 09 10  1  0 35 30.0000000  0  9G29G10G23G05G30G02G31G13G04
  -2117318.44547  -1612773.14845
                  23689708.3914                                   23689705.6254
                                                                        45.2504
        30.0004
   -409737.57447   -278989.48844
                  23544767.0864                                   23544764.4614
                                                                        42.5004
        29.0004
 -30936000.71548 -24068315.59445
                  22226120.0394                                   22226114.7504
                                                                        49.0004
        34.0004
   4837095.00046   3781650.09044
                  24318092.5084                                   24318090.2894
                                                                        40.2504
        28.7504
 -21119983.82847 -16420831.88344
                  23437612.7194                                   23437609.4694
                                                                        44.2504
        26.7504
 -37651599.66048 -29326551.23847
                  20627509.0944                                   20627504.0434
                                                                        50.7504
        43.2504
 -15327662.97747 -11912185.66844
                  24451907.8594                                   24451904.2504
                                                                        42.5004
        26.5004
 -23312263.16848 -18152917.59045
                  21565298.8594                                   21565295.3404
                                                                        50.5004
        35.7504
 -43487303.38748 -33843605.18446
                  21285143.1954                                   21285141.0234
                                                                        51.7504
        40.0004
 09 10  1  0 36  0.0000000  0  9G29G10G23G05G30G02G31G13G04
  -2291782.04347  -1748718.77344
                  23656508.4924                                   23656506.2704
                                                                        44.2504
        29.0004
   -607922.51647   -433419.27045
                  23507053.4924                                   23507050.7584
                                                                        43.5004
        30.0004
 -30976238.39848 -24099669.66045
                  22218463.3364                                   22218457.7274
                                                                        49.0004
        33.0004
   4637713.21547   3626287.64845
                  24280151.8134                                   24280149.0784
                                                                        43.7504
        30.2504
 -21132725.66447 -16430760.57444
                  23435188.3594                                   23435185.7774
                                                                        44.0004
        28.0004
 -37757425.14848 -29409012.56247
                  20607370.9844                                   20607366.1294
                                                                        52.0004
        44.0004
 -15348725.56247 -11928598.06243
                  24447899.8594                                   24447895.8674
                                                                        42.0004
        23.7504
 -23437968.89548 -18250870.08646
                  21541378.3834                                   21541374.5204
                                                                        51.5004
        36.2504
 -43511379.15648 -33862365.57046
                  21280562.0004                                   21280559.3714
                                                                        50.2504
        40.2504
 09 10  1  0 36 30.0000000  0  9G29G10G23G05G30G02G31G13G04
  -2465898.75447  -1884394.07444
                  23623375.3594                                   23623372.6604
                                                                        43.7504
        28.7504
   -805895.57447   -587683.97344
                  23469380.2664                                   23469377.3714
                                                                        44.0004
        28.2504
 -31015901.62948 -24130576.02745
                  22210915.6024                                   22210910.2734
                                                                        48.5004
        33.0004
   4438467.20747   3471030.92645
                  24242236.4614                                   24242234.2774
                                                                        45.7504
        30.2504
 -21144970.03147 -16440301.66844
                  23432858.1254                                   23432855.5044
                                                                        42.7504
        28.7504
 -37862687.83248 -29491035.35947
                  20587340.1094                                   20587335.0164
                                                                        52.0004
        43.0004
 -15369327.33247 -11944651.39144
                  24443979.3444                                   24443975.5944
                                                                        42.2504
        25.0004
 -23563043.14148 -18348330.52745
                  21517576.9064                                   21517573.5984
                                                                        51.0004
        35.7504
 -43534985.66048 -33880760.12946
                  21276069.6954                                   21276066.9384
                                                                        51.5004
        40.5004
 09 10  1  0 37  0.0000000  0  9G29G10G23G05G30G02G31G13G04
  -2639664.73847  -2019796.08244
                  23590309.0004                                   23590306.2304
                                                                        43.0004
        29.2504
  -1003653.63347   -741781.14844
                  23431748.1724                                   23431746.0354
                                                                        43.7504
        29.2504
 -31054992.10248 -24161036.18045
                  22203477.4774                                   22203471.6174
                                                                        48.7504
        33.5004
   4239360.03947   3315882.52744
                  24204347.3674                                   24204344.6134
                                                                        43.7504
        29.5004
 -21156718.89546 -16449456.68744
                  23430622.3444                                   23430620.4304
                                                                        41.7504
        28.7504
 -37967386.24248 -29572618.46547
                  20567416.8364                                   20567411.8444
                                                                        51.7504
        43.5004
 -15389469.92247 -11960346.92243
                  24440146.4614                                   24440142.5594
                                                                        43.0004
        22.7504
 -23687482.14848 -18445295.93045
                  21493897.2344                                   21493893.7234
                                                                        50.7504
        35.5004
 -43558124.73848 -33898790.65646
                  21271666.3054                                   21271663.8954
                                                                        51.7504
        39.5004
 09 10  1  0 37 30.0000000  0  9G29G10G23G05G30G02G31G13G04
  -2813078.09847  -2154923.33645
                  23557309.2274                                   23557306.8444
                                                                        43.5004
        30.7504
  -1201194.81647   -895709.30544
                  23394156.7584                                   23394155.1724
                                                                        42.2504
        28.0004
 -31093511.63348 -24191051.43745
                  22196146.6954                                   22196141.2274
                                                                        48.5004
        33.2504
   4040393.04746   3160843.25444
                  24166485.1094                                   24166482.6334
                                                                        41.7504
        27.2504
 -21167975.37947 -16458228.00044
                  23428480.2894                                   23428478.5044
                                                                        42.5004
        28.5004
 -38071519.78948 -29653761.45747
                  20547601.0554                                   20547595.7304
                                                                        52.5004
        43.2504
 -15409155.85946 -11975686.60544
                  24436400.6414                                   24436396.4534
                                                                        40.7504
        24.5004
 -23811286.52748 -18541766.84846
                  21470337.7114                                   21470334.2854
                                                                        51.0004
        36.2504
 -43580797.82448 -33916458.02346
                  21267351.8284                                   21267349.4654
                                                                        51.5004
        40.5004
 09 10  1  0 38  0.0000000  0  9G29G10G23G05G30G02G31G13G04
  -2986133.35547  -2289771.52745
                  23524377.4454                                   23524374.9774
                                                                        43.7504
        30.5004
  -1398513.82447  -1049464.32044
                  23356609.0944                                   23356606.4654
                                                                        44.0004
        29.2504
 -31131458.52048 -24220620.47745
                  22188925.9144                                   22188920.6174
                                                                        49.5004
        32.7504
   3841571.65246   3005917.53944
                  24128650.5944                                   24128647.9964
                                                                        40.5004
        26.0004
 -21178739.05147 -16466615.30144
                  23426431.4454                                   23426429.5204
                                                                        42.0004
        27.7504
 -38175084.19148 -29734460.93047
                  20527893.2664                                   20527887.7934
                                                                        52.2504
        43.0004
 -15428383.96147 -11990669.52344
                  24432741.3054                                   24432737.8244
                                                                        43.0004
        25.2504
 -23934451.42248 -18637739.52046
                  21446900.3364                                   21446896.7114
                                                                        50.7504
        36.2504
 -43603003.28148 -33933760.94146
                  21263126.5704                                   21263123.9654
                                                                        52.2504
        39.7504
 09 10  1  0 38 30.0000000  0  9G29G10G23G05G30G02G31G13G04
  -3158831.23447  -2424341.27745
                  23491514.7974                                   23491511.7544
                                                                        45.0004
        31.0004
  -1595611.32447  -1203046.73845
                  23319102.1804                                   23319100.1024
                                                                        44.5004
        30.2504
 -31168837.35948 -24249746.78945
                  22181812.8754                                   22181807.3754
                                                                        49.5004
        33.5004
   3642894.34047   2851104.04744
                  24090843.8594                                   24090841.2464
                                                                        42.0004
        29.0004
 -21189016.52747 -16474623.80144
                  23424475.9534                                   23424474.0634
                                                                        42.7504
        28.0004
 -38278082.09848 -29814719.02347
                  20508292.9384                                   20508288.3874
                                                                        52.5004
        43.0004
 -15447160.26246 -12005300.43744
                  24429168.6414                                   24429165.3444
                                                                        39.2504
        24.7504
 -24056978.09048 -18733214.87946
                  21423584.3204                                   21423581.0704
                                                                        50.5004
        36.5004
 -43624746.21148 -33950703.55546
                  21258988.9454                                   21258986.3284
                                                                        51.0004
        40.2504
 09 10  1  0 39  0.0000000  0  9G29G10G23G05G30G02G31G13G04
  -3331171.45747  -2558632.34445
                  23458719.5704                                   23458716.3794
                                                                        44.5004
        30.0004
  -1792487.89147  -1356457.00845
                  23281637.9844                                   23281635.7664
                                                                        45.5004
        31.0004
 -31205652.74648 -24278434.19545
                  22174806.9224                                   22174801.4144
                                                                        48.7504
        32.5004
   3444360.81347   2696402.61745
                  24053064.3284                                   24053061.9694
                                                                        43.7504
        31.5004
 -21198812.43447 -16482257.03144
                  23422611.8054                                   23422610.5164
                                                                        42.0004
        28.7504
 -38380515.38748 -29894537.15247
                  20488800.7814                                   20488795.6644
                                                                        52.2504
        43.0004
 -15465489.21946 -12019582.77744
                  24425679.8754                                   24425677.5474
                                                                        38.0004
        25.5004
 -24178869.51248 -18828195.25446
                  21400389.0944                                   21400385.7384
                                                                        50.5004
        36.0004
 -43646030.58248 -33967288.73446
                  21254938.6954                                   21254935.6414
                                                                        51.5004
        40.0004
 09 10  1  0 39 30.0000000  0  9G29G10G23G05G30G02G31G13G04
  -3503149.46147  -2692641.17244
                  23425992.8914                                   23425990.0784
                                                                        44.0004
        29.5004
  -1989139.32847  -1509691.97345
                  23244216.6954                                   23244214.0434
                                                                        45.7504
        30.2504
 -31241904.57048 -24306682.52045
                  22167909.0084                                   22167903.8484
                                                                        48.7504
        32.0004
   3245974.75847   2541816.03145
                  24015313.0554                                   24015310.1844
                                                                        43.5004
        31.5004
 -21208127.54347 -16489515.63344
                  23420839.6884                                   23420837.5944
                                                                        42.7504
        29.5004
 -38482380.74248 -29973912.73047
                  20469416.6414                                   20469411.4534
                                                                        52.2504
        42.7504
 -15483371.25846 -12033517.01243
                  24422277.1804                                   24422273.8484
                                                                        39.0004
        23.7504
 -24300120.78948 -18922676.77046
                  21377316.1094                                   21377312.5084
                                                                        50.5004
        36.0004
 -43666856.30948 -33983516.57446
                  21250975.8364                                   21250972.9844
                                                                        51.2504
        39.7504
 09 10  1  0 40  0.0000000  0  9G29G10G23G05G30G02G31G13G04
  -3674762.32047  -2826365.48444
                  23393335.9144                                   23393333.3634
                                                                        43.5004
        29.2504
  -2185562.56247  -1662749.08645
                  23206838.4614                                   23206835.8164
                                                                        45.5004
        30.0004
 -31277593.44148 -24334492.07445
                  22161117.2814                                   22161112.4144
                                                                        49.0004
        32.5004
   3047738.85247   2387346.40645
                  23977589.8834                                   23977587.4104
                                                                        43.5004
        31.0004
 -21216964.21546 -16496401.39144
                  23419158.1484                                   23419155.8404
                                                                        41.7504
        27.5004
 -38583677.12548 -30052844.93047
                  20450140.5084                                   20450135.2114
                                                                        51.5004
        43.2504
 -15500807.52046 -12047103.69544
                  24418959.6724                                   24418956.5234
                                                                        39.0004
        26.2504
 -24420729.85548 -19016657.84446
                  21354364.4774                                   21354361.2234
                                                                        51.2504
        36.5004
 -43687224.37548 -33999387.76646
                  21247099.8524                                   21247096.8404
                                                                        51.0004
        40.0004
 09 10  1  0 40 30.0000000  0  9G29G10G23G05G30G02G31G13G04
  -3846010.42247  -2959805.54744
                  23360748.0554                                   23360745.7974
                                                                        42.0004
        29.0004
  -2381758.14547  -1815628.67644
                  23169503.4454                                   23169500.4454
                                                                        43.7504
        28.5004
 -31312723.95748 -24361866.56645
                  22154432.5004                                   22154427.0434
                                                                        48.7504
        33.5004
   2849652.41046   2232993.35944
                  23939894.6094                                   23939892.7814
                                                                        41.2504
        29.5004
 -21225328.75847 -16502919.24644
                  23417566.2034                                   23417564.2274
                                                                        42.5004
        27.0004
 -38684406.18048 -30131335.02747
                  20430972.1804                                   20430967.2664
                                                                        52.2504
        43.0004
 -15517803.75447 -12060347.53944
                  24415725.5234                                   24415721.9224
                                                                        42.5004
        25.7504
 -24540699.03948 -19110140.29746
                  21331535.4614                                   21331531.8484
                                                                        51.2504
        36.7504
 -43707139.00048 -34014905.68446
                  21243310.0704                                   21243307.5664
                                                                        51.5004
        40.0004
 09 10  1  0 41  0.0000000  0  9G29G10G23G05G30G02G31G13G04
  -4016890.01247  -3092958.45744
                  23328230.8444                                   23328227.9574
                                                                        44.0004
        29.5004
  -2577723.18047  -1968328.69144
                  23132212.5314                                   23132209.8954
                                                                        44.5004
        28.2504
 -31347297.48848 -24388807.03145
                  22147853.3754                                   22147847.7774
                                                                        49.2504
        32.7504
   2651718.35247   2078759.13344
                  23902228.6484                                   23902226.5634
                                                                        43.0004
        28.5004
 -21233222.37147 -16509070.14844
                  23416064.8524                                   23416062.1094
                                                                        43.0004
        27.5004
 -38784566.76648 -30209382.19947
                  20411912.2274                                   20411907.1294
                                                                        52.5004
        43.5004
 -15534361.17646 -12073249.46544
                  24412574.6564                                   24412571.0824
                                                                        39.2504
        26.7504
 -24660026.32048 -19203122.53946
                  21308828.2274                                   21308824.8594
                                                                        50.5004
        36.7504
 -43726601.34848 -34030071.08246
                  21239606.3834                                   21239603.9104
                                                                        51.0004
        40.2504
 09 10  1  0 41 30.0000000  0  9G29G10G23G05G30G02G31G13G04
  -4187398.89847  -3225822.51245
                  23295784.7424                                   23295781.8674
                                                                        44.0004
        31.0004
  -2773455.27047  -2120847.05945
                  23094965.7274                                   23094963.7154
                                                                        45.7504
        30.7504
 -31381315.27748 -24415314.39145
                  22141380.0554                                   22141374.6804
                                                                        49.0004
        32.5004
   2453938.52047   1924645.04744
                  23864592.9144                                   23864589.5354
                                                                        44.0004
        28.5004
 -21240648.09447 -16514856.43044
                  23414651.1724                                   23414648.7974
                                                                        42.2504
        26.0004
 -38884157.95348 -30286985.70347
                  20392960.5554                                   20392955.4774
                                                                        52.5004
        44.0004
 -15550481.93746 -12085811.05544
                  24409507.4144                                   24409503.4734
                                                                        40.5004
        26.2504
 -24778710.01648 -19295603.32046
                  21286243.5314                                   21286240.1914
                                                                        50.7504
        36.5004
 -43745612.74648 -34044885.12146
                  21235988.5784                                   21235986.0784
                                                                        50.5004
        39.7504
 09 10  1  0 42  0.0000000  0  9G29G10G23G05G30G02G31G13G04
  -4357534.44947  -3358395.65645
                  23263409.0704                                   23263406.3594
                                                                        44.7504
        31.7504
  -2968951.87547  -2273181.89545
                  23057764.2734                                   23057761.5234
                                                                        45.0004
        31.7504
 -31414779.40248 -24441390.29745
                  22135011.8134                                   22135006.2734
                                                                        50.0004
        32.2504
   2256315.21147   1770653.00844
                  23826986.5554                                   23826983.3094
                                                                        43.7504
        28.7504
 -21247608.81246 -16520280.36344
                  23413327.1564                                   23413324.6484
                                                                        41.5004
        26.2504
 -38983178.75848 -30364144.70747
                  20374117.8524                                   20374112.7774
                                                                        51.5004
        43.0004
 -15566168.43047 -12098034.26244
                  24406522.2194                                   24406518.3754
                                                                        43.0004
        26.2504
 -24896749.38748 -19387582.03146
                  21263780.9844                                   21263777.3284
                                                                        50.7504
        36.7504
 -43764175.10948 -34059349.30546
                  21232456.2734                                   21232453.8364
                                                                        51.2504
        39.7504
 09 10  1  0 42 30.0000000  0  9G29G10G23G05G30G02G31G13G04
  -4527293.71547  -3490675.60545
                  23231105.0634                                   23231102.0824
                                                                        44.5004
        32.5004
  -3164210.97747  -2425331.81245
                  23020607.9844                                   23020605.5164
                                                                        45.0004
        31.5004
 -31447691.03548 -24467035.73445
                  22128749.4064                                   22128743.5514
                                                                        49.5004
        32.7504
   2058850.64147   1616784.66445
                  23789410.4924                                   23789407.4384
                                                                        43.7504
        30.7504
 -21254107.32447 -16525344.16844
                  23412090.5784                                   23412087.9454
                                                                        43.7504
        27.0004
 -39081628.28148 -30440858.55947
                  20355383.1174                                   20355378.0354
                                                                        53.2504
        43.5004
 -15581422.75846 -12109920.72344
                  24403619.3674                                   24403615.6054
                                                                        40.5004
        24.2504
 -25014142.07048 -19479056.81246
                  21241441.8134                                   21241438.3404
                                                                        50.5004
        36.5004
 -43782289.39848 -34073464.34046
                  21229009.3984                                   21229006.6334
                                                                        50.5004
        39.5004
 09 10  1  0 43  0.0000000  0  9G29G10G23G05G30G02G31G13G04
  -4696673.66847  -3622659.98045
                  23198872.6724                                   23198870.0434
                                                                        43.2504
        31.5004
  -3359229.59847  -2577294.32045
                  22983496.6414                                   22983494.6724
                                                                        44.7504
        31.2504
 -31480051.55148 -24492251.71945
                  22122591.3284                                   22122586.2974
                                                                        49.5004
        33.0004
   1861547.00447   1463041.56345
                  23751864.0864                                   23751862.2854
                                                                        45.0004
        32.2504
 -21260145.94147 -16530049.59044
                  23410940.9454                                   23410938.9654
                                                                        43.0004
        28.0004
 -39179505.43748 -30517126.45347
                  20336757.8754                                   20336752.4774
                                                                        52.7504
        43.0004
 -15596246.79347 -12121471.88743
                  24400798.6564                                   24400794.2854
                                                                        42.2504
        22.5004
 -25130887.02348 -19570026.87946
                  21219226.2504                                   21219223.1094
                                                                        50.0004
        36.0004
 -43799957.13748 -34087231.40246
                  21225647.1884                                   21225644.7194
                                                                        51.0004
        39.5004
 09 10  1  0 43 30.0000000  0  9G29G10G23G05G30G02G31G13G04
  -4865672.91047  -3754347.68045
                  23166712.9064                                   23166710.5044
                                                                        44.2504
        30.7504
  -3554006.62947  -2729068.59844
                  22946431.2344                                   22946429.5124
                                                                        43.2504
        29.5004
 -31511864.21548 -24517040.81645
                  22116537.5704                                   22116532.4064
                                                                        49.0004
        32.5004
   1664405.88347   1309425.17245
                  23714349.3284                                   23714347.6764
                                                                        44.0004
        31.5004
 -21265728.37147 -16534399.62544
                  23409878.5394                                   23409876.7544
                                                                        42.7504
        27.0004
 -39276810.31648 -30592948.43047
                  20318241.3054                                   20318236.4734
                                                                        52.5004
        43.0004
 -15610643.68046 -12132690.18443
                  24398058.6884                                   24398054.4104
                                                                        41.2504
        21.2504
 -25246984.75448 -19660492.62546
                  21197133.5864                                   21197129.9694
                                                                        51.2504
        36.5004
 -43817181.22348 -34100652.75446
                  21222369.7194                                   21222366.7584
                                                                        52.0004
        39.7504
 09 10  1  0 44  0.0000000  0  9G29G10G23G05G30G02G31G13G04
  -3458864.71147  -2658133.46945
                  23434419.7814                                   23434416.9614
                                                                        43.5004
        30.0004
  -2173114.16847  -1653048.41444
                  23209206.3754                                   23209204.4884
                                                                        43.0004
        29.7504
 -29967710.39848 -23313804.07045
                  22410380.0704                                   22410374.7704
                                                                        49.0004
        33.2504
   3042854.12947   2383540.71145
                  23976659.5944                                   23976657.2114
                                                                        43.0004
        31.7504
 -19695438.21947 -15310797.00444
                  23708694.7034                                   23708693.5554
                                                                        42.5004
        28.2504
 -37798120.38348 -29440722.48447
                  20599626.7974                                   20599621.6374
                                                                        53.0004
        42.7504
 -14049196.58246 -10915978.05143
                  24695192.0234                                   24695187.9024
                                                                        39.5004
        21.2504
 -23787010.80548 -18522850.59046
                  21474957.2664                                   21474954.0044
                                                                        50.5004
        36.5004
 -42258543.52048 -32886129.85246
                  21518968.6174                                   21518966.0004
                                                                        50.5004
        40.0004
 09 10  1  0 44 30.0000000  0  9G29G10G23G05G30G02G31G13G04
  -3627097.77747  -2789224.16045
                  23402406.0004                                   23402402.8954
                                                                        44.5004
        30.5004
  -2367403.16847  -1804442.34845
                  23172234.6254                                   23172231.3594
                                                                        44.7504
        30.7504
 -29998434.52048 -23337744.96545
                  22404533.3984                                   22404527.6844
                                                                        49.2504
        32.2504
   2846040.59847   2230179.58245
                  23939207.2664                                   23939204.8634
                                                                        44.2504
        30.0004
 -19700119.43747 -15314444.79744
                  23707804.0944                                   23707801.9344
                                                                        42.5004
        25.2504
 -37894281.52048 -29515653.23047
                  20581327.9144                                   20581322.8094
                                                                        53.0004
        43.2504
 -14062749.18046 -10926538.53143
                  24692612.7734                                   24692609.5164
                                                                        40.5004
        22.0004
 -23901811.89848 -18612305.98046
                  21453111.2114                                   21453107.9384
                                                                        50.7504
        36.2504
 -42274887.05148 -32898865.07446
                  21515858.4534                                   21515855.6764
                                                                        52.0004
        39.5004
 09 10  1  0 45  0.0000000  0  9G29G10G23G05G30G02G31G13G04
  -3794942.09047  -2920011.92245
                  23370466.4774                                   23370463.1334
                                                                        44.2504
        30.5004
  -2561443.32847  -1955642.55545
                  23135310.7114                                   23135307.4694
                                                                        45.7504
        31.2504
 -30028615.71948 -23361262.70345
                  22398790.3524                                   22398784.4654
                                                                        49.0004
        31.7504
   2649395.94947   2076950.05945
                  23901786.8054                                   23901783.8554
                                                                        44.7504
        30.5004
 -19704352.75847 -15317743.53544
                  23706998.8444                                   23706997.0904
                                                                        43.0004
        25.2504
 -37989868.07448 -29590136.27747
                  20563138.3674                                   20563133.2074
                                                                        53.0004
        43.0004
 -14075881.41446 -10936771.48843
                  24690113.8134                                   24690110.2934
                                                                        39.5004
        22.5004
 -24015961.68748 -18701253.87546
                  21431389.2424                                   21431385.8554
                                                                        50.7504
        36.2504
 -42290791.43748 -32911258.09446
                  21512832.0944                                   21512829.1844
                                                                        51.0004
        38.7504
 09 10  1  0 45 30.0000000  0  9G29G10G23G05G30G02G31G13G04
  -3962393.71947  -3050493.71545
                  23338601.2974                                   23338598.5434
                                                                        45.0004
        31.2504
  -2755231.13747  -2106646.07845
                  23098433.8364                                   23098430.9884
                                                                        44.2504
        31.2504
 -30058253.69948 -23384357.26245
                  22393150.4614                                   22393145.5204
                                                                        48.5004
        32.5004
   2452923.86347   1923855.10544
                  23864399.3594                                   23864396.5204
                                                                        43.0004
        29.5004
 -19708139.82047 -15320694.53144
                  23706278.7424                                   23706276.3794
                                                                        43.2504
        27.0004
 -38084877.83648 -29664169.85247
                  20545058.6024                                   20545053.2854
                                                                        53.0004
        43.2504
 -14088593.55546 -10946676.93744
                  24687695.2114                                   24687691.1684
                                                                        40.7504
        24.2504
 -24129457.09848 -18789691.84846
                  21409792.1564                                   21409788.2934
                                                                        50.5004
        36.0004
 -42306256.40648 -32923308.68746
                  21509888.8444                                   21509886.3204
                                                                        50.5004
        39.0004
 09 10  1  0 46  0.0000000  0  9G29G10G23G05G30G02G31G13G04
  -4129452.72347  -3180669.55945
                  23306811.4844                                   23306808.6054
                                                                        44.0004
        31.7504
  -2948766.22347  -2257452.48845
                  23061604.7194                                   23061602.8324
                                                                        43.0004
        31.0004
 -30087353.71948 -23407032.55945
                  22387612.8284                                   22387607.4104
                                                                        48.0004
        32.0004
   2256623.50847   1770893.84045
                  23827044.7274                                   23827041.1484
                                                                        45.0004
        30.2504
 -19711485.75447 -15323301.76244
                  23705641.8524                                   23705639.4024
                                                                        44.7504
        26.0004
 -38179312.62548 -29737755.44947
                  20527088.2584                                   20527083.3714
                                                                        52.5004
        43.2504
 -14100891.45747 -10956259.60944
                  24685354.8134                                   24685351.4414
                                                                        42.5004
        26.2504
 -24242300.52348 -18877621.82846
                  21388318.5164                                   21388315.4654
                                                                        51.0004
        36.7504
 -42321286.82848 -32935020.74646
                  21507028.9534                                   21507026.3054
                                                                        50.5004
        39.5004
 09 10  1  0 46 30.0000000  0 10G29G10G23G05G30G02G31G13G04G25
  -4296119.79747  -3310540.00445
                  23275095.7034                                   23275092.6764
                                                                        44.5004
        31.5004
  -3142049.57847  -2408062.63345
                  23024823.8594                                   23024822.2344
                                                                        43.5004
        31.7504
 -30115920.13748 -23429292.04345
                  22382176.8674                                   22382171.5004
                                                                        48.7504
        32.7504
   2060493.20747   1618065.07445
                  23789722.5864                                   23789719.0554
                                                                        45.2504
        31.0004
 -19714397.19147 -15325570.42644
                  23705087.6254                                   23705085.5004
                                                                        45.0004
        26.0004
 -38273175.32048 -29810895.34847
                  20509226.8364                                   20509221.6644
                                                                        52.5004
        43.2504
 -14112780.40247 -10965523.65244
                  24683092.5004                                   24683088.9924
                                                                        43.0004
        28.7504
 -24354493.10248 -18965044.61746
                  21366969.3364                                   21366965.7384
                                                                        51.0004
        37.0004
 -42335887.12948 -32946397.64146
                  21504250.2814                                   21504247.5824
                                                                        50.5004
        39.2504
   7644466.37956   5992279.85252
                  24267016.3834                                   24267013.9494
                                                                        37.0004
        16.7504
 09 10  1  0 47  0.0000000  0  9G29G10G23G05G30G02G13G04G25
  -4462398.57047  -3440107.86745
                  23243453.2814                                   23243451.0274
                                                                        44.2504
        31.7504
  -3335085.18747  -2558479.85545
                  22988090.4774                                   22988088.3874
                                                                        44.2504
        31.2504
 -30143961.98848 -23451142.92245
                  22376840.7194                                   22376835.2114
                                                                        49.0004
        32.0004
   1864529.83647   1465366.40645
                  23752431.6414                                   23752428.8914
                                                                        45.2504
        31.5004
 -19716882.69947 -15327507.19544
                  23704614.3364                                   23704612.1294
                                                                        44.7504
        26.2504
 -38366471.37548 -29883593.73047
                  20491473.5314                                   20491468.1644
                                                                        52.2504
        43.5004
 -24466040.89148 -19051964.98446
                  21345742.2894                                   21345738.5084
                                                                        51.2504
        36.7504
 -42350065.58648 -32957445.73446
                  21501552.5474                                   21501549.5634
                                                                        50.7504
        39.0004
   7469454.40646   5855906.92243
                  24233713.3444                                   24233710.6524
                                                                        39.5004
        20.5004
 09 10  1  0 47 30.0000000  0  9G29G10G23G05G30G02G13G04G25
  -4628285.53947  -3569370.44545
                  23211886.2504                                   23211883.6644
                                                                        44.0004
        31.5004
  -3527870.10547  -2708701.79745
                  22951405.3054                                   22951402.3364
                                                                        45.0004
        31.7504
 -30171479.30148 -23472584.89545
                  22371603.9694                                   22371598.8714
                                                                        48.7504
        33.0004
   1668735.92647   1312799.80945
                  23715173.0234                                   23715170.4304
                                                                        43.2504
        31.0004
 -19718944.55247 -15329113.88944
                  23704222.6334                                   23704220.1094
                                                                        44.0004
        26.0004
 -38459199.13748 -29955849.26647
                  20473827.7114                                   20473823.0634
                                                                        52.5004
        43.5004
 -24576941.34448 -19138380.91046
                  21324638.4304                                   21324634.8014
                                                                        50.7504
        36.0004
 -42363822.61748 -32968165.45346
                  21498934.7274                                   21498932.2424
                                                                        51.2504
        40.0004
   7294719.97347   5719750.16044
                  24200463.4694                                   24200460.3404
                                                                        43.0004
        26.0004
 09 10  1  0 48  0.0000000  0  9G29G10G23G05G30G02G13G04G25
  -4793775.33647  -3698323.52745
                  23180394.8054                                   23180392.0824
                                                                        45.0004
        31.7504
  -3720399.04347  -2858724.32045
                  22914768.0554                                   22914765.1914
                                                                        46.0004
        31.7504
 -30198471.27048 -23493617.60245
                  22366468.0164                                   22366462.1644
                                                                        48.0004
        32.5004
   1473116.69547   1160369.28545
                  23677947.7504                                   23677945.4414
                                                                        43.5004
        31.5004
 -19720582.65247 -15330390.37144
                  23703910.3364                                   23703908.0944
                                                                        44.2504
        25.5004
 -38551354.69148 -30027658.70347
                  20456291.3834                                   20456286.0744
                                                                        52.5004
        43.2504
 -24687190.63348 -19224289.46145
                  21303658.9304                                   21303655.1374
                                                                        51.2504
        35.7504
 -42377156.91048 -32978555.78546
                  21496397.1094                                   21496394.2974
                                                                        51.2504
        39.2504
   7120268.76247   5583814.10544
                  24167266.2814                                   24167264.0434
                                                                        42.5004
        26.2504
 09 10  1  0 48 30.0000000  0  9G29G10G23G05G30G02G13G04G25
  -4958857.73047  -3826959.14845
                  23148980.1334                                   23148978.3984
                                                                        43.5004
        32.2504
  -3912662.00047  -3008539.62145
                  22878181.2974                                   22878178.3594
                                                                        45.2504
        31.5004
 -30224932.63348 -23514236.83645
                  22361432.5784                                   22361426.8714
                                                                        48.0004
        31.7504
   1277681.83647   1008082.41845
                  23640757.6094                                   23640755.6414
                                                                        42.7504
        31.7504
 -19721792.19547 -15331332.94944
                  23703680.3284                                   23703678.3714
                                                                        43.5004
        25.0004
 -38642930.13748 -30099015.98447
                  20438864.8984                                   20438859.7274
                                                                        52.7504
        43.2504
 -24796781.30148 -19309684.80146
                  21282804.6414                                   21282800.8754
                                                                        51.0004
        36.2504
 -42390063.53148 -32988612.92246
                  21493940.9694                                   21493938.1524
                                                                        50.7504
        38.7504
   6946110.60547   5448106.52744
                  24134124.8134                                   24134121.8914
                                                                        43.0004
        25.5004
 09 10  1  0 49  0.0000000  0  9G29G10G23G05G30G02G13G04G25
  -5123528.11747  -3955273.73845
                  23117644.6174                                   23117642.4414
                                                                        43.2504
        32.2504
  -4104654.18047  -3158143.88345
                  22841645.7734                                   22841643.5864
                                                                        45.0004
        31.2504
 -30250862.68048 -23534442.08645
                  22356497.7734                                   22356492.3404
                                                                        48.7504
        30.5004
   1082435.38347    855942.41445
                  23603604.3674                                   23603600.8284
                                                                        44.7504
        32.2504
 -19722574.18047 -15331942.35244
                  23703531.7034                                   23703529.0394
                                                                        45.0004
        27.0004
 -38733922.49248 -30169918.87147
                  20421549.3754                                   20421544.3444
                                                                        53.0004
        43.0004
 -24905709.14548 -19394563.62946
                  21262076.3204                                   21262072.5004
                                                                        50.2504
        36.5004
 -42402540.62548 -32998335.18446
                  21491566.6414                                   21491563.6684
                                                                        50.0004
        38.7504
   6772251.18846   5312631.68043
                  24101039.9064                                   24101037.7194
                                                                        40.5004
        22.2504
 09 10  1  0 49 30.0000000  0  9G29G10G23G05G30G02G13G04G25
  -5287788.02047  -4083268.46545
                  23086386.8834                                   23086384.6564
                                                                        43.5004
        32.2504
  -4296377.28547  -3307538.43045
                  22805162.3674                                   22805160.1214
                                                                        45.2504
        32.2504
 -30276267.12948 -23554237.82445
                  22351663.5864                                   22351658.1454
                                                                        48.0004
        31.2504
    887375.58247    703947.82845
                  23566485.4844                                   23566482.1214
                                                                        44.5004
        32.2504
 -19722935.38347 -15332223.84844
                  23703462.7424                                   23703460.4844
                                                                        45.0004
        26.5004
 -38824335.48848 -30240370.39547
                  20404344.5634                                   20404339.1054
                                                                        53.5004
        43.0004
 -25013977.06248 -19478928.23446
                  21241473.6094                                   21241469.8914
                                                                        50.5004
        37.2504
 -42414594.32448 -33007727.64146
                  21489272.8364                                   21489270.2274
                                                                        50.2504
        38.5004
   6598689.86746   5177389.09043
                  24068012.5314                                   24068009.7774
                                                                        39.7504
        21.0004
 09 10  1  0 50  0.0000000  0  9G29G10G23G05G30G02G13G04G25
  -5451639.01647  -4210944.55945
                  23055207.2814                                   23055204.8364
                                                                        43.5004
        32.7504
  -4487833.77347  -3456725.20345
                  22768729.7274                                   22768727.0554
                                                                        45.7504
        32.2504
 -30301152.76248 -23573629.32445
                  22346928.2664                                   22346923.1684
                                                                        48.0004
        32.2504
    692500.36747    552097.11345
                  23529401.2424                                   23529398.6884
                                                                        44.2504
        31.2504
 -19722882.93447 -15332183.05144
                  23703473.5084                                   23703470.6374
                                                                        45.5004
        26.2504
 -38914173.00848 -30310373.50847
                  20387248.6804                                   20387243.4614
                                                                        53.2504
        43.2504
 -25121589.04348 -19562781.70346
                  21220995.8364                                   21220992.0434
                                                                        50.2504
        36.0004
 -42426231.12148 -33016795.26246
                  21487058.6804                                   21487055.8204
                                                                        51.0004
        38.7504
   6425424.60246   5042377.25443
                  24035040.7274                                   24035038.5164
                                                                        39.5004
        20.5004
 09 10  1  0 50 30.0000000  0  9G29G10G23G05G30G02G13G04G25
  -5615078.41447  -4338299.92645
                  23024106.3914                                   23024103.3984
                                                                        43.5004
        33.0004
  -4679021.20747  -3605702.48045
                  22732348.3284                                   22732345.7584
                                                                        45.5004
        32.5004
 -30325520.94947 -23592617.48045
                  22342290.9774                                   22342285.3874
                                                                        47.5004
        31.5004
    497811.91047    400391.85945
                  23492353.2194                                   23492350.5354
                                                                        43.0004
        30.0004
 -19722419.88347 -15331822.30944
                  23703561.7424                                   23703559.6884
                                                                        46.0004
        28.0004
 -39003434.31248 -30379927.80947
                  20370262.7894                                   20370257.5904
                                                                        52.5004
        43.0004
 -25228544.47748 -19646123.56246
                  21200642.6644                                   21200639.3714
                                                                        50.5004
        36.2504
 -42437452.44948 -33025539.18746
                  21484923.0944                                   21484920.2384
                                                                        50.7504
        38.5004
   6252458.09446   4907598.09443
                  24002126.8284                                   24002123.5944
                                                                        41.0004
        19.2504
 09 10  1  0 51  0.0000000  0  9G29G10G23G05G30G02G13G04G25
  -5778105.51247  -4465334.03145
                  22993083.3284                                   22993080.3244
                                                                        45.0004
        33.0004
  -4869937.97747  -3754468.77745
                  22696017.6024                                   22696015.1684
                                                                        46.5004
        33.2504
 -30349375.55948 -23611205.54745
                  22337751.6564                                   22337746.2584
                                                                        48.2504
        32.0004
    303311.00847    248832.78545
                  23455341.1884                                   23455338.6764
                                                                        43.2504
        31.2504
 -19721550.56647 -15331144.97344
                  23703726.9614                                   23703724.7664
                                                                        45.2504
        27.7504
 -39092120.17648 -30449033.66447
                  20353386.8204                                   20353380.9774
                                                                        52.7504
        43.0004
 -25334843.49248 -19728953.93046
                  21180414.5394                                   21180410.6604
                                                                        50.2504
        36.7504
 -42448261.14148 -33033961.52346
                  21482866.3444                                   21482863.5944
                                                                        49.5004
        39.0004
   6079792.60947   4773053.51043
                  23969269.6024                                   23969266.6454
                                                                        42.5004
        21.5004
 09 10  1  0 51 30.0000000  0  9G29G10G23G05G30G02G13G04G25
  -5940717.05547  -4592044.33245
                  22962139.1954                                   22962136.1804
                                                                        43.5004
        33.0004
  -5060581.62947  -3903022.21945
                  22659739.0864                                   22659736.6414
                                                                        45.0004
        32.2504
 -30372717.20348 -23629393.84445
                  22333309.8834                                   22333304.9694
                                                                        48.5004
        33.0004
    109000.14547     97422.04345
                  23418364.6414                                   23418361.9654
                                                                        44.5004
        33.2504
 -19720277.59847 -15330153.09044
                  23703969.4534                                   23703967.1764
                                                                        45.7504
        28.0004
 -39180229.53948 -30517690.28947
                  20336619.6644                                   20336614.3954
                                                                        52.0004
        43.7504
 -25440484.40648 -19811271.51246
                  21160311.7734                                   21160308.3554
                                                                        50.0004
        36.7504
 -42458658.27748 -33042063.11346
                  21480887.5864                                   21480884.9224
                                                                        50.5004
        38.7504
   5907431.44147   4638746.09043
                  23936470.2814                                   23936467.8054
                                                                        42.7504
        22.2504
 09 10  1  0 52  0.0000000  0  9G29G10G23G05G30G02G13G04G25
  -6102909.36347  -4718427.94545
                  22931274.7974                                   22931271.7504
                                                                        44.0004
        32.0004
  -5250948.96947  -4051360.37945
                  22623513.6724                                   22623511.0554
                                                                        45.7504
        33.2504
 -30395547.74247 -23647183.89845
                  22328965.2894                                   22328959.8444
                                                                        47.5004
        32.5004
    -85118.08647    -53838.85545
                  23381425.7814                                   23381422.6454
                                                                        46.5004
        34.0004
 -19718602.44547 -15328847.83244
                  23704287.6094                                   23704286.1764
                                                                        45.0004
        26.0004
 -39267761.11348 -30585896.69547
                  20319962.9144                                   20319957.6524
                                                                        52.0004
        43.5004
 -25545465.77048 -19893075.15646
                  21140334.1954                                   21140330.7814
                                                                        50.5004
        36.7504
 -42468645.19148 -33049845.16446
                  21478987.3914                                   21478984.4774
                                                                        49.5004
        38.5004
   5735377.91847   4504678.42643
                  23903730.1024                                   23903727.4104
                                                                        42.0004
        22.5004
 09 10  1  0 52 30.0000000  0  9G29G10G23G05G30G02G13G04G25
  -6264680.68447  -4844483.51645
                  22900490.4774                                   22900487.8874
                                                                        43.2504
        32.5004
  -5441037.59047  -4199481.38745
                  22587340.7894                                   22587337.9694
                                                                        45.0004
        32.5004
 -30417869.22347 -23664577.28145
                  22324717.9694                                   22324712.5164
                                                                        47.7504
        31.5004
   -279040.88347   -204947.40645
                  23344523.2034                                   23344520.0394
                                                                        45.5004
        33.5004
 -19716528.67247 -15327231.95744
                  23704681.6484                                   23704680.5434
                                                                        42.5004
        25.7504
 -39354714.79748 -30653652.78547
                  20303416.3594                                   20303410.8984
                                                                        52.0004
        43.0004
 -25649787.85548 -19974365.10246
                  21120482.5864                                   21120479.0744
                                                                        50.0004
        36.7504
 -42478223.94548 -33057309.24246
                  21477164.5944                                   21477161.4534
                                                                        51.5004
        38.7504
   5563634.80947   4370852.74243
                  23871048.3914                                   23871046.0394
                                                                        42.5004
        23.7504
 09 10  1  0 53  0.0000000  0  9G29G10G23G05G30G02G13G04G25
  -4850606.04347  -3742607.17245
                  23169579.8914                                   23169577.0274
                                                                        44.2504
        32.7504
  -4055421.87547  -3119780.60945
                  22851014.8834                                   22851011.9734
                                                                        46.0004
        33.0004
 -28864265.54748 -22453977.05945
                  22620358.4614                                   22620353.1644
                                                                        48.5004
        30.5004
   1102656.64147    871700.06345
                  23607451.1884                                   23607448.0514
                                                                        46.5004
        33.0004
 -18138642.62546 -14097710.42644
                  24004943.7584                                   24004942.0234
                                                                        41.0004
        25.2504
 -37865670.03148 -29493358.16447
                  20586772.1174                                   20586766.3484
                                                                        52.7504
        43.2504
 -24178028.65648 -18827539.75846
                  21400549.2114                                   21400545.3204
                                                                        50.0004
        36.0004
 -40911978.34048 -31836858.21946
                  21775211.3914                                   21775208.5474
                                                                        51.0004
        38.2504
   6967628.28946   5464873.63744
                  24138219.4774                                   24138216.6054
                                                                        41.7504
        24.0004
 09 10  1  0 53 30.0000000  0  9G29G10G23G05G30G02G13G04G25
  -5011532.45747  -3868004.36345
                  23138956.9614                                   23138954.6214
                                                                        43.0004
        32.2504
  -4244951.52347  -3267465.94545
                  22814948.4064                                   22814945.8054
                                                                        46.5004
        32.5004
 -28885580.35547 -22470586.08245
                  22616303.1884                                   22616297.4534
                                                                        47.7504
        31.2504
    909124.97347    720896.15645
                  23570623.2734                                   23570620.1914
                                                                        43.5004
        31.5004
 -18135785.48447 -14095484.12143
                  24005488.0474                                   24005485.1094
                                                                        42.2504
        22.7504
 -37951471.41848 -29560216.36347
                  20570444.5944                                   20570439.3244
                                                                        52.5004
        43.2504
 -24281033.60548 -18907803.34846
                  21380948.1254                                   21380944.0314
                                                                        49.0004
        36.7504
 -40920750.41848 -31843693.69546
                  21773542.1644                                   21773539.3204
                                                                        51.0004
        37.5004
   6796509.54346   5331534.39143
                  24105656.0704                                   24105653.8484
                                                                        41.5004
        23.0004
 09 10  1  0 54  0.0000000  0  9G29G10G23G05G30G02G13G04G25
  -5172032.58647  -3993069.39145
                  23108415.0164                                   23108412.0744
                                                                        43.2504
        32.7504
  -4434198.15647  -3414930.83245
                  22778935.4384                                   22778933.0434
                                                                        45.0004
        33.0004
 -28906393.31647 -22486803.94145
                  22612342.3754                                   22612336.8984
                                                                        47.0004
        30.2504
    715792.37947    570247.41045
                  23533832.8054                                   23533830.0274
                                                                        45.0004
        31.0004
 -18132541.42247 -14092956.33644
                  24006105.3054                                   24006103.0164
                                                                        42.7504
        25.5004
 -38036695.23448 -29626624.51647
                  20554226.9144                                   20554221.4104
                                                                        52.0004
        43.0004
 -24383378.08648 -18987552.29746
                  21361472.4384                                   21361468.9774
                                                                        48.5004
        36.7504
 -40929120.72748 -31850216.07046
                  21771949.6484                                   21771946.5354
                                                                        50.0004
        38.0004
   6625708.69946   5198442.82043
                  24073154.0004                                   24073151.5784
                                                                        41.7504
        23.2504
 09 10  1  0 54 30.0000000  0  9G29G10G23G05G30G02G13G04G25
  -5332103.85947  -4117800.26245
                  23077954.1024                                   23077951.2814
                                                                        43.7504
        33.0004
  -4623159.52047  -3562173.45745
                  22742977.8284                                   22742975.1054
                                                                        44.5004
        33.0004
 -28926707.97747 -22502633.50445
                  22608475.9384                                   22608470.8404
                                                                        47.2504
        30.0004
    522660.89147    419755.38345
                  23497081.6484                                   23497078.4494
                                                                        45.0004
        31.7504
 -18128912.68447 -14090128.74244
                  24006796.0164                                   24006793.7704
                                                                        42.0004
        25.7504
 -38121341.95348 -29692582.94147
                  20538119.1724                                   20538113.8954
                                                                        52.2504
        43.5004
 -24485063.37948 -19066787.57046
                  21342122.5084                                   21342119.0084
                                                                        49.0004
        37.0004
 -40937092.21548 -31856427.62146
                  21770432.5394                                   21770429.4144
                                                                        50.5004
        37.2504
   6455226.90246   5065599.94143
                  24040712.5784                                   24040709.4654
                                                                        41.7504
        22.5004
 09 10  1  0 55  0.0000000  0  9G29G10G23G05G30G02G13G04G25
  -5491743.06247  -4242194.44145
                  23047576.1254                                   23047573.0704
                                                                        44.2504
        33.5004
  -4811832.01647  -3709190.96145
                  22707074.5784                                   22707071.9064
                                                                        45.5004
        33.2504
 -28946525.33247 -22518075.59845
                  22604704.7664                                   22604699.3634
                                                                        47.0004
        30.0004
    329733.48447    269422.46545
                  23460368.4774                                   23460365.8754
                                                                        45.5004
        34.5004
 -18124901.88747 -14087003.46544
                  24007559.4224                                   24007556.3484
                                                                        43.2504
        26.5004
 -38205410.24248 -29758090.66447
                  20522121.6094                                   20522116.1174
                                                                        52.0004
        43.2504
 -24586086.51648 -19145506.85246
                  21322898.3524                                   21322894.5704
                                                                        48.5004
        36.2504
 -40944665.53948 -31862328.85546
                  21768991.3134                                   21768988.0944
                                                                        49.7504
        37.7504
   6285068.18846   4933008.73843
                  24008331.4614                                   24008328.9694
                                                                        41.2504
        21.0004
 09 10  1  0 55 30.0000000  0  9G29G10G23G05G30G02G13G04G25
  -5650946.56247  -4366249.11745
                  23017280.4534                                   23017277.4654
                                                                        45.2504
        33.5004
  -5000212.45347  -3855980.91045
                  22671226.9144                                   22671224.1524
                                                                        46.0004
        33.0004
 -28965845.70347 -22533130.46545
                  22601028.6724                                   22601023.0394
                                                                        47.0004
        31.2504
    137013.32847    119250.91845
                  23423695.1804                                   23423692.6374
                                                                        45.5004
        34.7504
 -18120510.60247 -14083581.68044
                  24008395.3054                                   24008392.9844
                                                                        43.5004
        26.7504
 -38288898.16048 -29823146.19547
                  20506234.2974                                   20506228.9064
                                                                        52.0004
        42.7504
 -24686445.84848 -19223708.83246
                  21303800.2584                                   21303796.7344
                                                                        49.5004
        36.5004
 -40951840.88348 -31867919.97746
                  21767625.3754                                   21767623.0044
                                                                        48.5004
        38.0004
   6115237.28146   4800672.91443
                  23976014.4924                                   23976011.2154
                                                                        40.7504
        22.2504
 09 10  1  0 56  0.0000000  0  9G29G10G23G05G30G02G13G04G25
  -5809712.82047  -4489963.09045
                  22987068.3524                                   22987065.5084
                                                                        45.5004
        33.2504
  -5188299.55947  -4002542.22745
                  22635435.2194                                   22635432.3244
                                                                        46.0004
        33.5004
 -28984672.42647 -22547800.61345
                  22597446.4064                                   22597440.5084
                                                                        47.5004
        31.5004
    -55497.82847    -30757.66845
                  23387061.4534                                   23387058.9884
                                                                        46.0004
        34.2504
 -18115742.87547 -14079866.57444
                  24009302.1024                                   24009300.2074
                                                                        43.2504
        26.7504
 -38371806.18448 -29887749.85247
                  20490457.4144                                   20490452.1564
                                                                        51.7504
        42.7504
 -24786142.09848 -19301394.22346
                  21284829.0084                                   21284825.2894
                                                                        49.0004
        36.7504
 -40958621.41848 -31873203.50046
                  21766335.5554                                   21766332.8164
                                                                        49.5004
        38.0004
   5945735.71946   4668593.73443
                  23943759.3444                                   23943756.0474
                                                                        41.0004
        21.7504
 09 10  1  0 56 30.0000000  0  9G29G10G23G05G30G02G13G04G25
  -5968039.27347  -4613334.37945
                  22956939.9614                                   22956936.6724
                                                                        45.0004
        33.5004
  -5376090.41047  -4148872.71545
                  22599699.7424                                   22599696.5824
                                                                        45.7504
        33.5004
 -29003007.80947 -22562087.99645
                  22593956.9144                                   22593951.5944
                                                                        46.5004
        31.0004
   -247798.66447   -180602.53945
                  23350468.0084                                   23350465.2854
                                                                        44.0004
        33.7504
 -18110601.56646 -14075860.40644
                  24010280.1024                                   24010278.6644
                                                                        41.5004
        27.2504
 -38454134.32048 -29951901.63747
                  20474790.9844                                   20474785.6134
                                                                        51.5004
        43.0004
 -24885174.64148 -19378562.42246
                  21265983.5314                                   21265979.8244
                                                                        49.5004
        36.5004
 -40965008.84848 -31878180.76246
                  21765119.9304                                   21765117.5234
                                                                        48.5004
        38.0004
   5776566.38346   4536773.45743
                  23911567.9534                                   23911564.6054
                                                                        41.2504
        22.5004
 09 10  1  0 57  0.0000000  0  9G29G10G23G05G30G02G13G04G25
  -6125923.40247  -4736360.98845
                  22926895.3444                                   22926892.5824
                                                                        45.0004
        32.7504
  -5563583.18447  -4294970.93445
                  22564021.1254                                   22564017.8364
                                                                        47.2504
        33.0004
 -29020853.45747 -22575993.76645
                  22590561.2344                                   22590556.0474
                                                                        47.0004
        31.2504
   -439886.00847   -330281.05145
                  23313914.1644                                   23313911.9774
                                                                        45.7504
        32.2504
 -18105089.43746 -14071565.28144
                  24011329.0004                                   24011327.6094
                                                                        41.5004
        25.2504
 -38535881.90648 -30015601.04747
                  20459234.7814                                   20459229.4924
                                                                        51.7504
        43.0004
 -24983542.79748 -19455212.91846
                  21247264.6564                                   21247260.9064
                                                                        49.7504
        36.5004
 -40971004.55948 -31882852.78146
                  21763979.1334                                   21763976.0274
                                                                        50.0004
        37.7504
   5607732.12546   4405214.28944
                  23879439.5474                                   23879437.1524
                                                                        41.5004
        24.5004
 09 10  1  0 57 30.0000000  0  9G29G10G23G05G30G02G13G04G25
  -6283363.46947  -4859041.59445
                  22896935.5634                                   22896932.8054
                                                                        45.5004
        32.7504
  -5750775.59447  -4440835.09045
                  22528399.7584                                   22528396.1094
                                                                        46.0004
        33.5004
 -29038211.71947 -22589519.72745
                  22587257.6804                                   22587252.7974
                                                                        46.7504
        30.2504
   -631758.46147   -479792.04345
                  23277403.0234                                   23277399.3794
                                                                        47.0004
        33.2504
 -18099210.46946 -14066984.29744
                  24012447.9844                                   24012446.5904
                                                                        41.2504
        25.2504
 -38617049.18448 -30078848.27047
                  20443789.0314                                   20443783.6844
                                                                        52.5004
        43.0004
 -25081245.98448 -19531345.23046
                  21228672.3984                                   21228668.7974
                                                                        49.5004
        37.0004
 -40976610.66848 -31887221.20746
                  21762912.3674                                   21762909.4344
                                                                        49.7504
        38.0004
   5439235.77746   4273918.44543
                  23847375.7664                                   23847372.5124
                                                                        40.0004
        22.5004
 09 10  1  0 58  0.0000000  0  9G29G10G23G05G30G02G13G04G25
  -6440354.62147  -4981372.35545
                  22867061.5394                                   22867058.4024
                                                                        44.5004
        32.7504
  -5937663.58647  -4586462.11345
                  22492835.3444                                   22492832.6214
                                                                        46.5004
        33.2504
 -29055083.41047 -22602666.55545
                  22584047.7584                                   22584042.4184
                                                                        46.5004
        30.5004
   -823412.20747   -629132.65245
                  23240932.6024                                   23240929.2624
                                                                        47.7504
        33.2504
 -18092965.49247 -14062118.09844
                  24013636.6724                                   24013634.6024
                                                                        42.5004
        24.5004
 -38697633.89548 -30141641.53547
                  20428454.4304                                   20428448.7774
                                                                        52.0004
        42.7504
 -25178282.55948 -19606958.14846
                  21210206.6174                                   21210202.8954
                                                                        49.7504
        36.0004
 -40981827.39148 -31891286.23446
                  21761919.6024                                   21761917.2154
                                                                        49.5004
        37.5004
   5271081.53146   4142889.15243
                  23815376.6024                                   23815374.4224
                                                                        38.0004
        22.5004
 09 10  1  0 58 30.0000000  0  9G29G10G23G05G30G02G13G04G25
  -6596893.55147  -5103350.75845
                  22837272.8674                                   22837270.1054
                                                                        45.0004
        33.0004
  -6124243.77047  -4731849.31245
                  22457330.9224                                   22457327.9694
                                                                        46.5004
        34.5004
 -29071468.90247 -22615434.45345
                  22580929.2734                                   22580923.7344
                                                                        46.5004
        30.2504
  -1014843.96947   -778300.30945
                  23204504.5234                                   23204501.5234
                                                                        47.7504
        33.5004
 -18086356.42647 -14056968.17244
                  24014893.8054                                   24014892.1334
                                                                        43.7504
        25.5004
 -38777634.94948 -30203980.01647
                  20413230.7584                                   20413225.2424
                                                                        52.0004
        43.0004
 -25274650.63748 -19682050.11746
                  21191868.8364                                   21191865.2194
                                                                        49.5004
        36.7504
 -40986655.04348 -31895048.03946
                  21761001.1724                                   21760998.4654
                                                                        49.0004
        38.2504
   5103273.71946   4012129.84843
                  23783443.7114                                   23783442.1954
                                                                        39.5004
        22.7504
 09 10  1  0 59  0.0000000  0  9G29G10G23G05G30G02G13G04G25
  -6752977.14147  -5224974.36345
                  22807571.1724                                   22807568.3914
                                                                        45.7504
        34.0004
  -6310512.79747  -4876993.97345
                  22421884.8674                                   22421882.2624
                                                                        47.0004
        34.0004
 -29087369.74247 -22627824.66445
                  22577903.0474                                   22577898.0944
                                                                        45.7504
        30.5004
  -1206050.68748   -927292.59845
                  23168119.1724                                   23168115.7584
                                                                        48.0004
        34.2504
 -18079385.35547 -14051536.13744
                  24016220.6414                                   24016218.0394
                                                                        43.5004
        24.7504
 -38857050.58248 -30265862.32047
                  20398118.4614                                   20398113.0864
                                                                        52.0004
        42.7504
 -25370349.21548 -19756620.36746
                  21173657.8914                                   21173654.2584
                                                                        50.5004
        37.0004
 -40991094.84448 -31898507.60546
                  21760156.2584                                   21760153.2894
                                                                        49.0004
        37.2504
   4935815.87146   3881643.24644
                  23751578.4534                                   23751575.3594
                                                                        40.7504
        25.2504
 09 10  1  0 59 30.0000000  0  9G29G10G23G05G30G02G13G04G25
  -6908606.45747  -5346243.96945
                  22777955.7344                                   22777953.2774
                                                                        45.0004
        34.0004
  -6496472.58647  -5021897.70345
                  22386498.1884                                   22386495.0514
                                                                        45.0004
        34.0004
 -29102791.71147 -22639841.56644
                  22574968.6564                                   22574962.9924
                                                                        47.5004
        29.5004
  -1397033.36347  -1076109.99245
                  23131775.4454                                   23131772.7704
                                                                        47.0004
        33.5004
 -18072058.95747 -14045827.22743
                  24017614.9384                                   24017612.0004
                                                                        43.5004
        22.7504
 -38935884.90648 -30327291.65647
                  20383116.6174                                   20383111.5204
                                                                        51.5004
        43.0004
 -25465381.41848 -19830671.31246
                  21155573.8364                                   21155569.8364
                                                                        49.5004
        36.2504
 -40995152.77048 -31901669.64846
                  21759383.6564                                   21759380.7424
                                                                        49.0004
        37.5004
   4768706.73446   3751428.36344
                  23719778.5864                                   23719775.1254
                                                                        41.2504
        25.2504
 09 10  1  1  0  0.0000000  0  9G29G10G23G05G30G02G13G04G25
  -7063778.94947  -5467157.60945
                  22748427.7894                                   22748425.0394
                                                                        46.5004
        34.0004
  -6682119.45347  -5166557.67645
                  22351170.5164                                   22351167.7704
                                                                        46.0004
        34.5004
 -29117736.57847 -22651486.85545
                  22572125.0314                                   22572119.2504
                                                                        45.5004
        30.2504
  -1587789.64847  -1224751.28545
                  23095475.8984                                   23095472.7704
                                                                        47.0004
        34.2504
 -18064379.81647 -14039843.49643
                  24019076.2734                                   24019073.8674
                                                                        43.5004
        23.5004
 -39014136.31648 -30388266.78947
                  20368225.8444                                   20368220.5594
                                                                        51.2504
        42.7504
 -25559746.17648 -19904202.23046
                  21137616.5944                                   21137613.1024
                                                                        49.7504
        37.2504
 -40998828.84448 -31904534.16446
                  21758684.5554                                   21758681.2424
                                                                        49.7504
        37.5004
   4601950.67247   3621488.54744
                  23688045.6414                                   23688042.9304
                                                                        42.5004
        25.7504
 09 10  1  1  0 30.0000000  0  9G29G10G23G05G30G02G13G04G25
  -7218490.37947  -5587711.98445
                  22718986.8914                                   22718984.1024
                                                                        45.2504
        34.5004
  -6867449.62547  -5310970.64545
                  22315903.3134                                   22315900.2664
                                                                        46.2504
        34.5004
 -29132204.90247 -22662760.81244
                  22569371.6804                                   22569365.7074
                                                                        46.2504
        29.7504
  -1778317.12947  -1373214.35545
                  23059219.9454                                   23059216.6524
                                                                        47.5004
        34.5004
 -18056349.62947 -14033586.25044
                  24020604.0004                                   24020602.3714
                                                                        42.0004
        24.0004
 -39091803.71148 -30448786.81647
                  20353446.2894                                   20353441.0124
                                                                        51.7504
        43.0004
 -25653441.49648 -19977211.56246
                  21119786.8984                                   21119783.0904
                                                                        50.0004
        36.7504
 -41002124.26648 -31907102.07046
                  21758057.5394                                   21758055.0314
                                                                        49.2504
        36.7504
   4435551.26647   3491826.69943
                  23656381.0864                                   23656377.5124
                                                                        42.5004
        22.7504
 09 10  1  1  1  0.0000000  0  9G29G10G23G05G30G02G13G04G25
  -7372738.09447  -5707905.03545
                  22689634.5474                                   22689632.1134
                                                                        45.7504
        34.0004
  -7052461.37947  -5455135.69145
                  22280696.3984                                   22280693.6644
                                                                        46.2504
        34.7504
 -29146198.52047 -22673664.93044
                  22566708.1644                                   22566703.1764
                                                                        46.2504
        29.2504
  -1968611.97347  -1521496.06645
                  23023008.0704                                   23023004.9494
                                                                        46.7504
        33.7504
 -18047970.90247 -14027057.41443
                  24022198.5164                                   24022197.1054
                                                                        42.2504
        23.7504
 -39168886.85948 -30508851.60947
                  20338777.9774                                   20338772.6484
                                                                        52.2504
        42.5004
 -25746467.14148 -20049699.08246
                  21102084.4224                                   21102080.2734
                                                                        49.7504
        36.5004
 -41005040.03948 -31909374.09046
                  21757502.7424                                   21757499.7464
                                                                        49.2504
        37.0004
   4269511.65646   3362445.19143
                  23624784.6724                                   23624781.6844
                                                                        41.2504
        22.0004
 09 10  1  1  1 30.0000000  0  9G29G10G23G05G30G02G13G04G25
  -7526519.09047  -5827734.39845
                  22660371.2664                                   22660368.4694
                                                                        45.5004
        34.0004
  -7237151.01247  -5599049.76245
                  22245551.4384                                   22245548.4304
                                                                        46.2504
        33.5004
 -29159719.02347 -22684200.37545
                  22564136.0784                                   22564130.0314
                                                                        45.0004
        30.0004
  -2158671.44947  -1669594.36345
                  22986840.7504                                   22986837.5434
                                                                        46.7504
        33.5004
 -18039246.03947 -14020258.91044
                  24023858.6884                                   24023857.4844
                                                                        43.7504
        26.5004
 -39245384.73848 -30568460.34847
                  20324220.9534                                   20324215.4964
                                                                        52.2504
        42.5004
 -25838822.62148 -20121664.35246
                  21084509.9384                                   21084506.2774
                                                                        49.0004
        36.2504
 -41007577.76248 -31911351.53946
                  21757019.5314                                   21757016.7384
                                                                        49.5004
        36.7504
   4103835.29746   3233346.74643
                  23593257.5634                                   23593254.8444
                                                                        40.5004
        22.2504
 09 10  1  1  2  0.0000000  0  9G29G10G23G05G30G02G13G04G25
  -7679830.12147  -5947197.57045
                  22631197.1484                                   22631194.5634
                                                                        45.5004
        34.7504
  -7421515.38347  -5742710.30945
                  22210467.9384                                   22210465.4884
                                                                        45.5004
        34.7504
 -29172767.68747 -22694368.16845
                  22561652.6254                                   22561647.3204
                                                                        45.2504
        30.0004
  -2348492.70747  -1817507.06645
                  22950719.1174                                   22950716.0824
                                                                        47.0004
        34.0004
 -18030177.39547 -14013192.49244
                  24025584.1094                                   24025583.1764
                                                                        43.5004
        26.0004
 -39321296.01248 -30627612.00847
                  20309775.7114                                   20309770.1484
                                                                        52.0004
        42.7504
 -25930505.47748 -20193105.51246
                  21067063.5394                                   21067059.5784
                                                                        49.5004
        36.7504
 -41009738.28948 -31913035.12146
                  21756608.4454                                   21756605.6844
                                                                        49.5004
        37.5004
   3938525.91446   3104534.27743
                  23561800.0004                                   23561797.3244
                                                                        41.2504
        22.2504
 09 10  1  1  2 30.0000000  0  9G29G10G23G05G30G02G13G04G25
  -6257246.05947  -4838690.53545
                  22901905.4774                                   22901903.1764
                                                                        45.2504
        34.0004
  -6030128.53147  -4658512.77745
                  22475240.4304                                   22475237.3954
                                                                        46.5004
        34.7504
 -27609928.19547 -21476571.10545
                  22859050.8284                                   22859045.1134
                                                                        45.0004
        30.0004
   -962649.81647   -737629.46945
                  23214436.0004                                   23214432.8834
                                                                        47.5004
        34.2504
 -16445350.61747 -12778262.60544
                  24327166.8984                                   24327166.0474
                                                                        44.0004
        25.0004
 -37821200.44548 -29458706.37147
                  20595234.4614                                   20595228.5744
                                                                        52.7504
        43.0004
 -24446095.05948 -19036422.05146
                  21349537.0314                                   21349533.5554
                                                                        49.2504
        37.2504
 -39436105.63348 -30686827.96146
                  22056060.6954                                   22056058.4804
                                                                        49.5004
        36.5004
   5349009.65247   4203612.50444
                  23830206.3444                                   23830203.4654
                                                                        42.0004
        24.0004
 09 10  1  1  3  0.0000000  0  8G29G10G23G05G02G13G04G25
  -6409609.81647  -4957415.57845
                  22872911.6484                                   22872909.1134
                                                                        44.0004
        33.5004
  -6213834.72747  -4801660.41045
                  22440281.7504                                   22440279.5394
                                                                        46.5004
        35.0004
 -27622039.06247 -21486008.15244
                  22856746.5314                                   22856740.8134
                                                                        43.7504
        29.5004
  -1151987.55947   -885165.41845
                  23178406.7194                                   23178403.3134
                                                                        47.0004
        35.0004
 -37895937.91448 -29516943.36747
                  20581012.3054                                   20581006.6174
                                                                        51.7504
        43.2504
 -24536433.21948 -19106815.44146
                  21332346.6174                                   21332343.2154
                                                                        48.5004
        36.5004
 -39437516.06648 -30687926.92646
                  22055792.2734                                   22055790.0124
                                                                        49.2504
        36.7504
   5184443.21547   4075378.98443
                  23798890.5234                                   23798887.6604
                                                                        42.5004
        23.7504
 09 10  1  1  3 30.0000000  0  8G29G10G23G05G02G13G04G25
  -6561499.98447  -5075771.57045
                  22844007.5864                                   22844005.2424
                                                                        45.5004
        34.0004
  -6397212.88747  -4944552.51245
                  22405386.2894                                   22405383.3754
                                                                        46.2504
        35.2504
 -27633688.07847 -21495085.27344
                  22854529.5314                                   22854524.0824
                                                                        44.5004
        29.2504
  -1341084.12547  -1032513.35245
                  23142422.6174                                   23142419.1914
                                                                        47.0004
        34.5004
 -37970092.39148 -29574726.09447
                  20566901.0474                                   20566895.6254
                                                                        52.2504
        43.0004
 -24626102.27348 -19176687.44146
                  21315283.1024                                   21315279.0864
                                                                        48.2504
        36.7504
 -39438558.62948 -30688739.31246
                  22055593.9924                                   22055591.2544
                                                                        49.0004
        36.5004
   5020248.49647   3947435.13344
                  23767645.1484                                   23767642.4734
                                                                        43.5004
        25.5004
 09 10  1  1  4  0.0000000  0  8G29G10G23G05G02G13G04G25
  -6712909.91447  -5193753.35945
                  22815195.4304                                   22815193.2154
                                                                        45.7504
        34.2504
  -6580255.41847  -5087183.00845
                  22370554.4844                                   22370551.5864
                                                                        46.5004
        34.7504
 -27644873.09847 -21503800.88344
                  22852401.1644                                   22852395.6724
                                                                        45.0004
        29.7504
  -1529933.05147  -1179668.48445
                  23106485.9224                                   23106483.2544
                                                                        47.5004
        34.2504
 -38043658.58248 -29632050.42247
                  20552901.6644                                   20552896.2814
                                                                        52.2504
        42.5004
 -24715097.27348 -19246034.19146
                  21298348.0234                                   21298344.2074
                                                                        49.7504
        37.0004
 -39439229.47348 -30689261.95746
                  22055465.9844                                   22055463.0594
                                                                        49.7504
        36.5004
   4856433.09047   3819786.82444
                  23736471.9844                                   23736468.9844
                                                                        43.7504
        27.0004
 09 10  1  1  4 30.0000000  0  8G29G10G23G05G02G13G04G25
  -6863831.66447  -5311354.72345
                  22786476.4694                                   22786473.2464
                                                                        46.0004
        34.5004
  -6762954.64147  -5229546.00445
                  22335788.2504                                   22335785.2154
                                                                        46.2504
        35.5004
 -27655590.88347 -21512152.39844
                  22850362.1724                                   22850356.0864
                                                                        44.0004
        28.7504
  -1718526.79747  -1326624.76245
                  23070597.5634                                   23070594.9264
                                                                        45.7504
        35.0004
 -38116631.19948 -29688912.20347
                  20539015.5944                                   20539009.9694
                                                                        52.5004
        42.5004
 -24803412.87948 -19314851.49246
                  21281542.0474                                   21281537.9494
                                                                        49.7504
        36.2504
 -39439525.74248 -30689492.77346
                  22055409.6094                                   22055407.1174
                                                                        49.5004
        36.5004
   4693005.07047   3692440.37144
                  23705372.2034                                   23705369.5704
                                                                        42.5004
        25.7504
 09 10  1  1  5  0.0000000  0  8G29G10G23G05G02G13G04G25
  -7014264.46147  -5428575.09445
                  22757850.0164                                   22757847.1174
                                                                        45.2504
        34.5004
  -6945309.70747  -5371640.80945
                  22301086.7344                                   22301083.6134
                                                                        46.0004
        35.2504
 -27665844.93047 -21520142.53944
                  22848409.9144                                   22848404.8484
                                                                        43.2504
        29.0004
  -1906864.34447  -1473381.40645
                  23034758.6484                                   23034755.6914
                                                                        47.2504
        35.5004
 -38189012.03948 -29745312.85947
                  20525242.0004                                   20525236.3834
                                                                        51.2504
        42.5004
 -24891050.41448 -19383140.50846
                  21264865.0164                                   21264861.3164
                                                                        49.0004
        36.2504
 -39439450.82448 -30689434.36346
                  22055424.4694                                   22055421.3554
                                                                        48.5004
        37.0004
   4529965.41447   3565396.52043
                  23674347.5474                                   23674344.5394
                                                                        42.5004
        23.7504
 09 10  1  1  5 30.0000000  0  8G29G10G23G05G02G13G04G25
  -7164210.69947  -5545416.32845
                  22729316.3754                                   22729313.8324
                                                                        46.5004
        35.0004
  -7127323.44147  -5513469.70345
                  22266450.9224                                   22266447.9964
                                                                        47.2504
        34.7504
 -27675642.20747 -21527776.84444
                  22846546.4384                                   22846541.0004
                                                                        45.5004
        29.5004
  -2094948.24247  -1619940.35945
                  22998967.3134                                   22998964.1294
                                                                        46.0004
        35.2504
 -38260805.48848 -29801255.82447
                  20511580.2734                                   20511574.9654
                                                                        52.0004
        43.0004
 -24978014.13748 -19450904.45746
                  21248316.3984                                   21248312.9414
                                                                        50.2504
        36.5004
 -39439010.87948 -30689091.48046
                  22055507.7894                                   22055504.8594
                                                                        48.5004
        37.0004
   4367312.60546   3438654.10943
                  23643395.5234                                   23643391.5084
                                                                        41.5004
        22.0004
 09 10  1  1  6  0.0000000  0  8G29G10G23G05G02G13G04G25
  -7313671.35547  -5661879.19545
                  22700875.0784                                   22700872.1024
                                                                        47.0004
        34.0004
  -7308996.54747  -5655033.14545
                  22231879.4774                                   22231876.9964
                                                                        47.5004
        35.5004
 -27684988.26647 -21535059.48844
                  22844767.6804                                   22844761.8284
                                                                        45.5004
        29.0004
  -2282779.80947  -1766302.73445
                  22963224.1484                                   22963220.6254
                                                                        46.2504
        35.0004
 -38332014.82048 -29856743.61747
                  20498029.8984                                   20498024.0594
                                                                        52.0004
        43.0004
 -25064308.07048 -19518146.47346
                  21231895.4064                                   21231891.7154
                                                                        49.7504
        37.2504
 -39438211.25848 -30688468.37946
                  22055659.7504                                   22055656.8244
                                                                        49.2504
        36.2504
   4205045.81946   3312212.53743
                  23612516.4064                                   23612513.4734
                                                                        40.0004
        22.0004
 09 10  1  1  6 30.0000000  0  8G29G10G23G05G02G13G04G25
  -7462646.29347  -5777963.56645
                  22672525.6254                                   22672523.2854
                                                                        46.5004
        35.0004
  -7490328.49247  -5796330.80146
                  22197373.6484                                   22197370.1764
                                                                        47.0004
        36.2504
 -27693887.35547 -21541993.81644
                  22843074.1414                                   22843068.2854
                                                                        45.0004
        29.2504
  -2470358.59447  -1912468.03145
                  22927529.1954                                   22927525.9304
                                                                        47.0004
        35.0004
 -38402642.09848 -29911777.88347
                  20484589.9694                                   20484584.4574
                                                                        51.5004
        43.0004
 -25149933.57448 -19584867.62146
                  21215601.4774                                   21215597.6024
                                                                        49.5004
        36.7504
 -39437055.61347 -30687567.90646
                  22055879.9144                                   22055877.0394
                                                                        47.5004
        36.2504
   4043165.69546   3186072.20743
                  23581711.8754                                   23581708.8134
                                                                        40.5004
        22.7504
 09 10  1  1  7  0.0000000  0  8G29G10G23G05G02G13G04G25
  -7611133.13747  -5893667.61345
                  22644269.5164                                   22644267.1844
                                                                        47.0004
        34.7504
  -7671317.58647  -5937361.34446
                  22162932.4454                                   22162929.9494
                                                                        47.5004
        36.0004
 -27702342.48847 -21548582.27344
                  22841465.3054                                   22841459.7584
                                                                        43.7504
        29.5004
  -2657682.57047  -2058434.78545
                  22891882.2034                                   22891879.7194
                                                                        46.2504
        34.5004
 -38472687.57848 -29966358.79747
                  20471260.5704                                   20471254.9964
                                                                        51.2504
        43.5004
 -25234891.13348 -19651068.31246
                  21199434.3204                                   21199430.7584
                                                                        51.0004
        36.7504
 -39435546.25448 -30686391.78546
                  22056167.0234                                   22056164.4494
                                                                        48.7504
        36.2504
   3881674.73846   3060235.14843
                  23550981.4224                                   23550978.3554
                                                                        41.2504
        23.5004
 09 10  1  1  7 30.0000000  0  8G29G10G23G05G02G13G04G25
  -7759128.35247  -6008988.55945
                  22616107.4694                                   22616104.9844
                                                                        46.5004
        35.0004
  -7851959.55147  -6078121.31246
                  22128557.1484                                   22128554.4774
                                                                        47.0004
        36.0004
 -27710353.16447 -21554824.47744
                  22839941.1024                                   22839935.5394
                                                                        44.5004
        29.2504
  -2844748.10947  -2204200.11745
                  22856285.5704                                   22856282.1024
                                                                        47.5004
        35.2504
 -38542149.28148 -30020484.81247
                  20458042.5164                                   20458036.9614
                                                                        52.0004
        43.0004
 -25319178.25448 -19716746.54746
                  21183394.9144                                   21183391.4494
                                                                        49.5004
        37.0004
 -39433682.78548 -30684939.65645
                  22056521.6414                                   22056518.7854
                                                                        48.0004
        35.7504
   3720578.02046   2934705.28544
                  23520325.6094                                   23520323.0984
                                                                        41.0004
        26.0004
 09 10  1  1  8  0.0000000  0  8G29G10G23G05G02G13G04G25
  -7906632.46947  -6123926.81245
                  22588038.0084                                   22588035.3874
                                                                        46.5004
        35.2504
  -8032255.16447  -6218611.39145
                  22094247.9924                                   22094245.1524
                                                                        47.0004
        35.7504
 -27717925.27747 -21560724.84444
                  22838499.9304                                   22838494.8204
                                                                        45.2504
        29.5004
  -3031555.75847  -2349764.45746
                  22820737.0784                                   22820734.1914
                                                                        46.5004
        36.0004
 -38611030.71548 -30074158.65647
                  20444934.4064                                   20444929.4184
                                                                        51.5004
        42.7504
 -25402798.97348 -19781905.53146
                  21167482.4454                                   21167478.7814
                                                                        50.0004
        36.7504
 -39431470.66848 -30683215.90245
                  22056942.7814                                   22056939.8244
                                                                        48.5004
        35.7504
   3559874.28946   2809481.65244
                  23489744.7194                                   23489742.0164
                                                                        41.0004
        27.0004
 09 10  1  1  8 30.0000000  0  8G29G10G23G05G02G13G04G25
  -8053642.23047  -6238479.85945
                  22560062.6094                                   22560060.6054
                                                                        47.0004
        35.0004
  -8212201.09047  -6358829.01245
                  22060005.6724                                   22060002.6884
                                                                        47.2504
        35.5004
 -27725059.86747 -21566284.19145
                  22837142.6024                                   22837137.0164
                                                                        45.0004
        30.0004
  -3218103.11347  -2495125.99246
                  22785238.3054                                   22785235.9104
                                                                        46.2504
        36.0004
 -38679330.60548 -30127379.36347
                  20431937.7974                                   20431932.6914
                                                                        50.5004
        42.7504
 -25485752.29348 -19846544.47346
                  21151697.1174                                   21151693.3094
                                                                        50.7504
        36.0004
 -39428910.54748 -30681220.96946
                  22057429.8984                                   22057427.0354
                                                                        49.0004
        36.2504
   3399567.76247   2684567.49244
                  23459239.4614                                   23459236.7034
                                                                        42.0004
        28.7504
 09 10  1  1  9  0.0000000  0  8G29G10G23G05G02G13G04G25
  -8200157.47347  -6352647.57046
                  22532182.0634                                   22532179.6604
                                                                        47.0004
        36.0004
  -8391797.23848  -6498774.06645
                  22025829.6414                                   22025826.6764
                                                                        48.0004
        35.5004
 -27731761.86747 -21571506.47344
                  22835866.8984                                   22835861.4884
                                                                        46.0004
        28.7504
  -3404389.71547  -2640284.29345
                  22749788.8914                                   22749786.0274
                                                                        47.2504
        35.5004
 -38747051.70348 -30180149.12147
                  20419050.8054                                   20419045.6724
                                                                        51.0004
        42.7504
 -25568040.15648 -19910664.85946
                  21136037.7814                                   21136034.6414
                                                                        50.5004
        36.0004
 -39426006.93448 -30678958.41846
                  22057982.1884                                   22057979.6454
                                                                        49.7504
        36.0004
   3239658.48446   2559962.94544
                  23428809.0944                                   23428806.9574
                                                                        41.0004
        25.7504
 09 10  1  1  9 30.0000000  0  8G29G10G23G05G02G13G04G25
  -8346173.89547  -6466426.57845
                  22504396.2194                                   22504393.2464
                                                                        47.0004
        35.2504
  -8571038.85947  -6638442.83645
                  21991720.8754                                   21991718.1254
                                                                        47.0004
        35.2504
 -27738030.25047 -21576390.85244
                  22834674.2114                                   22834668.5634
                                                                        46.2504
        27.7504
  -3590410.94548  -2785235.89846
                  22714390.0084                                   22714386.9574
                                                                        48.0004
        36.0004
 -38814190.93048 -30232465.43747
                  20406274.7734                                   20406269.2854
                                                                        51.2504
        43.0004
 -25649660.07048 -19974264.75446
                  21120506.3054                                   21120502.7074
                                                                        50.7504
        36.5004
 -39422757.91048 -30676426.68745
                  22058600.5704                                   22058597.6954
                                                                        49.2504
        35.5004
   3080152.64846   2435672.72344
                  23398456.4304                                   23398453.8404
                                                                        40.7504
        24.5004
 09 10  1  1 10  0.0000000  0  8G29G10G23G05G02G13G04G25
  -8491686.59047  -6579813.08645
                  22476705.9774                                   22476702.7664
                                                                        47.7504
        34.5004
  -8749921.56647  -6777831.94946
                  21957680.7504                                   21957677.4614
                                                                        47.7504
        36.2504
 -27743865.87547 -21580938.03544
                  22833563.0394                                   22833557.5594
                                                                        46.5004
        28.5004
  -3776162.27748  -2929977.14845
                  22679043.1024                                   22679039.8054
                                                                        48.0004
        35.7504
 -38880746.99648 -30284327.30547
                  20393609.1334                                   20393604.2584
                                                                        52.2504
        42.7504
 -25730610.53548 -20037343.02746
                  21105101.7504                                   21105098.1804
                                                                        51.0004
        36.5004
 -39419164.24248 -30673626.42645
                  22059284.2504                                   22059281.6454
                                                                        48.7504
        35.2504
   2921053.86746   2311699.70343
                  23368180.1094                                   23368178.1604
                                                                        41.0004
        22.2504
 09 10  1  1 10 30.0000000  0  8G29G10G23G05G02G13G04G25
  -8636701.19947  -6692811.48045
                  22449110.4064                                   22449107.2074
                                                                        47.0004
        34.7504
  -8928450.28947  -6916945.16445
                  21923707.9224                                   21923704.7034
                                                                        46.2504
        35.5004
 -27749278.15647 -21585155.38344
                  22832533.5084                                   22832528.0434
                                                                        46.2504
        27.2504
  -3961649.02748  -3074512.23845
                  22643745.6024                                   22643742.8754
                                                                        48.5004
        34.7504
 -38946726.79348 -30335740.14147
                  20381053.8594                                   20381048.6054
                                                                        52.2504
        43.0004
 -25810897.85948 -20099904.54746
                  21089823.8834                                   21089820.1484
                                                                        51.5004
        36.7504
 -39415234.72748 -30670564.45746
                  22060031.8134                                   22060029.5434
                                                                        48.2504
        36.0004
   2762358.13346   2188040.74243
                  23337982.2194                                   23337978.9844
                                                                        40.7504
        22.5004
 09 10  1  1 11  0.0000000  0  8G29G10G23G05G02G13G04G25
  -8781210.50847  -6805416.11345
                  22421611.2274                                   22421608.3204
                                                                        47.7504
        35.0004
  -9106618.50847  -7055777.54746
                  21889803.5084                                   21889801.0864
                                                                        46.7504
        36.2504
 -27754265.15647 -21589041.33644
                  22831584.3524                                   22831579.2234
                                                                        46.2504
        26.0004
  -4146864.10948  -3218835.60546
                  22608500.6564                                   22608497.5904
                                                                        48.2504
        36.0004
 -39012126.06648 -30386700.62947
                  20368608.7734                                   20368604.0554
                                                                        52.2504
        42.7504
 -25890518.42248 -20161946.50846
                  21074672.5084                                   21074668.6994
                                                                        50.0004
        36.5004
 -39410966.60547 -30667238.60245
                  22060844.6254                                   22060841.9614
                                                                        47.5004
        35.2504
   2604072.32046   2064701.15643
                  23307861.5864                                   23307858.1134
                                                                        41.2504
        23.2504
 09 10  1  1 11 30.0000000  0  8G29G10G23G05G02G13G04G25
  -7349788.73448  -5690022.52346
                  22694001.5784                                   22693998.8484
                                                                        48.0004
        36.0004
  -7708998.41047  -5966722.92646
                  22155761.6884                                   22155759.1214
                                                                        47.2504
        36.0004
 -26183409.10947 -20364997.67644
                  23130508.4534                                   23130502.6884
                                                                        45.7504
        27.0004
  -2756380.89848  -2135342.24246
                  22873101.2734                                   22873097.7774
                                                                        48.2504
        36.7504
 -37501523.26648 -29209607.52747
                  20656066.9694                                   20656061.6844
                                                                        52.7504
        42.7504
 -24394050.41848 -18995867.50845
                  21359441.1334                                   21359437.0554
                                                                        51.0004
        35.7504
 -37830942.57448 -29436051.05145
                  22361512.7034                                   22361509.8484
                                                                        48.2504
        35.5004
   4021624.34047   3169287.19144
                  23577612.6174                                   23577609.2704
                                                                        42.0004
        25.5004
 09 10  1  1 12  0.0000000  0  8G29G10G23G05G02G13G04G25
  -7493284.77347  -5801837.59845
                  22666695.5164                                   22666692.4924
                                                                        46.5004
        35.5004
  -7886441.49247  -6104990.23846
                  22121995.9924                                   22121992.5554
                                                                        47.5004
        36.2504
 -26187555.29747 -20368228.47744
                  23129720.0634                                   23129713.6374
                                                                        46.2504
        27.5004
  -2941051.01248  -2279241.08646
                  22837959.1644                                   22837956.6484
                                                                        48.5004
        36.2504
 -37565765.42248 -29259666.35247
                  20643842.1024                                   20643837.0824
                                                                        52.0004
        42.7504
 -24472341.66848 -19056873.66046
                  21344542.5004                                   21344538.7384
                                                                        51.2504
        37.0004
 -37826006.89548 -29432205.09045
                  22362452.1094                                   22362449.0664
                                                                        48.5004
        35.5004
   3864163.30147   3046590.32044
                  23547649.0554                                   23547645.5554
                                                                        43.2504
        26.7504
 09 10  1  1 12 30.0000000  0  8G29G10G23G05G02G13G04G25
  -7636271.93047  -5913256.14846
                  22639485.7974                                   22639483.2034
                                                                        47.2504
        36.0004
  -8063519.44148  -6242973.02745
                  22088298.6564                                   22088295.6254
                                                                        49.0004
        35.7504
 -26191284.72347 -20371134.50444
                  23129009.6954                                   23129004.7704
                                                                        45.0004
        28.0004
  -3125445.77748  -2422925.39846
                  22802870.6884                                   22802867.4804
                                                                        48.0004
        37.0004
 -37629429.69148 -29309274.86347
                  20631727.1254                                   20631721.9384
                                                                        52.0004
        42.7504
 -24549968.83248 -19117362.35246
                  21329770.6644                                   21329767.0204
                                                                        51.2504
        36.7504
 -37820739.94547 -29428100.97745
                  22363454.7734                                   22363451.5744
                                                                        47.5004
        35.5004
   3707118.48847   2924217.80544
                  23517763.8984                                   23517760.9734
                                                                        43.2504
        27.7504
 09 10  1  1 13  0.0000000  0  8G29G10G23G05G02G13G04G25
  -7778746.00848  -6024274.89545
                  22612373.7974                                   22612371.3714
                                                                        48.0004
        35.5004
  -8240228.69148  -6380668.58245
                  22054672.1484                                   22054669.0514
                                                                        48.2504
        35.7504
 -26194598.94147 -20373716.99244
                  23128379.1884                                   23128373.5084
                                                                        45.2504
        27.0004
  -3309561.12947  -2566391.83646
                  22767834.1024                                   22767831.2114
                                                                        47.5004
        36.2504
 -37692515.36348 -29358432.50847
                  20619722.3284                                   20619716.9964
                                                                        51.7504
        42.5004
 -24626931.42248 -19177333.19546
                  21315125.1094                                   21315121.5044
                                                                        51.2504
        37.0004
 -37815143.28148 -29423739.94546
                  22364519.1884                                   22364516.8554
                                                                        48.0004
        36.0004
   3550492.94147   2802171.97744
                  23487958.7734                                   23487955.8754
                                                                        42.0004
        26.0004
 09 10  1  1 13 30.0000000  0  8G29G10G23G05G02G13G04G25
  -7920705.17647  -6134892.39545
                  22585359.4694                                   22585357.6134
                                                                        47.5004
        35.7504
  -8416566.20748  -6518074.48446
                  22021116.0004                                   22021113.2424
                                                                        48.2504
        36.7504
 -26197499.25847 -20375976.99644
                  23127827.4144                                   23127821.5984
                                                                        44.7504
        28.0004
  -3493394.97347  -2709638.96946
                  22732851.6644                                   22732848.9534
                                                                        47.5004
        37.0004
 -37755021.94148 -29407138.92647
                  20607827.7344                                   20607822.6094
                                                                        52.2504
        42.5004
 -24703228.77048 -19236785.67246
                  21300605.9774                                   21300602.1954
                                                                        51.2504
        36.2504
 -37809217.42647 -29419122.39545
                  22365647.0164                                   22365644.3164
                                                                        47.7504
        35.5004
   3394290.65647   2680455.99644
                  23458234.4304                                   23458231.7464
                                                                        42.2504
        26.7504
 09 10  1  1 14  0.0000000  0  8G29G10G23G05G02G13G04G25
  -8062146.84847  -6245106.67245
                  22558444.3594                                   22558441.7774
                                                                        47.0004
        35.5004
  -8592530.27348  -6655189.39546
                  21987631.2734                                   21987628.8954
                                                                        49.0004
        36.0004
 -26199988.55547 -20377916.73044
                  23127353.7734                                   23127348.6844
                                                                        45.5004
        29.0004
  -3676945.26648  -2852665.18746
                  22697922.9614                                   22697920.4614
                                                                        48.2504
        36.2504
 -37816949.88748 -29455394.41847
                  20596043.2424                                   20596038.1094
                                                                        51.7504
        42.5004
 -24778861.85948 -19295720.53146
                  21286213.5394                                   21286209.5274
                                                                        50.7504
        37.2504
 -37802965.08248 -29414250.44545
                  22366836.8284                                   22366833.9924
                                                                        48.2504
        34.7504
   3238513.31347   2559071.14144
                  23428590.9844                                   23428588.4734
                                                                        42.0004
        25.5004
 09 10  1  1 14 30.0000000  0  8G29G10G23G05G02G13G04G25
  -8203070.55947  -6354917.32846
                  22531627.3364                                   22531624.8954
                                                                        47.0004
        36.0004
  -8768119.66048  -6792012.28946
                  21954217.9384                                   21954214.6724
                                                                        48.7504
        36.2504
 -26202071.03947 -20379539.41844
                  23126957.2584                                   23126952.3594
                                                                        44.5004
        28.0004
  -3860211.21947  -2995469.78946
                  22663048.6804                                   22663045.7464
                                                                        47.5004
        36.5004
 -37878300.88748 -29503200.30947
                  20584368.4454                                   20584363.3444
                                                                        51.5004
        43.0004
 -24853832.35548 -19354139.07846
                  21271947.0164                                   21271943.5984
                                                                        50.7504
        36.5004
 -37796389.50447 -29409126.61345
                  22368087.9924                                   22368085.5554
                                                                        47.2504
        34.5004
   3083161.89546   2438018.12144
                  23399028.3054                                   23399026.1724
                                                                        40.7504
        26.0004
 09 10  1  1 15  0.0000000  0  8G29G10G23G05G02G13G04G25
  -8343474.93447  -6464323.31246
                  22504909.6804                                   22504907.1414
                                                                        47.5004
        36.5004
  -8943332.79748  -6928542.12546
                  21920876.0004                                   21920873.5004
                                                                        49.0004
        37.2504
 -26203748.55547 -20380846.53544
                  23126638.4454                                   23126632.8284
                                                                        44.2504
        27.0004
  -4043191.45348  -3138051.80946
                  22628228.8364                                   22628225.7624
                                                                        48.0004
        37.0004
 -37939075.46148 -29550557.09047
                  20572803.3594                                   20572798.2234
                                                                        52.0004
        42.5004
 -24928139.76248 -19412040.91846
                  21257807.1884                                   21257803.5744
                                                                        50.7504
        36.7504
 -37789492.14547 -29403752.04345
                  22369400.8204                                   22369397.8834
                                                                        46.7504
        34.5004
   2928239.77747   2317299.60944
                  23369547.9304                                   23369545.0514
                                                                        42.0004
        25.5004
 09 10  1  1 15 30.0000000  0  8G29G10G23G05G02G13G04G25
  -8483356.35547  -6573321.81246
                  22478291.0704                                   22478288.3594
                                                                        47.7504
        36.0004
  -9118166.18048  -7064775.92246
                  21887606.4844                                   21887603.6954
                                                                        48.2504
        37.0004
 -26205023.87547 -20381840.29344
                  23126395.3674                                   23126389.7504
                                                                        45.0004
        28.2504
  -4225881.99247  -3280408.11746
                  22593464.3754                                   22593461.1644
                                                                        47.0004
        36.7504
 -37999274.05948 -29597465.05947
                  20561348.0944                                   20561342.4064
                                                                        51.7504
        43.0004
 -25001785.92648 -19469427.53546
                  21243792.4304                                   21243788.8244
                                                                        51.0004
        36.5004
 -37782275.80148 -29398128.96546
                  22370774.1804                                   22370771.1524
                                                                        48.0004
        36.0004
   2773748.20747   2196916.56644
                  23340149.3594                                   23340146.2584
                                                                        42.5004
        25.2504
 09 10  1  1 16  0.0000000  0  8G29G10G23G05G02G13G04G25
  -8622712.70348  -6681911.15646
                  22451772.1804                                   22451769.3284
                                                                        48.5004
        36.0004
  -9292617.87948  -7200712.34046
                  21854409.4924                                   21854406.5314
                                                                        48.5004
        37.5004
 -26205897.50447 -20382521.05944
                  23126229.0784                                   23126223.8364
                                                                        42.2504
        26.0004
  -4408281.02047  -3422537.17646
                  22558754.5234                                   22558751.7624
                                                                        47.5004
        37.0004
 -38058895.80548 -29643923.57447
                  20550002.2814                                   20549997.1994
                                                                        51.7504
        42.5004
 -25074769.18448 -19526297.60546
                  21229903.8134                                   21229900.1684
                                                                        50.2504
        36.2504
 -37774740.38748 -29392257.22345
                  22372208.1484                                   22372205.2854
                                                                        48.2504
        34.7504
   2619692.28547   2076873.00844
                  23310832.6644                                   23310830.1804
                                                                        43.0004
        26.0004
 09 10  1  1 16 30.0000000  0  8G29G10G23G05G02G13G04G25
  -8761542.11748  -6790089.89546
                  22425354.1564                                   22425351.3134
                                                                        48.5004
        36.2504
  -9466685.41048  -7336349.43046
                  21821285.1334                                   21821282.9494
                                                                        49.5004
        37.2504
 -26206372.09047 -20382890.89844
                  23126139.0554                                   23126133.0124
                                                                        42.5004
        26.5004
  -4590386.08248  -3564437.23446
                  22524101.0084                                   22524098.0004
                                                                        48.0004
        37.2504
 -38117940.39548 -29689932.34047
                  20538766.2584                                   20538760.7424
                                                                        51.7504
        42.2504
 -25147090.11348 -19582651.57446
                  21216141.9844                                   21216138.4534
                                                                        50.0004
        36.0004
 -37766887.50447 -29386138.09045
                  22373702.3134                                   22373699.2584
                                                                        47.5004
        34.0004
   2466074.39847   1957170.82044
                  23281600.8524                                   23281597.6454
                                                                        43.7504
        25.2504
 09 10  1  1 17  0.0000000  0  8G29G10G23G05G02G13G04G25
  -8899842.44148  -6897856.35245
                  22399036.3444                                   22399033.1484
                                                                        49.0004
        35.7504
  -9640366.04748  -7471684.99246
                  21788235.0314                                   21788232.5164
                                                                        48.5004
        36.7504
 -26206451.07047 -20382952.42244
                  23126123.7344                                   23126117.6454
                                                                        44.2504
        26.7504
  -4772197.50048  -3706108.41046
                  22489503.5864                                   22489500.7344
                                                                        48.0004
        38.0004
 -38176409.43048 -29735492.61747
                  20527640.1884                                   20527634.7974
                                                                        52.0004
        42.5004
 -25218750.24248 -19638490.63746
                  21202505.7274                                   21202501.3834
                                                                        50.2504
        36.2504
 -37758720.41448 -29379774.12945
                  22375256.1254                                   22375253.5704
                                                                        49.0004
        34.2504
   2312895.36347   1837810.53544
                  23252452.0474                                   23252449.1804
                                                                        44.5004
        27.2504
 09 10  1  1 17 30.0000000  0  8G29G10G23G05G02G13G04G25
  -9037612.74248  -7005209.82846
                  22372819.4844                                   22372816.2734
                                                                        49.0004
        36.0004
  -9813658.86348  -7606718.38746
                  21755258.5784                                   21755256.0594
                                                                        48.7504
        37.5004
 -26206136.34047 -20382707.10944
                  23126183.7584                                   23126177.8634
                                                                        42.7504
        25.0004
  -4953710.82848  -3847547.37946
                  22454962.9304                                   22454960.1174
                                                                        48.5004
        37.7504
 -38234303.47748 -29780604.84847
                  20516623.2974                                   20516617.8984
                                                                        51.5004
        43.0004
 -25289749.50048 -19693814.71546
                  21188995.0004                                   21188991.3404
                                                                        50.0004
        36.7504
 -37750240.96548 -29373166.79745
                  22376870.0004                                   22376867.3364
                                                                        48.0004
        34.7504
   2160158.84047   1718795.11344
                  23223387.5084                                   23223384.0164
                                                                        44.5004
        26.7504
 09 10  1  1 18  0.0000000  0  8G29G10G23G05G02G13G04G25
  -9174851.96148  -7112149.47346
                  22346703.6174                                   22346700.9574
                                                                        49.2504
        36.0004
  -9986562.50048  -7741448.49246
                  21722356.1174                                   21722353.2624
                                                                        49.5004
        37.7504
 -26205432.50047 -20382158.63744
                  23126317.8984                                   23126312.0864
                                                                        43.2504
        27.2504
  -5134921.17648  -3988750.23446
                  22420479.7734                                   22420476.5944
                                                                        48.0004
        37.5004
 -38291624.48048 -29825270.54747
                  20505715.5864                                   20505709.9304
                                                                        52.0004
        42.0004
 -25360091.24248 -19748626.45746
                  21175609.4304                                   21175605.6294
                                                                        50.7504
        36.0004
 -37741452.84048 -29366318.93045
                  22378542.3594                                   22378540.2504
                                                                        48.2504
        33.7504
   2007864.26247   1600124.02044
                  23194406.8204                                   23194403.5984
                                                                        43.5004
        25.2504
 09 10  1  1 18 30.0000000  0  8G29G10G23G05G02G13G04G25
  -9311552.44548  -7218669.33246
                  22320690.5004                                   22320687.2154
                                                                        49.0004
        36.0004
 -10159069.53948  -7875869.56246
                  21689529.4144                                   21689526.3444
                                                                        49.0004
        37.5004
 -26204335.56247 -20381303.85944
                  23126526.4694                                   23126521.2504
                                                                        42.5004
        28.0004
  -5315827.52748  -4129716.19146
                  22386054.2814                                   22386051.2734
                                                                        48.0004
        37.7504
 -38348366.60248 -29869485.16447
                  20494918.0474                                   20494912.2974
                                                                        51.5004
        42.0004
 -25429768.77348 -19802920.64546
                  21162350.3524                                   21162345.9024
                                                                        50.5004
        36.5004
 -37732351.21948 -29359226.75445
                  22380274.1174                                   22380271.4414
                                                                        48.0004
        34.5004
   1856021.43847   1481804.97744
                  23165511.0944                                   23165508.1454
                                                                        42.5004
        25.5004
 09 10  1  1 19  0.0000000  0  8G29G10G23G05G02G13G04G25
  -9447716.66448  -7324771.32445
                  22294779.2424                                   22294776.3244
                                                                        48.5004
        35.5004
 -10331182.39148  -8009983.53946
                  21656777.2114                                   21656774.7894
                                                                        49.5004
        37.5004
 -26202852.86747 -20380148.47344
                  23126808.3204                                   23126803.2154
                                                                        43.0004
        27.5004
  -5496431.75848  -4270446.73446
                  22351686.5704                                   22351683.4534
                                                                        49.2504
        37.0004
 -38404535.33248 -29913252.99647
                  20484229.1954                                   20484224.1174
                                                                        52.0004
        42.0004
 -25498787.75848 -19856701.66846
                  21149216.3054                                   21149212.3444
                                                                        50.7504
        36.0004
 -37722943.59848 -29351896.13745
                  22382064.6484                                   22382062.1564
                                                                        48.5004
        33.7504
   1704627.23447   1363835.48844
                  23136701.6564                                   23136698.5084
                                                                        42.5004
        25.7504
 09 10  1  1 19 30.0000000  0  8G29G10G23G05G02G13G04G25
  -9583343.53548  -7430454.61745
                  22268969.9844                                   22268967.7304
                                                                        48.7504
        35.5004
 -10502898.71548  -8143788.43046
                  21624100.5314                                   21624097.7774
                                                                        49.0004
        37.2504
 -26200987.14547 -20378694.65244
                  23127163.1094                                   23127158.2344
                                                                        42.2504
        26.7504
  -5676730.76248  -4410939.37946
                  22317376.5634                                   22317373.9534
                                                                        49.7504
        37.5004
 -38460131.09448 -29956574.36347
                  20473649.7814                                   20473644.7304
                                                                        51.7504
        42.5004
 -25567149.28148 -19909970.38346
                  21136207.9064                                   21136203.7114
                                                                        50.7504
        36.2504
 -37713231.57448 -29344328.31245
                  22383912.9304                                   22383910.2504
                                                                        48.2504
        34.7504
   1553684.14547   1246217.54344
                  23107978.6024                                   23107975.7154
                                                                        43.0004
        26.5004
 09 10  1  1 20  0.0000000  0  8G29G10G23G05G02G13G04G25
  -9718431.49248  -7535717.94946
                  22243263.6094                                   22243260.9184
                                                                        48.0004
        36.7504
 -10674217.86348  -8277283.84046
                  21591499.6484                                   21591496.8204
                                                                        49.5004
        37.7504
 -26198741.94147 -20376945.16844
                  23127590.6884                                   23127585.5314
                                                                        43.5004
        27.0004
  -5856722.87948  -4551192.93446
                  22283125.2114                                   22283122.5274
                                                                        49.5004
        37.5004
 -38515156.03148 -29999450.93747
                  20463178.8674                                   20463173.9654
                                                                        52.0004
        42.2504
 -25634855.87148 -19962728.78146
                  21123323.3054                                   21123319.3794
                                                                        50.7504
        36.2504
 -37703219.12148 -29336526.42245
                  22385817.8984                                   22385815.2074
                                                                        48.2504
        34.0004
   1403192.67247   1128951.46944
                  23079340.7504                                   23079338.3054
                                                                        43.5004
        26.5004
 09 10  1  1 20 30.0000000  0  8G29G10G23G05G02G13G04G25
  -8277555.18748  -6412957.17246
                  22517453.5164                                   22517450.8634
                                                                        49.0004
        36.2504
  -9269711.86748  -7182863.49246
                  21858768.0394                                   21858765.6644
                                                                        49.5004
        37.5004
 -24620699.01247 -19147301.33244
                  23427881.9774                                   23427876.9304
                                                                        42.5004
        26.0004
  -4460981.21148  -3463602.04746
                  22548726.2424                                   22548723.1954
                                                                        50.0004
        37.5004
 -36994188.77048 -28814281.65647
                  20752609.1174                                   20752603.8954
                                                                        51.2504
        42.2504
 -24126484.34848 -18787374.33646
                  21410356.6724                                   21410353.1684
                                                                        50.0004
        36.5004
 -36117487.13747 -28100891.13345
                  22687572.8204                                   22687570.1374
                                                                        47.7504
        34.0004
   2828581.94047   2239644.48344
                  23350583.6564                                   23350580.8094
                                                                        44.5004
        27.2504
 09 10  1  1 21  0.0000000  0  9G29G10G23G05G16G02G13G04G25
  -8411561.00848  -6517377.26246
                  22491953.0864                                   22491950.3164
                                                                        49.0004
        37.2504
  -9440229.93448  -7315734.65646
                  21826319.4844                                   21826316.6604
                                                                        48.7504
        38.5004
 -24617701.73047 -19144965.80544
                  23428452.7974                                   23428447.0904
                                                                        42.5004
        25.7504
  -4640354.95348  -3603373.75046
                  22514592.1724                                   22514589.4844
                                                                        49.7504
        37.5004
  13972730.48057  10918556.46153
                  24479971.9144                                   24479968.5354
                                                                        42.0004
        23.7504
 -37048073.14848 -28856269.50447
                  20742355.4454                                   20742350.1884
                                                                        51.2504
        42.0004
 -24192881.01648 -18839111.99646
                  21397721.9924                                   21397718.3404
                                                                        50.0004
        36.0004
 -36106877.54347 -28092623.99245
                  22689591.6884                                   22689588.7624
                                                                        47.5004
        33.5004
   2679003.37547   2123089.80544
                  23322119.5864                                   23322116.8404
                                                                        44.7504
        29.2504
