     2.11           OBSERVATION DATA    G (GPS)             RINEX VERSION / TYPE
teqc  2019Feb25                         20221121 12:27:57UTCPGM / RUN BY / DATE
OSX ker:10.11.6|Core i5|gcc 4.3 -m64|OSX ker:10.10+|=+      COMMENT
BIT 2 OF LLI FLAGS DATA COLLECTED UNDER A/S CONDITION       COMMENT
04712751                                                    MARKER NAME
2751                                                        MARKER NUMBER
-Unknown-           -Unknown-                               OBSERVER / AGENCY
0220400471          TRIMBLE R7          2.30                REC # / TYPE / VERS
-Unknown-           TRM39105.00     NONE                    ANT # / TYPE
  1449460.5488 -1709239.4905  5952442.6932                  APPROX POSITION XYZ
        0.0000        0.0000        0.0000                  ANTENNA: DELTA H/E/N
     1     1                                                WAVELENGTH FACT L1/2
    20    L1    L2    L5    L6    L7    L8    C1    P1    C2# / TYPES OF OBSERV
          P2    C5    C6    C7    C8    S1    S2    S5    S6# / TYPES OF OBSERV
          S7    S8                                          # / TYPES OF OBSERV
    30.0000                                                 INTERVAL
    15                                                      LEAP SECONDS
Forced Modulo Decimation to 30 seconds                      COMMENT
 SNR is mapped to RINEX snr flag value [0-9]                COMMENT
  L1 & L2: min(max(int(snr_dBHz/6), 0), 9)                  COMMENT
teqc edited: Beidou # 1 - 37 excluded                       COMMENT
  2009    10     2    23     9   30.0000000     GPS         TIME OF FIRST OBS
                                                            END OF HEADER
 09 10  2 23  9 30.0000000  0 10G02G04G12G13G17G20G23G30G31G32
   -328319.63358   -187694.27756
                  22180815.5004                                   22180810.8014
                                                                        50.7504
        37.0004
   -212335.64558   -120607.11756
                  20499719.5554                                   20499716.1994
                                                                        49.5004
        41.7504
   -108111.03157    -62413.43755
                  22527836.3284                                   22527833.2344
                                                                        46.0004
        35.7504
   -364195.94556   -184565.94153
                  23770891.5314                                   23770887.7114
                                                                        41.0004
        23.5004
     14019.97357      7152.98455
                  22960931.3594                                   22960928.1994
                                                                        47.7504
        34.5004
    -22302.65657    -13584.62155
                  22286196.6884                                   22286192.9104
                                                                        47.2504
        31.0004
   -260575.62157   -148527.57855
                  22126241.5944                                   22126235.4264
                                                                        46.5004
        34.5004
   -216757.31257   -124166.08654
                  22493848.9844                                   22493846.3634
                                                                        45.0004
        29.0004
   -209806.58656   -122033.84054
                  23616031.0704                                   23616027.5124
                                                                        41.5004
        28.0004
      8331.20756      2755.84453
                  24314322.7894                                   24314320.7624
                                                                        38.5004
        21.7504
 09 10  2 23 10  0.0000000  0 10G02G04G12G13G17G20G23G30G31G32
   -517490.40648   -335100.02046
                  22144817.5004                                   22144812.6804
                                                                        50.7504
        38.5004
   -334505.87148   -215804.68047
                  20476470.8674                                   20476468.1054
                                                                        49.2504
        42.0004
   -171178.07447   -111556.57446
                  22515835.2504                                   22515832.0864
                                                                        47.2504
        36.2504
   -573942.93746   -348005.16443
                  23730977.6954                                   23730974.0084
                                                                        39.7504
        22.5004
     20209.94947     11976.30945
                  22962109.1884                                   22962105.7234
                                                                        47.7504
        32.0004
    -36681.85247    -24789.12545
                  22283460.3444                                   22283456.2854
                                                                        47.2504
        30.5004
   -410171.85248   -265096.10945
                  22097774.2664                                   22097768.5864
                                                                        48.0004
        34.2504
   -341743.30147   -221557.77745
                  22470065.0864                                   22470062.7154
                                                                        43.0004
        30.0004
   -332758.74247   -217840.66044
                  23592634.3754                                   23592630.5704
                                                                        42.0004
        27.0004
     11228.35246      5013.31643
                  24314874.5084                                   24314872.3244
                                                                        39.5004
        21.5004
 09 10  2 23 10 30.0000000  0 10G02G04G12G13G17G20G23G30G31G32
   -706401.03548   -482303.05146
                  22108869.4224                                   22108864.5784
                                                                        51.2504
        38.5004
   -456160.42248   -310600.37146
                  20453320.9454                                   20453318.0234
                                                                        51.2504
        41.7504
   -233699.31647   -160274.39546
                  22503937.7344                                   22503934.6454
                                                                        47.7504
        36.0004
   -783501.47346   -511297.51243
                  23691099.5394                                   23691095.9304
                                                                        40.2504
        22.5004
     26622.24647     16972.87545
                  22963329.7504                                   22963326.3014
                                                                        47.7504
        34.0004
    -50718.52347    -35726.83645
                  22280789.4924                                   22280785.2304
                                                                        46.5004
        30.5004
   -559252.53147   -381262.85245
                  22069405.1884                                   22069398.9924
                                                                        46.2504
        33.7504
   -466106.09047   -318463.78544
                  22446399.8834                                   22446397.1374
                                                                        44.7504
        29.7504
   -455170.69547   -313226.57044
                  23569339.4774                                   23569336.7894
                                                                        43.0004
        28.5004
     14247.48846      7365.81343
                  24315449.7814                                   24315446.8674
                                                                        41.0004
        22.2504
 09 10  2 23 11  0.0000000  0 10G02G04G12G13G17G20G23G30G31G32
   -894869.75448   -629161.72746
                  22073004.5864                                   22073000.0704
                                                                        51.0004
        38.5004
   -577119.11748   -404853.87947
                  20430303.3204                                   20430300.4884
                                                                        50.7504
        42.0004
   -295496.77047   -208428.25845
                  22492178.2194                                   22492174.9884
                                                                        47.7504
        35.7504
   -992688.35246   -674300.23443
                  23651293.1954                                   23651289.4264
                                                                        40.5004
        22.5004
     33434.39847     22281.04345
                  22964625.5944                                   22964622.5984
                                                                        47.2504
        32.7504
    -64234.20347    -46258.34445
                  22278216.9454                                   22278213.3244
                                                                        46.2504
        30.0004
   -707635.97747   -496886.28145
                  22041168.6564                                   22041162.1524
                                                                        46.7504
        34.2504
   -589665.23047   -414743.57445
                  22422887.2424                                   22422884.1764
                                                                        45.2504
        30.0004
   -576861.66446   -408050.64544
                  23546182.5864                                   23546179.5664
                                                                        40.7504
        28.5004
     17566.77746      9952.23443
                  24316081.3594                                   24316078.4774
                                                                        40.7504
        22.5004
 09 10  2 23 11 30.0000000  0 10G02G04G12G13G17G20G23G30G31G32
    492617.11348    451996.92246
                  22337034.7344                                   22337029.7704
                                                                        51.2504
        37.7504
    878128.41048    729105.20346
                  20707227.4614                                   20707224.6724
                                                                        51.7504
        41.5004
   1218935.72748    971649.02046
                  22780365.1484                                   22780362.2384
                                                                        48.2504
        36.2504
    374011.71146    390660.93844
                  23911366.6724                                   23911364.4224
                                                                        40.0004
        25.0004
   1616149.25047   1255565.35245
                  23265806.7734                                   23265803.4224
                                                                        47.7504
        34.0004
   1498273.92647   1171280.62945
                  22575552.4454                                   22575548.4964
                                                                        47.2504
        30.5004
    720190.07847    615705.51245
                  22312874.9304                                   22312869.0634
                                                                        47.5004
        33.7504
    863089.28147    717272.90645
                  22699337.3284                                   22699334.4614
                                                                        46.0004
        30.0004
    877678.34847    725357.16844
                  23822972.7504                                   23822969.0004
                                                                        43.7504
        27.5004
   1596689.15646   1240437.21143
                  24616577.8754                                   24616575.4024
                                                                        41.2504
        20.7504
 09 10  2 23 12  0.0000000  0 10G02G04G12G13G17G20G23G30G31G32
    305259.53148    306004.05946
                  22301381.5004                                   22301376.6094
                                                                        51.0004
        37.2504
    758784.85248    636110.22346
                  20684517.4384                                   20684514.2194
                                                                        51.7504
        41.7504
   1158803.04347    924792.43446
                  22768922.2274                                   22768919.3054
                                                                        47.2504
        36.2504
    165797.82446    228416.41444
                  23871745.8134                                   23871742.2544
                                                                        41.0004
        24.7504
   1623974.80547   1261663.18845
                  23267295.7664                                   23267292.5434
                                                                        47.5004
        34.0004
   1486012.70747   1161726.51245
                  22573219.0784                                   22573214.9454
                                                                        46.5004
        30.5004
    573427.43847    501345.08645
                  22284946.7814                                   22284940.9064
                                                                        47.7504
        34.0004
    741361.16847    622419.78144
                  22676172.7894                                   22676170.5864
                                                                        46.5004
        29.5004
    757652.89147    631830.89144
                  23800132.4534                                   23800128.5004
                                                                        43.7504
        27.5004
   1600823.02346   1243658.38343
                  24617364.8914                                   24617362.1054
                                                                        40.2504
        20.0004
 09 10  2 23 12 30.0000000  0 10G02G04G12G13G17G20G23G30G31G32
    118508.47748    160483.83246
                  22265843.6564                                   22265838.2544
                                                                        51.2504
        38.0004
    640297.68848    543782.53946
                  20661970.0234                                   20661966.8164
                                                                        50.0004
        41.7504
   1099548.52047    878620.07046
                  22757646.5634                                   22757643.4304
                                                                        47.5004
        36.2504
    -41876.83646     66592.07444
                  23832226.0004                                   23832222.7114
                                                                        41.7504
        25.5004
   1632351.80547   1268190.73845
                  23268889.6804                                   23268886.1484
                                                                        47.0004
        33.0004
   1474423.35947   1152695.91445
                  22571013.3834                                   22571009.6914
                                                                        47.0004
        30.2504
    427526.21947    387655.99245
                  22257182.2034                                   22257176.7974
                                                                        46.0004
        33.7504
    620598.18447    528318.75045
                  22653192.4144                                   22653189.4654
                                                                        46.2504
        30.5004
    638509.16047    538991.60944
                  23777460.1334                                   23777456.0474
                                                                        43.2504
        27.7504
   1605409.09846   1247231.96543
                  24618237.6954                                   24618233.8444
                                                                        39.0004
        18.2504
 09 10  2 23 13  0.0000000  0 10G02G04G12G13G17G20G23G30G31G32
    -67624.10548     15445.46146
                  22230424.0394                                   22230418.9384
                                                                        50.5004
        38.2504
    522677.55548    452130.51646
                  20639587.7814                                   20639584.6174
                                                                        51.0004
        41.5004
   1041180.76647    833138.73045
                  22746539.4774                                   22746536.1024
                                                                        46.7504
        35.5004
   -248999.47347    -94802.13344
                  23792812.1024                                   23792808.4694
                                                                        42.5004
        26.5004
   1641287.91847   1275153.96945
                  23270589.8524                                   23270586.7424
                                                                        47.0004
        33.0004
   1463513.19147   1144194.53144
                  22568937.0234                                   22568933.4264
                                                                        46.5004
        29.5004
    282497.57447    274646.79345
                  22229584.6644                                   22229578.7814
                                                                        47.7504
        34.5004
    500811.32047    434978.34045
                  22630397.7034                                   22630395.5474
                                                                        45.0004
        30.0004
    520258.23847    446848.01244
                  23754957.9534                                   23754953.7504
                                                                        43.0004
        27.5004
   1610455.04746   1251163.85243
                  24619197.9774                                   24619194.2384
                                                                        38.5004
        18.5004
 09 10  2 23 13 30.0000000  0 10G02G04G12G13G17G20G23G30G31G32
   -253134.16448   -129107.75446
                  22195122.3524                                   22195117.1724
                                                                        50.7504
        37.5004
    405926.95348    361156.03146
                  20617370.4844                                   20617367.8794
                                                                        52.0004
        41.7504
    983700.36347    788348.80945
                  22735601.0554                                   22735597.9454
                                                                        47.2504
        35.7504
   -455564.94546   -255762.19144
                  23753503.8594                                   23753500.5704
                                                                        41.7504
        24.0004
   1650782.29347   1282552.18045
                  23272396.8204                                   23272393.5354
                                                                        46.5004
        31.7504
   1453281.94947   1136222.14145
                  22566990.8594                                   22566986.6254
                                                                        47.0004
        30.2504
    138345.16447    162320.29345
                  22202153.1484                                   22202147.0514
                                                                        47.7504
        34.7504
    382003.38347    342400.73045
                  22607789.3204                                   22607786.9844
                                                                        45.2504
        31.0004
    402903.07847    355402.42644
                  23732625.8364                                   23732622.2934
                                                                        42.5004
        27.5004
   1615961.08246   1255454.20743
                  24620245.0864                                   24620241.9024
                                                                        37.0004
        19.5004
 09 10  2 23 14  0.0000000  0 10G02G04G12G13G17G20G23G30G31G32
   -438021.30548   -273175.64546
                  22159939.4924                                   22159934.7664
                                                                        51.7504
        38.0004
    290044.69948    270858.13746
                  20595319.1024                                   20595316.3524
                                                                        52.0004
        41.5004
    927104.01647    744247.71945
                  22724831.1334                                   22724827.8834
                                                                        47.0004
        35.5004
   -661571.23847   -416286.53143
                  23714301.9534                                   23714298.5784
                                                                        42.0004
        22.7504
   1660831.30547   1290382.53545
                  23274308.8674                                   23274305.5274
                                                                        46.0004
        32.2504
   1443725.99647   1128775.92244
                  22565171.6724                                   22565167.8554
                                                                        46.7504
        29.7504
     -4930.13347     50677.24245
                  22174888.7584                                   22174883.0204
                                                                        46.7504
        34.2504
    264173.33647    250585.13745
                  22585366.9534                                   22585364.3984
                                                                        45.5004
        30.7504
    286443.51247    264654.69944
                  23710464.2664                                   23710460.7234
                                                                        44.5004
        27.7504
   1621923.72346   1260100.36743
                  24621380.1334                                   24621377.5004
                                                                        38.2504
        22.0004
 09 10  2 23 14 30.0000000  0 10G02G04G12G13G17G20G23G30G31G32
   -622290.60948   -416762.09846
                  22124874.4064                                   22124869.4144
                                                                        51.5004
        37.7504
    175024.01648    181231.63747
                  20573431.3834                                   20573428.5084
                                                                        51.0004
        42.5004
    871383.45748    700829.10245
                  22714228.0864                                   22714224.9264
                                                                        48.2504
        35.0004
   -867023.18046   -576378.90243
                  23675205.8054                                   23675202.2304
                                                                        41.7504
        22.0004
   1671425.12547   1298637.43045
                  23276325.1804                                   23276321.7624
                                                                        46.5004
        32.5004
   1434834.87147   1121847.77344
                  22563480.2504                                   22563475.9384
                                                                        46.5004
        29.0004
   -147334.71947    -60287.35545
                  22147789.9924                                   22147784.3364
                                                                        47.5004
        34.5004
    147314.80547    159526.50845
                  22563129.6414                                   22563126.8794
                                                                        43.5004
        30.5004
    170872.20347    174599.12944
                  23688472.0784                                   23688468.2034
                                                                        44.2504
        27.7504
   1628332.87546   1265094.37143
                  24622600.1724                                   24622597.4924
                                                                        39.7504
        23.5004
 09 10  2 23 15  0.0000000  0 10G02G04G12G13G17G20G23G30G31G32
   -805944.08248   -559868.68746
                  22089926.2344                                   22089921.2234
                                                                        50.7504
        38.2504
     60861.91448     92274.16046
                  20551706.8984                                   20551703.9574
                                                                        50.5004
        41.7504
    816532.46948    658088.02045
                  22703790.0554                                   22703787.0394
                                                                        48.0004
        35.0004
  -1071920.77347   -736039.32444
                  23636215.2034                                   23636211.4454
                                                                        43.0004
        24.7504
   1682558.15247   1307312.52345
                  23278444.1564                                   23278440.3634
                                                                        47.0004
        34.0004
   1426603.34447   1115433.53944
                  22561913.7034                                   22561909.7384
                                                                        46.2504
        28.7504
   -288870.00047   -170574.57045
                  22120856.8594                                   22120851.3204
                                                                        46.2504
        34.7504
     31424.78147     69222.57045
                  22541076.6484                                   22541073.8164
                                                                        45.5004
        30.0004
     56186.57047     85233.71944
                  23666648.0554                                   23666643.9144
                                                                        42.7504
        27.7504
   1635183.53946   1270432.48843
                  24623903.7584                                   24623901.3324
                                                                        39.5004
        22.2504
 09 10  2 23 15 30.0000000  0 10G02G04G12G13G17G20G23G30G31G32
   -988992.30148   -702503.66046
                  22055093.4844                                   22055088.4654
                                                                        50.7504
        38.0004
    -52454.31248      3975.81347
                  20530143.6644                                   20530140.7304
                                                                        51.0004
        42.0004
    762537.18848    616013.73845
                  22693515.7584                                   22693512.0704
                                                                        48.0004
        35.5004
  -1276274.67647   -895276.10244
                  23597328.0554                                   23597324.6024
                                                                        43.7504
        25.2504
   1694214.64547   1316395.48845
                  23280662.1414                                   23280658.8204
                                                                        47.0004
        33.5004
   1419015.39547   1109520.79344
                  22560470.1254                                   22560465.9414
                                                                        46.5004
        29.7504
   -429548.12547   -280193.92245
                  22094086.6174                                   22094081.2424
                                                                        47.5004
        35.0004
    -83508.57047    -20335.91045
                  22519205.4534                                   22519203.1454
                                                                        44.0004
        31.2504
    -57625.95747     -3451.35544
                  23644990.3984                                   23644986.3054
                                                                        44.0004
        26.7504
   1642460.09846   1276102.46943
                  24625288.3444                                   24625286.5904
                                                                        39.2504
        22.7504
 09 10  2 23 16  0.0000000  0 10G02G04G12G13G17G20G23G30G31G32
  -1171445.09048   -844674.66846
                  22020373.6724                                   22020368.8054
                                                                        50.5004
        38.5004
   -164935.75848    -83672.07047
                  20508739.2424                                   20508736.2194
                                                                        50.0004
        42.2504
    709384.30548    574595.92645
                  22683400.9224                                   22683397.3674
                                                                        48.0004
        35.5004
  -1480092.99247  -1054095.55144
                  23558542.1724                                   23558539.3284
                                                                        43.0004
        26.5004
   1706380.48847   1325875.35945
                  23282977.0234                                   23282973.5164
                                                                        46.2504
        32.7504
   1412057.54347   1104099.10944
                  22559145.9924                                   22559141.6564
                                                                        46.5004
        28.7504
   -569378.19148   -389152.41045
                  22067477.7034                                   22067472.1254
                                                                        48.0004
        35.5004
   -197496.51647   -109157.69545
                  22497514.2504                                   22497511.5704
                                                                        43.2504
        30.0004
   -170576.12547    -91464.47744
                  23623496.1884                                   23623492.4184
                                                                        43.7504
        26.5004
   1650149.37146   1282094.06343
                  24626751.2114                                   24626749.4574
                                                                        37.5004
        20.0004
 09 10  2 23 16 30.0000000  0 10G02G04G12G13G17G20G23G30G31G32
  -1353303.27748   -986382.34446
                  21985767.3284                                   21985762.2664
                                                                        51.0004
        38.5004
   -276584.86748   -170671.35247
                  20487492.9924                                   20487489.8954
                                                                        51.0004
        42.5004
    657068.96147    533830.63346
                  22673445.6334                                   22673442.2344
                                                                        47.2504
        36.0004
  -1683375.59846  -1212497.60244
                  23519859.0084                                   23519855.7934
                                                                        41.7504
        25.5004
   1719050.36347   1335747.93045
                  23285387.5004                                   23285384.6454
                                                                        43.7504
        31.0004
   1405724.25047   1099163.98045
                  22557940.6254                                   22557936.7814
                                                                        46.2504
        30.0004
   -708361.72348   -497451.25445
                  22041030.2424                                   22041024.3954
                                                                        48.2504
        34.5004
   -310541.34047   -197244.62544
                  22476002.7974                                   22476000.1454
                                                                        44.0004
        29.7504
   -282666.25847   -178807.46544
                  23602166.3914                                   23602162.6174
                                                                        42.5004
        27.0004
   1658246.13746   1288403.16043
                  24628291.5474                                   24628289.4844
                                                                        36.7504
        18.2504
 09 10  2 23 17  0.0000000  0 10G02G04G12G13G17G20G23G30G31G32
  -1534577.00448  -1127634.60246
                  21951271.9304                                   21951267.1684
                                                                        51.0004
        38.5004
   -387413.32448   -257031.16047
                  20466403.0784                                   20466400.2274
                                                                        52.0004
        42.0004
    605577.81347    493707.64145
                  22663646.9694                                   22663644.0164
                                                                        47.5004
        35.5004
  -1886132.00446  -1370489.82444
                  23481275.3134                                   23481272.9024
                                                                        41.0004
        24.0004
   1732210.00047   1346002.12145
                  23287892.0394                                   23287888.8634
                                                                        44.7504
        31.0004
   1400000.87947   1094704.10544
                  22556851.5234                                   22556847.8674
                                                                        46.5004
        29.0004
   -846509.14148   -605098.56645
                  22014741.7814                                   22014735.6414
                                                                        48.2504
        35.2504
   -422654.23047   -284605.30945
                  22454668.6094                                   22454665.1804
                                                                        46.5004
        30.0004
   -393907.49647   -265488.96144
                  23580998.0554                                   23580994.3204
                                                                        43.5004
        29.2504
   1666736.18046   1295018.75442
                  24629907.8914                                   24629905.5004
                                                                        39.5004
        17.7504
 09 10  2 23 17 30.0000000  0  9G02G04G12G13G17G20G23G30G31
  -1715273.34848  -1268436.93046
                  21916886.7194                                   21916882.0204
                                                                        51.2504
        39.0004
   -497430.09848   -342758.50847
                  20445467.5164                                   20445464.4884
                                                                        51.0004
        42.0004
    554899.87948    454218.32446
                  22654003.5234                                   22654000.3054
                                                                        48.0004
        36.5004
  -2088367.74246  -1528076.27744
                  23442791.7584                                   23442788.3794
                                                                        40.5004
        24.7504
   1745847.82847   1356628.95345
                  23290487.4454                                   23290483.9344
                                                                        45.7504
        31.5004
   1394875.70747   1090710.46944
                  22555876.2034                                   22555872.8284
                                                                        46.0004
        29.2504
   -983828.37148   -712100.57845
                  21988610.6334                                   21988604.5394
                                                                        48.2504
        35.0004
   -533843.93047   -371246.59045
                  22433509.3204                                   22433506.7934
                                                                        46.5004
        30.5004
   -504308.54747   -351515.75444
                  23559989.3524                                   23559985.9574
                                                                        43.5004
        28.2504
 09 10  2 23 18  0.0000000  0  9G02G04G12G13G17G20G23G30G31
  -1895397.39148  -1408793.30946
                  21882610.2584                                   21882605.4884
                                                                        51.0004
        38.7504
   -606641.35948   -427858.19547
                  20424685.2114                                   20424682.5824
                                                                        50.5004
        42.0004
    505026.62547    415355.98045
                  22644513.1804                                   22644509.7464
                                                                        46.7504
        35.5004
  -2290086.31647  -1685259.64144
                  23404406.1644                                   23404402.4884
                                                                        42.5004
        25.5004
   1759954.45347   1367621.05145
                  23293172.0314                                   23293168.5354
                                                                        44.2504
        32.2504
   1390339.89147   1087176.10544
                  22555013.1884                                   22555009.6764
                                                                        45.7504
        29.5004
  -1120324.56648   -818461.23045
                  21962636.3524                                   21962630.0004
                                                                        48.0004
        35.7504
   -644117.02747   -457173.79744
                  22412525.5164                                   22412522.6094
                                                                        43.7504
        29.7504
   -613875.76247   -436892.82044
                  23539139.2974                                   23539135.6024
                                                                        43.2504
        28.5004
 09 10  2 23 18 30.0000000  0  9G02G04G12G13G17G20G23G30G31
  -2074945.35248  -1548700.76646
                  21848443.2344                                   21848438.2934
                                                                        50.7504
        37.7504
   -715045.35248   -512328.84846
                  20404056.7424                                   20404053.9264
                                                                        50.7504
        41.5004
    455958.00048    377120.64846
                  22635175.5634                                   22635172.6724
                                                                        48.0004
        36.0004
  -2491283.08247  -1842036.32444
                  23366120.0784                                   23366115.9494
                                                                        43.5004
        26.2504
   1774529.35247   1378978.04745
                  23295945.7664                                   23295942.0474
                                                                        44.5004
        31.5004
   1386392.10247   1084099.87544
                  22554261.7894                                   22554257.7544
                                                                        46.0004
        29.2504
  -1255994.54348   -924178.12145
                  21936819.0944                                   21936813.1254
                                                                        48.2504
        34.0004
   -753470.68747   -542384.50044
                  22391715.7034                                   22391713.3984
                                                                        43.5004
        29.7504
   -722606.95747   -521618.45744
                  23518448.5164                                   23518444.8094
                                                                        43.5004
        28.2504
 09 10  2 23 19  0.0000000  0  9G02G04G12G13G17G20G23G30G31
  -2253916.19548  -1688158.50046
                  21814386.2974                                   21814381.1254
                                                                        51.5004
        38.2504
   -822643.02348   -596171.18747
                  20383581.3984                                   20383578.6094
                                                                        50.5004
        42.0004
    407691.16448    339510.10545
                  22625990.7584                                   22625987.3914
                                                                        48.5004
        35.0004
  -2691956.92647  -1998405.48844
                  23327932.9694                                   23327929.2274
                                                                        43.5004
        26.7504
   1789568.24247   1390696.44945
                  23298807.5864                                   23298803.7774
                                                                        43.2504
        30.5004
   1383028.77347   1081479.05544
                  22553622.0704                                   22553618.3324
                                                                        45.5004
        28.5004
  -1390838.46148  -1029251.30145
                  21911159.2814                                   21911153.4494
                                                                        48.0004
        35.0004
   -861905.77047   -626879.30544
                  22371081.2584                                   22371078.7034
                                                                        43.5004
        29.5004
   -830503.28547   -605693.48844
                  23497916.5554                                   23497912.3834
                                                                        43.0004
        27.2504
 09 10  2 23 19 30.0000000  0  9G02G04G12G13G17G20G23G30G31
   -856893.57448   -599569.35946
                  22080230.5944                                   22080225.7344
                                                                        51.2504
        38.7504
    645978.95748    548209.57447
                  20663050.8054                                   20663047.9964
                                                                        50.5004
        42.0004
   1935634.88747   1530115.62546
                  22916748.7194                                   22916745.5274
                                                                        47.0004
        36.0004
  -1316688.39147   -926767.60544
                  23589637.7974                                   23589634.3014
                                                                        42.5004
        27.0004
   3380478.41447   2630366.77345
                  23601547.5634                                   23601544.4574
                                                                        42.2504
        30.7504
   2955657.13347   2306903.67244
                  22852883.5004                                   22852879.6484
                                                                        44.7504
        28.7504
     50559.33247     93915.83245
                  22185447.9534                                   22185442.1564
                                                                        47.7504
        34.7504
    605990.72347    516936.13344
                  22650413.0234                                   22650409.8714
                                                                        44.2504
        29.2504
    637849.43047    538477.43044
                  23777334.8674                                   23777330.4964
                                                                        43.7504
        28.2504
 09 10  2 23 20  0.0000000  0  9G02G04G12G13G17G20G23G30G31
  -1034737.79748   -738149.23846
                  22046387.6954                                   22046382.7074
                                                                        50.7504
        39.2504
    539962.57848    465599.43046
                  20642876.6484                                   20642873.9414
                                                                        51.7504
        41.5004
   1888933.26647   1493724.77745
                  22907861.7814                                   22907858.8484
                                                                        47.5004
        35.5004
  -1516338.71547  -1082339.19944
                  23551644.3444                                   23551641.8364
                                                                        42.5004
        27.5004
   3396406.83247   2642778.41045
                  23604578.8594                                   23604575.3484
                                                                        43.2504
        31.0004
   2953423.28547   2305162.96944
                  22852458.3834                                   22852454.8054
                                                                        44.5004
        28.5004
    -82659.87548     -9891.36745
                  22160096.9384                                   22160091.1994
                                                                        48.2504
        35.0004
    499361.41447    433848.34045
                  22630121.9694                                   22630119.2934
                                                                        46.0004
        30.2504
    531593.33647    455680.43044
                  23757115.1414                                   23757110.7974
                                                                        43.2504
        27.7504
 09 10  2 23 20 30.0000000  0  9G02G04G12G13G17G20G23G30G31
  -1212027.98848   -876297.43046
                  22012650.4534                                   22012645.8834
                                                                        50.0004
        38.7504
    434724.69548    383595.89146
                  20622850.6024                                   20622847.7234
                                                                        50.5004
        41.7504
   1842999.31347   1457932.18045
                  22899120.3984                                   22899117.4614
                                                                        47.7504
        35.5004
  -1715486.02347  -1237518.84844
                  23513748.2894                                   23513745.7074
                                                                        43.0004
        27.0004
   3412763.42647   2655523.62545
                  23607691.5004                                   23607688.2194
                                                                        43.0004
        31.5004
   2951737.98447   2303849.74244
                  22852137.6174                                   22852134.1094
                                                                        44.5004
        28.5004
   -215077.26247   -113073.75845
                  22134898.7344                                   22134892.8714
                                                                        46.5004
        35.2504
    393623.00447    351454.77344
                  22610000.4844                                   22609997.7704
                                                                        45.5004
        29.0004
    426145.14147    373513.00444
                  23737049.1484                                   23737044.9844
                                                                        43.5004
        28.0004
 09 10  2 23 21  0.0000000  0  9G02G04G12G13G17G20G23G30G31
  -1388774.78948  -1014022.20746
                  21979016.9774                                   21979012.3014
                                                                        51.5004
        38.7504
    330253.00048    302189.36346
                  20602970.2344                                   20602967.3674
                                                                        52.5004
        41.5004
   1797818.61747   1422726.45345
                  22890522.8054                                   22890520.0204
                                                                        47.2504
        34.7504
  -1914139.03947  -1392313.37944
                  23475946.5864                                   23475943.3914
                                                                        44.2504
        26.5004
   3429533.60947   2668591.19145
                  23610882.8204                                   23610879.3674
                                                                        44.5004
        31.0004
   2950586.19547   2302952.20744
                  22851918.4224                                   22851914.5784
                                                                        45.7504
        28.7504
   -346703.69548   -215639.78945
                  22109850.9614                                   22109845.4304
                                                                        48.5004
        34.7504
    288763.91847    269746.37945
                  22590046.3054                                   22590043.9884
                                                                        45.7504
        30.0004
    321492.96947    291965.82844
                  23717134.2584                                   23717130.2624
                                                                        43.5004
        28.2504
 09 10  2 23 21 30.0000000  0  9G02G04G12G13G17G20G23G30G31
  -1564987.77348  -1151331.00846
                  21945484.8984                                   21945479.9104
                                                                        51.5004
        39.5004
    226536.27348    221371.14147
                  20583233.3754                                   20583230.3524
                                                                        52.0004
        42.2504
   1753377.05547   1388096.65645
                  22882065.7894                                   22882062.7424
                                                                        47.5004
        35.5004
  -2112306.66447  -1546729.70744
                  23438235.8054                                   23438232.8874
                                                                        44.5004
        28.2504
   3446702.99247   2681969.80144
                  23614149.0474                                   23614146.6024
                                                                        44.0004
        29.7504
   2949953.61747   2302459.24244
                  22851798.0234                                   22851793.7384
                                                                        45.2504
        29.5004
   -477549.61748   -317597.65245
                  22084951.9844                                   22084946.1604
                                                                        48.2504
        35.2504
    184772.09847    188713.73444
                  22570257.8284                                   22570255.3984
                                                                        46.0004
        29.5004
    217625.59847    211030.19144
                  23697368.6484                                   23697364.9384
                                                                        44.2504
        27.7504
 09 10  2 23 22  0.0000000  0  9G02G04G12G13G17G20G23G30G31
  -1740668.13748  -1288224.77346
                  21912053.9224                                   21912048.8914
                                                                        52.5004
        39.5004
    123571.86748    141139.14547
                  20563640.2114                                   20563637.4534
                                                                        52.2504
        42.0004
   1709670.25047   1354039.30545
                  22873748.6254                                   22873745.5704
                                                                        47.0004
        34.7504
  -2309988.22347  -1700767.21944
                  23400618.4844                                   23400614.6994
                                                                        45.5004
        28.2504
   3464266.69547   2695655.65245
                  23617491.9774                                   23617489.5164
                                                                        43.7504
        30.7504
   2949835.50847   2302367.22744
                  22851775.2424                                   22851771.4064
                                                                        45.0004
        28.5004
   -607616.35547   -418948.42245
                  22060201.2194                                   22060195.5274
                                                                        47.7504
        34.2504
     81645.23047    108355.12945
                  22550633.3364                                   22550630.4574
                                                                        46.2504
        30.5004
    114540.72347    130704.30944
                  23677752.5234                                   23677748.4144
                                                                        44.5004
        28.2504
 09 10  2 23 22 30.0000000  0  9G02G04G12G13G17G20G23G30G31
  -1915824.56248  -1424710.30146
                  21878723.0314                                   21878717.7584
                                                                        51.5004
        39.7504
     21348.93448     61484.90646
                  20544187.7424                                   20544184.7934
                                                                        52.2504
        41.5004
   1666685.92647   1320545.04345
                  22865568.8524                                   22865565.9694
                                                                        47.0004
        35.2504
  -2507192.25447  -1854432.69944
                  23363091.6414                                   23363088.0514
                                                                        45.5004
        26.5004
   3482211.30947   2709638.34845
                  23620907.1884                                   23620903.9774
                                                                        45.5004
        31.5004
   2950217.91047   2302665.14844
                  22851848.2344                                   22851844.2894
                                                                        44.7504
        27.7504
   -736914.01248   -519699.89845
                  22035596.3674                                   22035590.6804
                                                                        48.0004
        34.7504
    -20626.97347     28662.48044
                  22531171.5944                                   22531168.9574
                                                                        45.2504
        28.2504
     12227.18047     50979.46944
                  23658282.6564                                   23658279.3954
                                                                        44.0004
        27.5004
 09 10  2 23 23  0.0000000  0  9G02G04G12G13G17G20G23G30G31
  -2090457.45748  -1560787.86346
                  21845491.1094                                   21845486.4384
                                                                        52.0004
        39.0004
    -80134.58648    -17593.16047
                  20524875.8834                                   20524873.3054
                                                                        52.0004
        42.0004
   1624419.71147   1287610.33645
                  22857526.4304                                   22857523.3954
                                                                        47.0004
        35.2504
  -2703917.73047  -2007725.21144
                  23325656.2274                                   23325652.4804
                                                                        46.0004
        26.0004
   3500531.83647   2723913.91445
                  23624393.1724                                   23624390.6174
                                                                        45.0004
        31.7504
   2951096.21947   2303349.50444
                  22852015.4064                                   22852011.9844
                                                                        45.5004
        29.5004
   -865442.98047   -619852.30945
                  22011138.5704                                   22011132.5984
                                                                        47.2504
        35.5004
   -122046.68747    -50365.85545
                  22511872.0084                                   22511869.2854
                                                                        44.5004
        30.0004
    -89316.46147    -28145.42644
                  23638959.3984                                   23638955.9184
                                                                        44.5004
        27.2504
 09 10  2 23 23 30.0000000  0  9G02G04G12G13G17G20G23G30G31
  -2264573.18048  -1696462.43446
                  21812358.0634                                   21812353.1604
                                                                        51.7504
        38.7504
   -180886.66048    -96101.27346
                  20505703.5474                                   20505700.8134
                                                                        52.2504
        41.7504
   1582861.21948   1255227.15245
                  22849617.8054                                   22849614.7234
                                                                        48.0004
        35.5004
  -2900169.56247  -2160648.68744
                  23288309.8754                                   23288307.0234
                                                                        44.5004
        25.0004
   3519218.07047   2738474.50045
                  23627950.1644                                   23627946.9144
                                                                        46.0004
        31.5004
   2952460.18847   2304412.30944
                  22852275.1884                                   22852271.4024
                                                                        45.5004
        28.5004
   -993210.22348   -719411.18045
                  21986824.9774                                   21986819.1524
                                                                        48.2504
        35.0004
   -222622.07847   -128736.28545
                  22492732.9694                                   22492730.2854
                                                                        46.0004
        30.5004
   -190098.02747   -106676.50444
                  23619781.1254                                   23619778.0554
                                                                        43.7504
        28.5004
 09 10  2 23 24  0.0000000  0  9G02G04G12G13G17G20G23G30G31
  -2438172.82448  -1831734.87546
                  21779323.0474                                   21779318.2814
                                                                        52.2504
        39.0004
   -280910.53548   -174041.94147
                  20486669.7424                                   20486666.8954
                                                                        51.7504
        42.0004
   1542005.02747   1223391.13345
                  22841843.7894                                   22841840.2704
                                                                        47.5004
        34.7504
  -3095948.78147  -2313203.93044
                  23251054.7734                                   23251051.7274
                                                                        45.0004
        26.7504
   3538264.07047   2753315.59045
                  23631574.1024                                   23631570.8164
                                                                        44.5004
        31.2504
   2954303.30547   2305848.43444
                  22852625.9534                                   22852621.8954
                                                                        45.0004
        27.5004
  -1120218.18748   -818378.43045
                  21962656.3834                                   21962650.8134
                                                                        48.5004
        35.5004
   -322355.79347   -206450.85944
                  22473754.3204                                   22473751.6524
                                                                        45.2504
        29.7504
   -290120.77747   -184616.33644
                  23600747.5164                                   23600744.3484
                                                                        44.2504
        29.2504
 09 10  2 23 24 30.0000000  0  9G02G04G12G13G17G20G23G30G31
  -2611262.05948  -1966609.59446
                  21746385.2814                                   21746380.1454
                                                                        52.0004
        39.5004
   -380213.66048   -251421.01647
                  20467772.9774                                   20467769.8244
                                                                        51.0004
        42.0004
   1501842.00047   1192095.26245
                  22834200.5164                                   22834197.1884
                                                                        47.0004
        35.2504
  -3291259.50047  -2465394.03544
                  23213888.9614                                   23213885.4694
                                                                        46.2504
        28.2504
   3557659.76647   2768429.11344
                  23635264.6644                                   23635261.7504
                                                                        42.0004
        28.7504
   2956615.62547   2307650.18044
                  22853065.9694                                   22853061.7274
                                                                        45.2504
        27.7504
  -1246473.11347   -916758.89145
                  21938630.5004                                   21938624.8954
                                                                        47.7504
        35.0004
   -421255.52047   -283515.62944
                  22454934.0234                                   22454931.5004
                                                                        45.7504
        29.2504
   -389391.76647   -261970.32044
                  23581857.2114                                   23581853.6524
                                                                        42.7504
        29.0004
 09 10  2 23 25  0.0000000  0  9G02G04G12G13G17G20G23G30G31
  -2783842.91848  -2101088.18046
                  21713544.1024                                   21713539.1254
                                                                        51.5004
        39.2504
   -478799.51648   -328241.17247
                  20449012.7274                                   20449009.6914
                                                                        52.0004
        42.5004
   1462366.35547   1161335.00445
                  22826688.4694                                   22826685.3554
                                                                        47.2504
        35.0004
  -3486102.34447  -2617219.55144
                  23176811.2344                                   23176808.1524
                                                                        46.2504
        28.5004
   3577398.80947   2783810.07444
                  23639020.8134                                   23639017.8094
                                                                        43.2504
        29.2504
   2959391.50847   2309813.13744
                  22853594.3284                                   22853589.8404
                                                                        45.0004
        27.2504
  -1371977.39848  -1014554.46545
                  21914748.2584                                   21914742.7504
                                                                        48.7504
        35.2504
   -519324.77047   -359933.21544
                  22436272.5234                                   22436269.7464
                                                                        45.5004
        29.5004
   -487914.77747   -338741.50044
                  23563108.4774                                   23563105.5514
                                                                        43.2504
        29.2504
 09 10  2 23 25 30.0000000  0  9G02G04G12G13G17G20G23G30G31
  -2955920.36348  -2235174.49246
                  21680798.9694                                   21680793.9574
                                                                        52.2504
        39.5004
   -576675.10248   -404507.85547
                  20430387.3524                                   20430384.7974
                                                                        51.5004
        42.2504
   1423569.21947   1131103.54345
                  22819305.1644                                   22819302.2074
                                                                        47.0004
        34.7504
  -3680481.32447  -2768683.61344
                  23139822.0234                                   23139818.9614
                                                                        46.7504
        29.2504
   3597472.34047   2799451.88745
                  23642840.9694                                   23642838.0314
                                                                        42.7504
        30.0004
   2962621.02047   2312329.56344
                  22854208.5784                                   22854204.9264
                                                                        45.2504
        27.0004
  -1496736.52048  -1111769.36345
                  21891007.5314                                   21891001.6454
                                                                        48.0004
        35.0004
   -616570.38747   -435709.00845
                  22417767.1334                                   22417764.5784
                                                                        43.7504
        31.0004
   -585696.33647   -414934.90644
                  23544501.6954                                   23544498.3094
                                                                        43.5004
        29.0004
 09 10  2 23 26  0.0000000  0  9G02G04G12G13G17G20G23G30G31
  -3127494.42248  -2368868.54746
                  21648149.5004                                   21648144.5824
                                                                        52.0004
        39.7504
   -673842.14848   -480222.43747
                  20411897.3284                                   20411894.4614
                                                                        50.0004
        42.2504
   1385446.23447   1101397.40245
                  22812050.8364                                   22812047.2774
                                                                        47.0004
        34.5004
  -3874395.69947  -2919785.72344
                  23102921.5474                                   23102917.9804
                                                                        46.2504
        28.0004
   3617875.35947   2815350.36345
                  23646723.3754                                   23646720.0314
                                                                        42.0004
        30.0004
   2966300.08247   2315196.23844
                  22854908.7034                                   22854905.1564
                                                                        44.5004
        27.5004
  -1620751.91847  -1208404.78145
                  21867408.1884                                   21867402.1954
                                                                        47.5004
        35.5004
   -712994.10247   -510844.35545
                  22399418.1954                                   22399416.2704
                                                                        43.5004
        30.7504
   -682738.63747   -490552.26644
                  23526034.6804                                   23526031.7384
                                                                        44.5004
        29.2504
 09 10  2 23 26 30.0000000  0  9G02G04G12G13G17G20G23G30G31
  -3298568.70348  -2502173.20746
                  21615595.2504                                   21615590.2854
                                                                        51.7504
        39.2504
   -770306.42248   -555389.41047
                  20393540.8364                                   20393538.0474
                                                                        50.7504
        42.2504
   1347989.87547   1072210.64845
                  22804923.2194                                   22804920.4024
                                                                        47.0004
        35.0004
  -4067847.77047  -3070527.43744
                  23066108.7424                                   23066105.3984
                                                                        45.5004
        27.0004
   3638600.03146   2831499.51244
                  23650667.1884                                   23650663.8954
                                                                        41.2504
        28.0004
   2970420.75447   2318407.14544
                  22855693.3134                                   22855689.3794
                                                                        45.7504
        28.0004
  -1744027.91048  -1304464.07445
                  21843949.5164                                   21843943.7274
                                                                        48.5004
        35.5004
   -808601.80947   -585343.85945
                  22381225.0394                                   22381222.5744
                                                                        43.5004
        30.0004
   -779046.73447   -565597.53544
                  23507708.3204                                   23507704.8484
                                                                        43.7504
        27.5004
 09 10  2 23 27  0.0000000  0  9G02G04G12G13G17G20G23G30G31
  -3469143.46548  -2635088.59446
                  21583135.9844                                   21583130.9024
                                                                        51.2504
        39.7504
   -866069.86348   -630010.27347
                  20375317.7344                                   20375314.5204
                                                                        51.2504
        42.0004
   1311195.84847   1043539.96145
                  22797921.8914                                   22797918.8914
                                                                        47.7504
        35.5004
  -4260836.73447  -3220908.36744
                  23029383.7974                                   23029379.9654
                                                                        45.5004
        26.2504
   3659641.79747   2847895.69944
                  23654670.7734                                   23654668.1024
                                                                        42.2504
        28.5004
   2974978.19947   2321958.37144
                  22856560.2034                                   22856556.7114
                                                                        45.5004
        27.0004
  -1866565.03548  -1399947.62145
                  21820631.6024                                   21820625.8914
                                                                        49.2504
        35.7504
   -903395.49247   -659209.07045
                  22363186.0944                                   22363183.9224
                                                                        43.5004
        31.2504
   -874622.69547   -640072.30544
                  23489521.0864                                   23489517.2734
                                                                        44.5004
        28.5004
 09 10  2 23 27 30.0000000  0  9G02G04G12G13G17G20G23G30G31
  -3639223.12148  -2767618.17646
                  21550770.7664                                   21550765.9384
                                                                        51.7504
        40.2504
   -961139.18448   -704090.25847
                  20357226.5864                                   20357223.4614
                                                                        51.5004
        42.0004
   1275055.64147   1015378.73045
                  22791044.2584                                   22791041.7384
                                                                        46.0004
        34.5004
  -4453366.70347  -3370931.70344
                  22992746.9924                                   22992743.2304
                                                                        45.7504
        27.2504
   3680991.07847   2864531.41045
                  23658733.9534                                   23658731.3524
                                                                        43.5004
        30.0004
   2979962.74247   2325842.40244
                  22857508.6174                                   22857505.0634
                                                                        45.2504
        27.5004
  -1988369.25048  -1494859.99245
                  21797452.8674                                   21797447.5824
                                                                        48.5004
        35.5004
   -997381.66447   -732445.02345
                  22345300.9384                                   22345298.7814
                                                                        44.5004
        32.0004
   -969473.10947   -713981.71144
                  23471471.6954                                   23471467.5784
                                                                        42.0004
        29.2504
 09 10  2 23 28  0.0000000  0  9G02G04G12G13G17G20G23G30G31
  -2233380.99648  -1672156.77046
                  21818293.7734                                   21818288.8714
                                                                        52.0004
        39.7504
    519908.27048    449972.68847
                  20639060.3594                                   20639057.6024
                                                                        52.5004
        42.0004
   2814987.73847   2215325.79345
                  23084083.8524                                   23084080.7854
                                                                        46.7504
        34.7504
  -3070008.19947  -2292989.97744
                  23255990.9844                                   23255987.2194
                                                                        46.0004
        28.5004
   5278064.77047   4109004.37545
                  23962647.0084                                   23962644.0514
                                                                        43.5004
        30.5004
   4560792.09447   3557657.46144
                  23158330.9534                                   23158327.2734
                                                                        45.5004
        27.0004
   -534015.87948   -361597.60945
                  22074207.1564                                   22074201.7424
                                                                        48.7504
        35.5004
    484862.15647    422550.20745
                  22627362.4924                                   22627360.2504
                                                                        44.5004
        30.5004
    511824.80547    440276.42644
                  23753353.0634                                   23753349.0984
                                                                        43.7504
        28.5004
 09 10  2 23 28 30.0000000  0  9G02G04G12G13G17G20G23G30G31
  -2402471.89848  -1803915.91046
                  21786116.6954                                   21786111.5004
                                                                        51.0004
        39.7504
    426220.81348    376969.48447
                  20621232.3984                                   20621229.7154
                                                                        51.0004
        42.2504
   2780142.36747   2188173.65645
                  23077452.7814                                   23077449.6414
                                                                        46.0004
        34.0004
  -3261616.75047  -2442295.30944
                  23219528.7734                                   23219525.8284
                                                                        46.2504
        29.5004
   5300016.66447   4126109.81345
                  23966824.1174                                   23966821.7814
                                                                        44.5004
        30.5004
   4566618.18847   3562197.27744
                  23159439.4384                                   23159436.0354
                                                                        45.5004
        26.7504
   -654357.40248   -455370.27045
                  22051306.7734                                   22051301.4884
                                                                        48.5004
        35.2504
    392484.01647    350567.24245
                  22609783.6174                                   22609781.6484
                                                                        43.5004
        31.0004
    418419.24647    367492.86744
                  23735578.8134                                   23735574.9964
                                                                        44.5004
        28.7504
 09 10  2 23 29  0.0000000  0  9G02G04G12G13G17G20G23G30G31
  -2571069.74648  -1935290.84446
                  21754033.3674                                   21754028.7704
                                                                        51.5004
        39.7504
    333219.73848    304501.14547
                  20603534.6024                                   20603531.9224
                                                                        49.7504
        42.7504
   2745936.68447   2161519.99245
                  23070943.3524                                   23070940.5554
                                                                        46.7504
        35.5004
  -3452764.77747  -2591241.74645
                  23183154.9694                                   23183152.0984
                                                                        46.5004
        30.2504
   5322261.44147   4143443.47344
                  23971057.0004                                   23971054.6604
                                                                        43.7504
        28.2504
   4572856.64147   3567058.39544
                  23160626.4224                                   23160623.1024
                                                                        44.7504
        26.7504
   -773970.50847   -548575.30145
                  22028545.4144                                   22028539.5474
                                                                        47.7504
        34.5004
    300905.53547    279207.41045
                  22592356.7344                                   22592354.8054
                                                                        42.7504
        31.0004
    325731.66447    295268.79744
                  23717941.0704                                   23717936.9224
                                                                        43.0004
        29.2504
 09 10  2 23 29 30.0000000  0  9G02G04G12G13G17G20G23G30G31
  -2739175.37948  -2066282.21946
                  21722043.9064                                   21722038.7814
                                                                        51.7504
        40.0004
    240902.66448    232565.78547
                  20585967.3754                                   20585964.5784
                                                                        51.7504
        42.0004
   2712366.05947   2135361.09845
                  23064555.2034                                   23064551.8714
                                                                        47.0004
        34.0004
  -3643451.60247  -2739828.79744
                  23146868.4384                                   23146865.2114
                                                                        46.5004
        29.5004
   5344794.29347   4161001.59444
                  23975344.8594                                   23975342.4144
                                                                        43.5004
        27.5004
   4579502.93047   3572237.32044
                  23161890.8524                                   23161887.7734
                                                                        44.2504
        26.2504
   -892856.53548   -641213.77345
                  22005922.1334                                   22005916.3984
                                                                        48.7504
        35.7504
    210123.96147    208468.52345
                  22575081.7734                                   22575079.4774
                                                                        43.0004
        31.0004
    233759.97747    223602.59444
                  23700438.8204                                   23700435.0784
                                                                        44.5004
        29.7504
 09 10  2 23 30  0.0000000  0  9G02G04G12G13G17G20G23G30G31
  -2906790.36348  -2196891.26646
                  21690147.7734                                   21690142.7584
                                                                        51.7504
        39.2504
    149265.71548    161160.40247
                  20568529.3674                                   20568526.3014
                                                                        52.2504
        42.0004
   2679424.55547   2109692.37145
                  23058286.8594                                   23058283.7344
                                                                        46.2504
        34.5004
  -3833678.12947  -2888057.24644
                  23110669.4924                                   23110665.5664
                                                                        46.2504
        27.5004
   5367608.78147   4178779.13744
                  23979686.2194                                   23979683.0904
                                                                        44.5004
        27.0004
   4586550.55147   3577728.97344
                  23163232.4224                                   23163229.1294
                                                                        44.5004
        27.5004
  -1011018.49248   -733287.98845
                  21983436.4694                                   21983430.7854
                                                                        49.0004
        35.2504
    120135.40647    138347.56345
                  22557957.5084                                   22557955.6564
                                                                        46.5004
        31.5004
    142499.97347    152490.91844
                  23683073.2274                                   23683068.8404
                                                                        44.2504
        29.2504
 09 10  2 23 30 30.0000000  0  9G02G04G12G13G17G20G23G30G31
  -3073916.91048  -2327119.74246
                  21658344.8594                                   21658339.8244
                                                                        52.2504
        40.0004
     58304.87548     90281.86747
                  20551220.1804                                   20551217.3364
                                                                        50.5004
        42.2504
   2647106.47347   2084509.41445
                  23052136.9144                                   23052133.6804
                                                                        46.0004
        34.2504
  -4023445.35247  -3035927.73044
                  23074557.7274                                   23074553.6644
                                                                        45.7504
        27.0004
   5390698.69947   4196771.37944
                  23984080.1884                                   23984076.7854
                                                                        45.0004
        28.2504
   4593992.97347   3583528.21544
                  23164648.6174                                   23164645.3594
                                                                        44.2504
        27.0004
  -1128459.27048   -824800.26645
                  21961088.0004                                   21961082.5904
                                                                        48.7504
        34.7504
     30935.87547     68841.44145
                  22540983.2504                                   22540981.4024
                                                                        43.0004
        30.5004
     51947.76247     81930.75844
                  23665841.2114                                   23665837.7894
                                                                        44.5004
        28.5004
 09 10  2 23 31  0.0000000  0  9G02G04G12G13G17G20G23G30G31
  -3240555.79348  -2456968.22746
                  21626634.5634                                   21626629.6054
                                                                        52.0004
        40.0004
    -31982.44148     19928.09846
                  20534039.0634                                   20534036.1684
                                                                        52.0004
        41.7504
   2615406.70347   2059808.37545
                  23046104.7274                                   23046100.9694
                                                                        47.0004
        33.7504
  -4212752.93447  -3183440.07844
                  23038533.9694                                   23038530.0554
                                                                        45.2504
        27.7504
   5414058.74247   4214973.98444
                  23988526.0004                                   23988522.8524
                                                                        46.0004
        29.5004
   4601824.96547   3589631.02344
                  23166139.4534                                   23166135.7774
                                                                        44.5004
        26.7504
  -1245180.42648   -915751.82445
                  21938877.1804                                   21938871.3164
                                                                        48.5004
        34.7504
    -57477.25447       -51.89845
                  22524158.8594                                   22524156.7424
                                                                        46.2504
        31.0004
    -37899.07447     11920.25844
                  23648744.1254                                   23648740.1954
                                                                        43.0004
        28.7504
 09 10  2 23 31 30.0000000  0  9G02G04G12G13G17G20G23G30G31
  -3406707.81648  -2586437.34046
                  21595016.9694                                   21595011.6644
                                                                        51.7504
        40.7504
   -121599.40248    -49903.29347
                  20516985.4064                                   20516982.3204
                                                                        52.5004
        42.0004
   2584319.77747   2035584.77745
                  23040188.7034                                   23040185.5554
                                                                        47.0004
        33.5004
  -4401600.75847  -3330594.19544
                  23002597.1024                                   23002592.6334
                                                                        45.7504
        28.0004
   5437683.75847   4233383.05545
                  23993021.3204                                   23993018.4654
                                                                        44.2504
        30.0004
   4610041.49247   3596033.48444
                  23167702.9694                                   23167698.8754
                                                                        44.0004
        26.2504
  -1361184.16048  -1006144.36345
                  21916802.2734                                   21916796.3364
                                                                        48.7504
        35.5004
   -145107.46947    -68335.17645
                  22507483.3054                                   22507481.3094
                                                                        46.0004
        31.0004
   -127043.51647    -57542.92644
                  23631780.6884                                   23631776.4414
                                                                        43.2504
        28.7504
 09 10  2 23 32  0.0000000  0  9G02G04G12G13G17G20G23G30G31
  -3572374.20748  -2715528.03946
                  21563491.4694                                   21563486.5944
                                                                        52.2504
        40.7504
   -210549.03148   -119214.67247
                  20500058.8594                                   20500056.1844
                                                                        52.5004
        42.2504
   2553840.77047   2011834.91045
                  23034388.6644                                   23034385.3954
                                                                        45.5004
        34.2504
  -4589988.80147  -3477390.03144
                  22966748.1804                                   22966744.5124
                                                                        46.0004
        29.2504
   5461568.69947   4251994.60244
                  23997566.0784                                   23997563.7734
                                                                        42.5004
        29.2504
   4618637.46547   3602731.65644
                  23169338.4454                                   23169334.6804
                                                                        44.5004
        27.2504
  -1476472.22748  -1095979.28145
                  21894863.4384                                   21894858.0984
                                                                        49.0004
        35.5004
   -231957.87147   -136010.82045
                  22490956.4064                                   22490954.2304
                                                                        46.0004
        31.0004
   -215488.62947   -126461.19144
                  23614949.8204                                   23614946.3404
                                                                        43.7504
        29.0004
 09 10  2 23 32 30.0000000  0  9G02G04G12G13G17G20G23G30G31
  -3737555.19948  -2844240.48846
                  21532058.4694                                   21532053.8284
                                                                        52.0004
        40.2504
   -298834.01248   -188008.16447
                  20483258.9614                                   20483256.3634
                                                                        52.0004
        42.5004
   2523965.05147   1988555.09045
                  23028703.1644                                   23028700.5784
                                                                        47.0004
        34.0004
  -4777916.51647  -3623827.14844
                  22930986.7194                                   22930982.9574
                                                                        46.5004
        29.0004
   5485708.60947   4270804.96544
                  24002159.9224                                   24002157.3524
                                                                        43.0004
        28.0004
   4627607.55947   3609721.34444
                  23171045.3204                                   23171041.7384
                                                                        43.7504
        25.5004
  -1591046.74248  -1185258.27745
                  21873061.0164                                   21873055.6094
                                                                        48.7504
        35.5004
   -318031.34847   -203081.04345
                  22474577.1724                                   22474574.8054
                                                                        47.0004
        30.5004
   -303237.60947   -194837.06244
                  23598252.0164                                   23598248.3754
                                                                        44.0004
        29.0004
 09 10  2 23 33  0.0000000  0  9G02G04G12G13G17G20G23G30G31
  -3902250.77748  -2972574.68446
                  21500718.2114                                   21500713.3244
                                                                        52.0004
        40.5004
   -386455.83648   -256284.89147
                  20466585.1644                                   20466582.6564
                                                                        52.2504
        43.0004
   2494688.89547   1965742.50845
                  23023132.7114                                   23023129.6054
                                                                        46.2504
        34.5004
  -4965382.77047  -3769904.69944
                  22895312.9144                                   22895309.4104
                                                                        46.2504
        29.7504
   5510098.94947   4289810.39544
                  24006801.5164                                   24006798.5044
                                                                        43.7504
        27.5004
   4636947.85547   3616999.47344
                  23172822.5394                                   23172819.4654
                                                                        42.5004
        25.0004
  -1704907.68748  -1273981.10945
                  21851393.7894                                   21851388.0354
                                                                        49.7504
        35.7504
   -403329.62547   -269547.21145
                  22458345.5704                                   22458343.0474
                                                                        45.5004
        31.2504
   -390291.41047   -262671.17244
                  23581686.1484                                   23581682.4064
                                                                        43.5004
        28.2504
 09 10  2 23 33 30.0000000  0  9G02G04G12G13G17G20G23G30G31
  -4066460.10248  -3100529.97346
                  21469470.0634                                   21469465.2934
                                                                        52.0004
        40.2504
   -473416.11348   -324046.13746
                  20450036.7664                                   20450034.1644
                                                                        52.5004
        41.5004
   2466008.69547   1943394.28945
                  23017674.8054                                   23017671.7424
                                                                        46.2504
        35.0004
  -5152385.71147  -3915621.22344
                  22859726.7194                                   22859723.7544
                                                                        44.7504
        29.0004
   5534736.37947   4309008.37944
                  24011490.1414                                   24011486.2304
                                                                        45.0004
        27.5004
   4646654.65647   3624563.27344
                  23174669.5634                                   23174666.3754
                                                                        42.0004
        25.2504
  -1818055.91048  -1362148.60545
                  21829862.5234                                   21829856.8444
                                                                        49.2504
        35.7504
   -487854.56647   -335410.75845
                  22442260.9384                                   22442258.4454
                                                                        46.0004
        32.0004
   -476651.64147   -329964.85544
                  23565252.2584                                   23565248.5394
                                                                        42.5004
        28.0004
 09 10  2 23 34  0.0000000  0  9G02G04G12G13G17G20G23G30G31
  -4230185.78548  -3228108.39846
                  21438313.9304                                   21438308.9804
                                                                        52.2504
        40.2504
   -559719.21148   -391295.28947
                  20433614.0784                                   20433611.2384
                                                                        51.7504
        42.2504
   2437917.94547   1921505.34045
                  23012329.8054                                   23012326.6484
                                                                        46.5004
        33.7504
  -5338926.83647  -4060977.87145
                  22824229.1954                                   22824226.0864
                                                                        45.0004
        30.2504
   5559614.05147   4328393.61744
                  24016224.1414                                   24016220.1914
                                                                        45.7504
        27.5004
   4656721.09847   3632407.35544
                  23176585.0474                                   23176581.7664
                                                                        43.2504
        24.0004
  -1930494.83648  -1449763.38345
                  21808466.1724                                   21808460.5514
                                                                        48.7504
        35.5004
   -571610.46947   -400675.07845
                  22426322.7504                                   22426320.4654
                                                                        45.0004
        31.0004
   -562322.86747   -396721.66044
                  23548949.2814                                   23548945.9964
                                                                        42.5004
        28.2504
 09 10  2 23 34 30.0000000  0  9G02G04G12G13G17G20G23G30G31
  -4393428.47348  -3355310.48446
                  21407250.1724                                   21407245.1254
                                                                        52.7504
        40.0004
   -645368.21548   -458034.78947
                  20417315.2034                                   20417312.6884
                                                                        51.5004
        42.7504
   2410411.55947   1900071.77745
                  23007095.2194                                   23007092.0664
                                                                        47.2504
        34.5004
  -5525005.93447  -4205974.52044
                  22788819.8204                                   22788816.0394
                                                                        46.2504
        29.0004
   5584727.19147   4347962.30944
                  24021002.6094                                   24020999.7114
                                                                        43.2504
        28.0004
   4667141.93047   3640527.48844
                  23178568.6094                                   23178564.7234
                                                                        43.2504
        26.2504
  -2042226.44548  -1536826.97745
                  21787204.6334                                   21787198.9924
                                                                        49.7504
        35.5004
   -654600.34047   -465342.48845
                  22410530.3524                                   22410528.0044
                                                                        43.7504
        30.5004
   -647307.91847   -462943.75044
                  23532777.1334                                   23532773.8204
                                                                        43.5004
        28.0004
 09 10  2 23 35  0.0000000  0  9G02G04G12G13G17G20G23G30G31
  -4556187.07848  -3482135.35546
                  21376277.7734                                   21376272.8054
                                                                        52.5004
        40.5004
   -730363.57048   -524264.90647
                  20401141.4304                                   20401138.5704
                                                                        51.0004
        42.0004
   2383486.78547   1879091.40245
                  23001971.6094                                   23001968.7424
                                                                        45.2504
        33.7504
  -5710620.65247  -4350609.36345
                  22753498.7814                                   22753494.9924
                                                                        47.7504
        30.5004
   5610072.27746   4367711.68044
                  24025824.7034                                   24025823.0394
                                                                        41.0004
        26.5004
   4677914.28947   3648921.56344
                  23180618.6724                                   23180614.3014
                                                                        42.7504
        24.7504
  -2153250.55548  -1623339.26645
                  21766077.2734                                   21766071.4924
                                                                        48.7504
        35.2504
   -736825.43047   -529413.96145
                  22394883.4844                                   22394880.4774
                                                                        44.0004
        31.5004
   -731607.68447   -528631.88744
                  23516735.6954                                   23516731.6724
                                                                        42.7504
        27.2504
 09 10  2 23 35 30.0000000  0  9G02G04G12G13G17G20G23G30G31
  -4718461.75448  -3608583.11346
                  21345398.3284                                   21345392.9734
                                                                        52.5004
        40.2504
   -814708.14548   -589987.91847
                  20385091.1804                                   20385088.6334
                                                                        52.5004
        42.0004
   2357138.80147   1858560.49645
                  22996957.6484                                   22996954.9924
                                                                        45.2504
        33.0004
  -5895770.05547  -4494881.59844
                  22718265.9924                                   22718261.8164
                                                                        47.5004
        29.7504
   5635644.98846   4387638.33644
                  24030692.1174                                   24030689.5704
                                                                        41.5004
        27.7504
   4689033.48047   3657585.91044
                  23182734.5394                                   23182730.4184
                                                                        43.7504
        25.0004
  -2263568.59048  -1709301.35946
                  21745084.7584                                   21745078.5864
                                                                        49.5004
        36.0004
   -818288.55147   -592891.70345
                  22379381.3524                                   22379378.6884
                                                                        47.0004
        31.0004
   -815225.21147   -593788.44944
                  23500824.0164                                   23500820.2154
                                                                        45.0004
        29.2504
 09 10  2 23 36  0.0000000  0  9G02G04G12G13G17G20G23G30G31
  -4880251.12548  -3734652.73846
                  21314610.7504                                   21314606.0164
                                                                        52.5004
        40.7504
   -898402.46548   -655204.28947
                  20369164.7664                                   20369162.0984
                                                                        51.5004
        42.2504
   2331364.91847   1838476.94945
                  22992052.9774                                   22992050.1954
                                                                        44.5004
        34.0004
  -6080451.64847  -4638789.30544
                  22683122.0784                                   22683118.3554
                                                                        46.7504
        28.5004
   5661442.34047   4407740.12144
                  24035601.0864                                   24035599.2304
                                                                        43.5004
        29.0004
   4700496.56347   3666518.21144
                  23184915.3204                                   23184911.9734
                                                                        42.7504
        25.2504
  -2373180.30948  -1794713.08245
                  21724226.1414                                   21724220.2504
                                                                        49.2504
        35.5004
   -898990.28147   -655776.16045
                  22364024.2584                                   22364021.7074
                                                                        46.5004
        31.0004
   -898160.51647   -658413.37944
                  23485041.7974                                   23485038.1954
                                                                        43.7504
        29.5004
 09 10  2 23 36 30.0000000  0  9G02G04G12G13G17G20G23G30G31
  -5041556.28948  -3860345.04346
                  21283915.3204                                   21283910.4454
                                                                        52.7504
        40.5004
   -981449.58648   -719916.34846
                  20353361.3674                                   20353358.7074
                                                                        52.7504
        41.7504
   2306160.19947   1818836.93845
                  22987257.3914                                   22987254.1134
                                                                        45.5004
        33.7504
  -6264665.95747  -4782332.87944
                  22648066.8914                                   22648063.5554
                                                                        46.5004
        28.5004
   5687459.02747   4428012.84044
                  24040552.4224                                   24040549.2234
                                                                        44.5004
        28.5004
   4712298.06346   3675714.18044
                  23187161.0234                                   23187157.4924
                                                                        41.7504
        25.2504
  -2482088.09048  -1879576.27345
                  21703501.6484                                   21703495.7504
                                                                        49.7504
        35.0004
   -978933.91047   -718069.86745
                  22348811.2034                                   22348809.2734
                                                                        46.7504
        30.5004
   -980416.90247   -722509.28144
                  23469388.5084                                   23469385.1994
                                                                        44.7504
        29.0004
 09 10  2 23 37  0.0000000  0  9G02G04G12G13G17G20G23G30G31
  -3626951.75848  -2758055.78946
                  21553105.7274                                   21553100.6564
                                                                        52.5004
        40.5004
    511571.14548    443476.46147
                  20637473.7504                                   20637470.6254
                                                                        52.5004
        42.7504
   3856941.04347   3027237.60245
                  23282360.5004                                   23282357.4734
                                                                        45.7504
        33.0004
  -4872985.28947  -3697906.35545
                  22912895.6414                                   22912891.8754
                                                                        46.7504
        30.0004
   7289110.03947   5676052.61344
                  24345336.6564                                   24345332.6174
                                                                        45.5004
        26.7504
   6299854.09847   4912770.83644
                  23489262.5164                                   23489259.8794
                                                                        42.0004
        25.0004
  -1014869.43448   -736289.03545
                  21982704.2584                                   21982698.3914
                                                                        49.7504
        35.2504
    517300.62547    447827.18045
                  22633535.1174                                   22633532.6414
                                                                        45.0004
        30.0004
    513426.38347    441524.45744
                  23753657.6884                                   23753654.4144
                                                                        43.7504
        29.5004
 09 10  2 23 37 30.0000000  0  9G02G04G12G13G17G20G23G30G31
  -3787287.68748  -2882992.85946
                  21522594.7034                                   21522590.0274
                                                                        52.7504
        40.2504
    429812.51248    379768.43847
                  20621915.3674                                   20621912.3594
                                                                        52.0004
        42.2504
   3832861.87147   3008474.57045
                  23277778.7274                                   23277775.6414
                                                                        45.5004
        33.7504
  -5056260.45747  -3840718.14545
                  22878019.3364                                   22878015.6024
                                                                        47.0004
        30.7504
   7315553.27347   5696657.77344
                  24350367.9384                                   24350364.6564
                                                                        43.7504
        25.7504
   6312320.91446   4922485.22344
                  23491635.6254                                   23491632.1254
                                                                        41.5004
        24.7504
  -1122371.98048   -820057.20745
                  21962246.8054                                   21962241.1764
                                                                        49.0004
        35.7504
    438865.97347    386709.27745
                  22618609.0474                                   22618606.8014
                                                                        46.0004
        30.5004
    432522.21547    378482.28145
                  23738262.4614                                   23738258.7854
                                                                        42.0004
        30.0004
 09 10  2 23 38  0.0000000  0  9G02G04G12G13G17G20G23G30G31
  -3947137.70748  -3007551.30546
                  21492176.3674                                   21492171.1994
                                                                        53.0004
        40.7504
    348696.01248    316560.75447
                  20606480.0004                                   20606476.7624
                                                                        51.5004
        42.5004
   3809340.54747   2990146.25445
                  23273302.7424                                   23273299.5394
                                                                        44.7504
        34.0004
  -5239063.11747  -3983161.72744
                  22843233.0084                                   22843229.5314
                                                                        46.7504
        29.5004
   7342204.48447   5717424.95744
                  24355440.0784                                   24355436.1214
                                                                        43.0004
        25.5004
   6325115.13747   4932454.77744
                  23494070.1644                                   23494066.7664
                                                                        42.5004
        24.5004
  -1229172.58648   -903278.43445
                  21941923.0944                                   21941917.8554
                                                                        49.7504
        35.0004
    361183.41847    326177.41845
                  22603827.1954                                   22603824.7234
                                                                        46.2504
        30.5004
    352291.64847    315964.96144
                  23722995.1334                                   23722991.5984
                                                                        43.5004
        28.5004
 09 10  2 23 38 30.0000000  0  8G02G04G12G13G20G23G30G31
  -4106504.12148  -3131732.89146
                  21461849.8754                                   21461844.9304
                                                                        53.0004
        40.5004
    268217.35548    253850.11747
                  20591165.2894                                   20591161.8794
                                                                        52.0004
        42.2504
   3786370.38347   2972247.41045
                  23268931.4454                                   23268928.0594
                                                                        45.2504
        33.7504
  -5421395.10547  -4125238.56244
                  22808536.2114                                   22808532.5004
                                                                        46.7504
        29.7504
   6338229.92646   4942674.07844
                  23496566.1254                                   23496562.3244
                                                                        41.2504
        25.0004
  -1335274.94548   -985955.56645
                  21921733.0314                                   21921727.2894
                                                                        50.2504
        35.5004
    284248.11747    266227.82845
                  22589186.7344                                   22589184.3554
                                                                        43.0004
        30.0004
    272730.30547    253969.14144
                  23707854.5634                                   23707851.5164
                                                                        44.0004
        28.2504
 09 10  2 23 39  0.0000000  0  8G02G04G12G13G20G23G30G31
  -4265383.61348  -3255535.00446
                  21431615.8204                                   21431610.9414
                                                                        53.0004
        40.7504
    188377.52748    191637.25847
                  20575972.1024                                   20575969.5164
                                                                        52.7504
        42.7504
   3763950.92647   2954777.71945
                  23264665.3444                                   23264662.0434
                                                                        46.0004
        33.2504
  -5603251.35547  -4266944.70345
                  22773930.5864                                   22773926.6414
                                                                        46.7504
        30.0004
   6351664.57446   4953142.59444
                  23499122.9534                                   23499118.3834
                                                                        40.7504
        25.5004
  -1440676.85248  -1068087.00045
                  21901675.4774                                   21901669.6134
                                                                        50.2504
        35.5004
    208060.69547    206861.00044
                  22574689.0164                                   22574686.4804
                                                                        44.7504
        29.5004
    193839.17647    192495.57044
                  23692842.1094                                   23692838.5234
                                                                        42.2504
        29.5004
 09 10  2 23 39 30.0000000  0  8G02G04G12G13G20G23G30G31
  -4423771.64548  -3378954.26246
                  21401475.6804                                   21401470.8364
                                                                        53.0004
        40.5004
    109179.20348    129924.28547
                  20560901.1564                                   20560898.3094
                                                                        53.0004
        42.0004
   3742081.92247   2937736.96945
                  23260503.6884                                   23260500.1524
                                                                        46.2504
        32.5004
  -5784626.58647  -4408276.01244
                  22739415.9064                                   22739411.5004
                                                                        47.0004
        29.0004
   6365419.38746   4963860.61743
                  23501739.7734                                   23501736.1024
                                                                        39.5004
        23.7504
  -1545374.97348  -1149669.95345
                  21881752.0164                                   21881746.4884
                                                                        50.0004
        35.2504
    132623.71547    148078.94945
                  22560333.7194                                   22560331.3874
                                                                        46.2504
        30.0004
    115620.89547    131546.26644
                  23677957.4614                                   23677954.2154
                                                                        43.5004
        28.7504
 09 10  2 23 40  0.0000000  0  8G02G04G12G13G20G23G30G31
  -4581664.62148  -3501987.70346
                  21371429.4384                                   21371424.2624
                                                                        53.0004
        40.7504
     30623.19548     68711.82047
                  20545952.5004                                   20545949.5084
                                                                        51.2504
        42.0004
   3720762.23447   2921124.23845
                  23256446.6024                                   23256443.3794
                                                                        45.0004
        32.7504
  -5965516.19147  -4549228.93444
                  22704993.1094                                   22704989.5784
                                                                        45.5004
        29.5004
   6379493.52046   4974827.48043
                  23504417.6334                                   23504414.7894
                                                                        38.7504
        22.7504
  -1649366.92248  -1230702.57845
                  21861963.1414                                   21861957.6054
                                                                        50.5004
        35.0004
     57937.82047     89882.15645
                  22546121.5554                                   22546119.0004
                                                                        44.5004
        30.5004
     38076.28147     71121.92244
                  23663201.5864                                   23663197.9844
                                                                        44.5004
        28.5004
 09 10  2 23 40 30.0000000  0  8G02G04G12G13G20G23G30G31
  -4739065.10248  -3624637.43046
                  21341477.4454                                   21341472.6054
                                                                        52.2504
        40.5004
    -47294.78148      7996.53147
                  20531124.9694                                   20531122.0274
                                                                        52.5004
        42.2504
   3699985.96547   2904934.93845
                  23252492.7664                                   23252489.9384
                                                                        45.5004
        32.5004
  -6145921.99647  -4689804.87145
                  22670662.8444                                   22670659.1524
                                                                        47.0004
        30.0004
   6393880.36346   4986037.95344
                  23507155.4614                                   23507152.2774
                                                                        39.0004
        24.2504
  -1752656.97748  -1311188.31245
                  21842307.4694                                   21842301.6844
                                                                        50.2504
        35.2504
    -16001.73847     32266.94545
                  22532051.6254                                   22532048.5594
                                                                        47.5004
        30.5004
    -38799.35247     11218.87144
                  23648572.5784                                   23648569.0634
                                                                        44.5004
        28.7504
 09 10  2 23 41  0.0000000  0  8G02G04G12G13G20G23G30G31
  -4895976.16048  -3746905.76246
                  21311617.9224                                   21311613.2464
                                                                        53.0004
        40.5004
   -124580.13348    -52225.79347
                  20516418.0704                                   20516415.3134
                                                                        52.5004
        42.7504
   3679745.37947   2889163.03945
                  23248641.5084                                   23248638.5044
                                                                        45.2504
        33.0004
  -6325845.67247  -4830005.12544
                  22636425.2034                                   22636421.1604
                                                                        46.7504
        29.2504
   6408572.84846   4997486.61344
                  23509951.6174                                   23509948.4384
                                                                        40.7504
        25.2504
  -1855249.36748  -1391130.44545
                  21822785.0784                                   21822778.8714
                                                                        50.5004
        35.5004
    -89201.03147    -24771.46544
                  22518121.8834                                   22518119.3554
                                                                        46.5004
        29.7504
   -115011.44147    -48167.13744
                  23634069.9924                                   23634066.2154
                                                                        43.7504
        28.5004
 09 10  2 23 41 30.0000000  0  8G02G04G12G13G20G23G30G31
  -5052400.97348  -3868795.21546
                  21281851.4534                                   21281846.3484
                                                                        52.5004
        40.5004
   -201238.64148   -111959.69547
                  20501830.7584                                   20501827.5634
                                                                        52.2504
        42.0004
   3660032.97747   2873802.72345
                  23244890.7424                                   23244887.3984
                                                                        46.0004
        33.5004
  -6505289.60247  -4969831.55945
                  22602278.0704                                   22602274.2504
                                                                        47.0004
        30.7504
   6423562.99646   5009167.21944
                  23512804.7034                                   23512801.1524
                                                                        40.7504
        24.5004
  -1957148.57048  -1470532.39545
                  21803394.1024                                   21803388.4494
                                                                        49.7504
        35.5004
   -161665.72747    -81237.48445
                  22504332.3524                                   22504329.7974
                                                                        46.5004
        30.2504
   -190565.28547   -107040.21144
                  23619692.2814                                   23619688.7304
                                                                        43.5004
        28.0004
 09 10  2 23 42  0.0000000  0  8G02G04G12G13G20G23G30G31
  -5208339.87548  -3990306.03546
                  21252177.2814                                   21252172.1024
                                                                        51.2504
        40.7504
   -277272.69948   -171207.04747
                  20487361.9224                                   20487358.9774
                                                                        52.5004
        42.5004
   3640843.83247   2858850.12945
                  23241238.9224                                   23241236.1604
                                                                        45.2504
        34.0004
  -6684253.03547  -5109283.57845
                  22568222.1644                                   22568218.5204
                                                                        45.2504
        31.7504
   6438846.56646   5021076.50444
                  23515713.0704                                   23515709.3484
                                                                        41.2504
        25.7504
  -2058356.46548  -1549395.69145
                  21784134.6804                                   21784129.5004
                                                                        50.0004
        35.5004
   -233398.70747   -137133.30545
                  22490682.3204                                   22490679.5554
                                                                        45.2504
        30.7504
   -265463.99247   -165402.82044
                  23605439.6484                                   23605435.6644
                                                                        45.0004
        29.2504
 09 10  2 23 42 30.0000000  0  8G02G04G12G13G20G23G30G31
  -5363795.36348  -4111440.16846
                  21222594.9774                                   21222590.0514
                                                                        52.5004
        40.5004
   -352687.05148   -229971.50847
                  20473010.8834                                   20473008.1134
                                                                        53.0004
        42.7504
   3622171.43047   2844300.21945
                  23237685.7894                                   23237682.5864
                                                                        46.0004
        33.2504
  -6862737.40647  -5248362.29345
                  22534257.7114                                   22534254.2854
                                                                        46.0004
        31.2504
   6454416.55946   5033208.95344
                  23518675.7034                                   23518672.0554
                                                                        41.0004
        24.7504
  -2158877.10248  -1627723.44946
                  21765006.4304                                   21765000.8984
                                                                        50.0004
        36.0004
   -304404.86747   -192462.77345
                  22477169.9844                                   22477167.4104
                                                                        46.5004
        31.0004
   -339712.23847   -223258.57844
                  23591310.3364                                   23591306.9224
                                                                        42.7504
        28.7504
 09 10  2 23 43  0.0000000  0  8G02G04G12G13G20G23G30G31
  -5518765.11348  -4232195.79746
                  21193105.3284                                   21193100.2344
                                                                        51.7504
        40.7504
   -427481.62148   -288252.96947
                  20458777.9534                                   20458774.9964
                                                                        52.7504
        42.5004
   3604013.67247   2830151.34845
                  23234229.8914                                   23234227.1644
                                                                        47.0004
        33.5004
  -7040739.47347  -5387065.20745
                  22500385.4304                                   22500381.4694
                                                                        46.2504
        30.2504
   6470271.18846   5045563.22743
                  23521692.1254                                   23521688.9534
                                                                        41.2504
        23.2504
  -2258709.43748  -1705514.87545
                  21746008.9304                                   21746003.3524
                                                                        50.7504
        35.2504
   -374685.28548   -247226.73445
                  22463796.1174                                   22463793.5864
                                                                        48.0004
        31.5004
   -413310.41447   -280607.78144
                  23577305.2734                                   23577301.9224
                                                                        43.7504
        29.5004
 09 10  2 23 43 30.0000000  0  8G02G04G12G13G20G23G30G31
  -5673249.07848  -4352572.91046
                  21163707.8834                                   21163702.9184
                                                                        51.7504
        41.0004
   -501658.61348   -346053.15247
                  20444662.6724                                   20444659.6214
                                                                        52.5004
        42.5004
   3586366.12947   2816400.02045
                  23230871.9694                                   23230869.2664
                                                                        46.2504
        33.5004
  -7218258.48047  -5525391.72345
                  22466604.4774                                   22466600.5274
                                                                        47.5004
        31.2504
   6486406.49246   5058136.14543
                  23524762.8444                                   23524759.3524
                                                                        41.0004
        21.5004
  -2357855.00848  -1782771.15245
                  21727142.1484                                   21727136.4964
                                                                        50.0004
        34.7504
   -444241.99647   -301426.75445
                  22450559.9454                                   22450556.9144
                                                                        46.2504
        30.2504
   -486260.57847   -337452.05544
                  23563423.1094                                   23563419.5004
                                                                        43.0004
        28.7504
 09 10  2 23 44  0.0000000  0  8G02G04G12G13G20G23G30G31
  -5827244.45348  -4472569.29346
                  21134403.7114                                   21134398.4694
                                                                        51.5004
        41.0004
   -575217.59848   -403371.78146
                  20430664.5084                                   20430662.0084
                                                                        52.0004
        41.7504
   3569227.55547   2803045.30945
                  23227610.9844                                   23227607.8014
                                                                        47.0004
        33.5004
  -7395290.26247  -5663338.59445
                  22432916.6094                                   22432912.6804
                                                                        47.0004
        31.2504
   6502821.01646   5070926.65243
                  23527886.2424                                   23527882.8094
                                                                        40.5004
        21.2504
  -2456312.28948  -1859491.10545
                  21708406.1484                                   21708400.3874
                                                                        50.2504
        35.5004
   -513075.28947   -355063.08245
                  22437461.3364                                   22437458.9384
                                                                        47.2504
        30.2504
   -558562.48046   -393791.17644
                  23549664.5634                                   23549661.0554
                                                                        41.0004
        29.0004
 09 10  2 23 44 30.0000000  0  8G02G04G12G13G20G23G30G31
  -5980753.71548  -4592186.90646
                  21105191.7504                                   21105186.8674
                                                                        52.0004
        41.5004
   -648163.44548   -460212.68047
                  20416783.4454                                   20416780.6414
                                                                        52.5004
        42.0004
   3552590.96547   2790081.70745
                  23224444.7814                                   23224441.4224
                                                                        46.2504
        32.7504
  -7571836.33647  -5800906.99245
                  22399321.0784                                   22399317.4844
                                                                        47.0004
        30.7504
   6519508.14546   5083929.67243
                  23531062.3984                                   23531058.1484
                                                                        41.2504
        22.0004
  -2554085.20348  -1935677.80946
                  21689800.7034                                   21689795.1454
                                                                        50.0004
        36.2504
   -581190.43047   -408139.82445
                  22424499.6564                                   22424497.1334
                                                                        47.0004
        30.7504
   -630221.10946   -449629.08244
                  23536028.2814                                   23536024.8444
                                                                        40.5004
        29.0004
 09 10  2 23 45  0.0000000  0  8G02G04G12G13G20G23G30G31
  -6133773.92248  -4711423.42246
                  21076073.0084                                   21076068.0164
                                                                        51.7504
        41.0004
   -720495.54748   -516575.34847
                  20403019.1094                                   20403016.2544
                                                                        53.2504
        42.0004
   3536454.75847   2777508.00845
                  23221374.2664                                   23221371.1214
                                                                        45.5004
        31.0004
  -7747892.94947  -5938094.06244
                  22365817.8284                                   22365814.7774
                                                                        46.7504
        29.5004
   6536466.78147   5097144.21143
                  23534289.4064                                   23534285.7304
                                                                        42.2504
        23.0004
  -2651172.45348  -2011330.21546
                  21671325.9924                                   21671320.2074
                                                                        50.5004
        36.2504
   -648587.03547   -460656.68445
                  22411674.2894                                   22411672.0824
                                                                        47.0004
        31.0004
   -701235.93747   -504965.31244
                  23522514.7194                                   23522511.1454
                                                                        43.5004
        28.0004
 09 10  2 23 45 30.0000000  0  8G02G04G12G13G20G23G30G31
  -4710881.88348  -3602676.38346
                  21346840.5164                                   21346835.6024
                                                                        51.0004
        41.7504
    783204.48448    655138.96547
                  20689163.7114                                   20689160.6994
                                                                        51.7504
        42.0004
   5096233.90247   3992920.35545
                  23518190.1564                                   23518187.0864
                                                                        45.5004
        31.0004
  -6348034.74247  -4847295.53945
                  22632202.5314                                   22632198.9844
                                                                        47.5004
        30.7504
   8129109.86746   6338164.79344
                  23837359.0864                                   23837355.7114
                                                                        41.2504
        25.0004
  -1172154.21548   -858848.46145
                  21952773.1334                                   21952767.9614
                                                                        48.7504
        35.2504
    860152.57847    714984.56645
                  22698777.5704                                   22698775.3054
                                                                        46.2504
        30.5004
    803810.80546    667798.39144
                  23808915.1884                                   23808911.9384
                                                                        40.7504
        27.2504
 09 10  2 23 46  0.0000000  0  8G02G04G12G13G20G23G30G31
  -4862924.58648  -3721151.20746
                  21317907.6804                                   21317902.5634
                                                                        51.5004
        41.5004
    712092.75448    599727.21946
                  20675631.5704                                   20675628.6214
                                                                        52.0004
        41.7504
   5081085.64547   3981116.53145
                  23515307.5554                                   23515304.3364
                                                                        46.0004
        32.2504
  -6523109.03948  -4983717.10945
                  22598887.3054                                   22598883.5514
                                                                        48.0004
        30.5004
   8146598.16446   6351792.01644
                  23840687.8364                                   23840683.7584
                                                                        39.5004
        25.7504
  -1267875.10248   -933436.16445
                  21934558.4844                                   21934553.1254
                                                                        49.5004
        35.2504
    794184.15647    663580.60945
                  22686224.9224                                   22686221.8204
                                                                        46.0004
        31.0004
    734075.36746    613459.06644
                  23795645.1174                                   23795641.9844
                                                                        41.0004
        28.7504
 09 10  2 23 46 30.0000000  0  8G02G04G12G13G20G23G30G31
  -5014477.89548  -3839244.68746
                  21289068.1414                                   21289063.2424
                                                                        51.2504
        41.2504
    641588.06348    544788.48447
                  20662214.9534                                   20662211.8794
                                                                        52.7504
        42.0004
   5066425.27747   3969692.89545
                  23512518.0704                                   23512514.4224
                                                                        46.7504
        32.0004
  -6697690.69148  -5119754.77745
                  22565665.4304                                   22565661.8324
                                                                        48.0004
        31.0004
   8164345.47346   6365621.06343
                  23844064.0164                                   23844060.5044
                                                                        39.0004
        22.5004
  -1362914.44148  -1007492.81245
                  21916473.0704                                   21916467.5664
                                                                        49.2504
        34.5004
    728926.32047    612730.33245
                  22673806.4304                                   22673804.1174
                                                                        46.5004
        30.5004
    664976.58647    559615.86344
                  23782496.7344                                   23782492.5164
                                                                        44.5004
        27.7504
 09 10  2 23 47  0.0000000  0  8G02G04G12G13G20G23G30G31
  -5165538.41848  -3956954.17646
                  21260322.0164                                   21260317.1884
                                                                        51.2504
        41.0004
    571691.29348    490323.47747
                  20648914.0944                                   20648910.9734
                                                                        53.0004
        42.2504
   5052251.34047   3958648.25845
                  23509820.7194                                   23509817.6914
                                                                        46.5004
        32.2504
  -6871775.11748  -5255405.01245
                  22532538.2584                                   22532534.8954
                                                                        48.0004
        31.7504
   8182351.28546   6379651.56643
                  23847490.6644                                   23847486.4884
                                                                        39.5004
        21.5004
  -1457271.07848  -1081017.48845
                  21898517.4534                                   21898512.1054
                                                                        50.5004
        35.7504
    664379.07447    562433.79345
                  22661523.5864                                   22661521.1454
                                                                        46.2504
        31.0004
    596514.85247    506269.04744
                  23769468.8444                                   23769464.7774
                                                                        44.7504
        28.0004
 09 10  2 23 47 30.0000000  0  8G02G04G12G13G20G23G30G31
  -5316104.55948  -4074278.43446
                  21231670.2734                                   21231665.4224
                                                                        50.7504
        41.0004
    502402.12548    436331.87947
                  20635728.7664                                   20635725.9534
                                                                        53.0004
        42.7504
   5038561.87547   3947981.14545
                  23507215.6884                                   23507212.7424
                                                                        46.5004
        33.0004
  -7045359.09048  -5390665.22345
                  22499506.4224                                   22499502.8484
                                                                        48.0004
        31.2504
   8200613.20746   6393881.55943
                  23850965.5944                                   23850962.1174
                                                                        39.5004
        20.2504
  -1550944.07448  -1154009.42246
                  21880692.1174                                   21880686.7274
                                                                        49.5004
        36.0004
    600541.58247    512690.31345
                  22649376.0554                                   22649372.9774
                                                                        47.2504
        31.0004
    528689.84447    453418.38344
                  23756561.9924                                   23756558.2194
                                                                        44.5004
        28.5004
 09 10  2 23 48  0.0000000  0  8G02G04G12G13G20G23G30G31
  -5466179.38748  -4191219.84046
                  21203111.9224                                   21203107.1024
                                                                        52.0004
        41.2504
    433714.73848    382809.19547
                  20622657.8914                                   20622655.2894
                                                                        53.2504
        42.0004
   5025348.89147   3937685.32845
                  23504701.4534                                   23504698.4654
                                                                        47.2504
        33.0004
  -7218445.59848  -5525537.77345
                  22466568.7504                                   22466565.8444
                                                                        48.5004
        31.0004
   8219123.54346   6408305.18043
                  23854487.9454                                   23854484.5044
                                                                        40.5004
        20.0004
  -1643939.02348  -1226473.01245
                  21862996.1414                                   21862990.0554
                                                                        49.0004
        35.0004
    537407.61347    463495.03545
                  22637361.5234                                   22637358.7934
                                                                        45.7504
        30.2504
    461495.45347    401059.12544
                  23743774.7584                                   23743771.7194
                                                                        44.5004
        27.7504
 09 10  2 23 48 30.0000000  0  8G02G04G12G13G20G23G30G31
  -5615761.46548  -4307777.32046
                  21174647.5084                                   21174642.4454
                                                                        50.7504
        41.2504
    365628.63348    329755.09847
                  20609701.8914                                   20609698.9884
                                                                        53.0004
        42.0004
   5012609.63347   3927758.66045
                  23502277.0554                                   23502274.2544
                                                                        47.2504
        33.2504
  -7391031.94947  -5660020.60945
                  22433727.0704                                   22433723.0474
                                                                        47.5004
        30.7504
   8237880.13346   6422920.68443
                  23858058.0314                                   23858053.7034
                                                                        41.2504
        21.2504
  -1736255.62548  -1298408.02745
                  21845428.8054                                   21845422.9414
                                                                        48.2504
        35.2504
    474975.59047    414846.72345
                  22625480.8984                                   22625478.7234
                                                                        46.7504
        30.7504
    394930.71947    349190.50044
                  23731108.2814                                   23731105.0634
                                                                        45.0004
        28.0004
 09 10  2 23 49  0.0000000  0  8G02G04G12G13G20G23G30G31
  -5764847.64848  -4423948.36346
                  21146277.3674                                   21146272.3634
                                                                        49.5004
        41.2504
    298144.06348    277169.72747
                  20596859.6644                                   20596857.0234
                                                                        53.0004
        42.0004
   5000342.54747   3918199.88345
                  23499942.8674                                   23499939.6334
                                                                        47.0004
        32.0004
  -7563114.16047  -5794110.61745
                  22400980.3134                                   22400976.5084
                                                                        47.5004
        30.2504
   8256881.78147   6437727.13743
                  23861674.0704                                   23861669.9574
                                                                        42.7504
        22.7504
  -1827892.39848  -1369813.30145
                  21827990.8054                                   21827985.1604
                                                                        48.0004
        35.5004
    413245.93847    366745.71145
                  22613734.5944                                   22613731.5274
                                                                        44.0004
        31.0004
    328996.09847    297812.87144
                  23718561.6724                                   23718557.8134
                                                                        45.0004
        27.2504
 09 10  2 23 49 30.0000000  0  8G02G04G12G13G20G23G30G31
  -5913438.06648  -4539733.09846
                  21118001.2424                                   21117996.7194
                                                                        50.2504
        41.5004
    231258.73848    225051.29346
                  20584132.0394                                   20584129.1174
                                                                        52.7504
        41.7504
   4988543.37948   3909005.77345
                  23497697.6954                                   23497693.8554
                                                                        48.2504
        32.2504
  -7734691.17647  -5927806.97745
                  22368331.1804                                   22368326.6524
                                                                        47.5004
        30.7504
   8276124.59047   6452721.49244
                  23865335.0394                                   23865332.2734
                                                                        42.2504
        24.2504
  -1918851.45348  -1440690.50845
                  21810681.9224                                   21810676.1644
                                                                        49.0004
        35.5004
    352215.69547    319189.69145
                  22602120.7734                                   22602118.3054
                                                                        44.5004
        30.7504
    263688.95747    246924.18044
                  23706134.2814                                   23706129.9654
                                                                        45.0004
        28.0004
 09 10  2 23 50  0.0000000  0  8G02G04G12G13G20G23G30G31
  -6061531.70348  -4655130.73046
                  21089820.1954                                   21089815.5984
                                                                        50.5004
        41.7504
    164971.23448    173398.69547
                  20571517.7894                                   20571514.9304
                                                                        52.7504
        42.0004
   4977208.85547   3900173.72345
                  23495540.3914                                   23495537.0354
                                                                        47.5004
        31.0004
  -7905761.05948  -6061108.20345
                  22335776.7114                                   22335772.9734
                                                                        48.2504
        30.5004
   8295605.09446   6467901.02043
                  23869042.0084                                   23869039.4224
                                                                        41.2504
        22.2504
  -2009133.03548  -1511039.80945
                  21793502.0474                                   21793496.4144
                                                                        48.7504
        35.2504
    291882.91847    272177.14845
                  22590639.2194                                   22590636.9884
                                                                        43.7504
        30.2504
    199007.48846    196523.02744
                  23693825.5474                                   23693821.7344
                                                                        41.5004
        27.0004
 09 10  2 23 50 30.0000000  0  8G02G04G12G13G20G23G30G31
  -6209125.64848  -4770138.98847
                  21061734.0474                                   21061729.0394
                                                                        51.2504
        42.0004
     99282.08648    122212.35947
                  20559017.6094                                   20559015.1134
                                                                        52.5004
        42.0004
   4966337.39147   3891702.45345
                  23493471.6174                                   23493468.4844
                                                                        47.0004
        31.7504
  -8076319.76248  -6194011.13745
                  22303320.5634                                   22303317.3094
                                                                        48.5004
        31.7504
   8315322.35246   6483265.00443
                  23872794.5314                                   23872791.5354
                                                                        39.5004
        22.7504
  -2098736.09048  -1580860.38345
                  21776450.8364                                   21776445.0704
                                                                        49.2504
        35.2504
    232247.25047    225707.80145
                  22579291.6954                                   22579289.0274
                                                                        45.2504
        30.0004
    134951.79346    146609.50444
                  23681636.0234                                   23681632.2894
                                                                        41.7504
        27.5004
 09 10  2 23 51  0.0000000  0  8G02G04G12G13G20G23G30G31
  -6356219.19148  -4884757.31647
                  21033742.9614                                   21033738.2894
                                                                        51.0004
        42.5004
     34189.56648     71490.94147
                  20546631.0004                                   20546628.1684
                                                                        53.0004
        42.2504
   4955925.58247   3883589.34445
                  23491490.3914                                   23491487.1524
                                                                        46.2504
        31.2504
  -8246365.76648  -6326514.57045
                  22270962.6954                                   22270958.7424
                                                                        48.5004
        32.0004
   8335273.20346   6498811.03143
                  23876590.1174                                   23876587.5044
                                                                        39.0004
        19.7504
  -2187661.57048  -1650152.98445
                  21759528.5394                                   21759523.1254
                                                                        49.2504
        34.7504
    173306.21147    179779.72345
                  22568075.5164                                   22568072.9614
                                                                        45.5004
        31.5004
     71520.44547     97182.46144
                  23669565.3444                                   23669561.7154
                                                                        44.5004
        28.5004
 09 10  2 23 51 30.0000000  0  8G02G04G12G13G20G23G30G31
  -6502811.04348  -4998984.71546
                  21005847.7344                                   21005842.1564
                                                                        51.5004
        41.5004
    -30308.09048     21233.02747
                  20534357.4304                                   20534354.1414
                                                                        52.2504
        42.5004
   4945969.28947   3875831.19945
                  23489595.6174                                   23489592.4024
                                                                        46.5004
        30.5004
  -8415897.43048  -6458617.17245
                  22238701.7814                                   22238697.7304
                                                                        49.0004
        32.5004
   8355454.34046   6514536.57443
                  23880431.9144                                   23880427.7274
                                                                        41.7504
        20.2504
  -2275910.40248  -1718918.29745
                  21742735.3284                                   21742730.0784
                                                                        48.7504
        35.5004
    115058.14847    134391.62145
                  22556991.2664                                   22556988.7814
                                                                        45.0004
        30.5004
      8711.37946     48240.33644
                  23657613.7034                                   23657609.9184
                                                                        41.2504
        28.5004
 09 10  2 23 52  0.0000000  0  8G02G04G12G13G20G23G30G31
  -6648902.51648  -5112822.20746
                  20978047.1024                                   20978042.1884
                                                                        51.0004
        41.5004
    -94213.58248    -28563.44547
                  20522196.4454                                   20522193.6644
                                                                        53.0004
        42.0004
   4936463.64547   3868424.20345
                  23487786.7814                                   23487783.9774
                                                                        46.5004
        31.7504
  -8584914.34848  -6590318.62945
                  22206538.5634                                   22206534.9064
                                                                        48.5004
        32.0004
   8375861.19547   6530438.07043
                  23884315.1254                                   23884310.8364
                                                                        42.5004
        19.5004
  -2363484.73448  -1787158.00445
                  21726071.1414                                   21726065.2734
                                                                        48.5004
        34.7504
     57499.39847     89540.65245
                  22546038.3834                                   22546035.6804
                                                                        46.2504
        30.0004
    -53479.00047      -219.72744
                  23645779.3204                                   23645775.2934
                                                                        42.0004
        26.7504
 09 10  2 23 52 30.0000000  0  8G02G04G12G13G20G23G30G31
  -6794488.83248  -5226266.07046
                  20950343.0004                                   20950337.4654
                                                                        50.0004
        40.7504
   -157525.16848    -77897.16846
                  20510148.8594                                   20510146.0314
                                                                        53.0004
        41.7504
   4927409.05147   3861368.68445
                  23486064.2274                                   23486060.7934
                                                                        47.0004
        32.2504
  -8753410.69147  -6721614.39845
                  22174474.6644                                   22174471.5744
                                                                        47.7504
        32.2504
   8396494.18447   6546515.78543
                  23888240.9844                                   23888237.3794
                                                                        43.2504
        21.0004
  -2450382.45348  -1854870.49646
                  21709534.7504                                   21709529.1844
                                                                        49.0004
        36.0004
       630.88347     45227.51245
                  22535216.2734                                   22535213.8094
                                                                        46.0004
        31.0004
   -115048.66047    -48196.12944
                  23634062.5554                                   23634058.6994
                                                                        43.5004
        27.5004
 09 10  2 23 53  0.0000000  0  8G02G04G12G13G20G23G30G31
  -6939573.25048  -5339318.85246
                  20922734.5314                                   20922729.0744
                                                                        51.2504
        41.5004
   -220248.62548   -126772.58647
                  20498212.8674                                   20498210.2234
                                                                        53.2504
        42.0004
   4918797.53547   3854658.39845
                  23484425.6174                                   23484421.8874
                                                                        46.5004
        32.2504
  -8921389.10247  -6852506.65245
                  22142509.2974                                   22142506.1954
                                                                        47.7504
        31.7504
   8417345.85546   6562763.84843
                  23892209.0234                                   23892204.9344
                                                                        41.7504
        22.0004
  -2536608.35548  -1922059.52045
                  21693126.6724                                   21693121.0314
                                                                        50.5004
        35.5004
    -55553.40647      1447.56345
                  22524524.8054                                   22524521.8954
                                                                        45.7504
        30.0004
   -176003.55547    -95693.46544
                  23622463.3524                                   23622459.7344
                                                                        43.7504
        28.0004
 09 10  2 23 53 30.0000000  0  8G02G04G12G13G20G23G30G31
  -7084153.37548  -5451978.68446
                  20895221.4924                                   20895216.5044
                                                                        51.7504
        41.5004
   -282383.91448   -175189.69947
                  20486389.0864                                   20486386.3204
                                                                        53.5004
        42.2504
   4910627.36747   3848292.02745
                  23482870.0554                                   23482867.3284
                                                                        47.2504
        32.0004
  -9088846.21148  -6982992.69945
                  22110643.3284                                   22110640.1094
                                                                        48.2504
        31.7504
   8438415.01246   6579181.37143
                  23896218.3054                                   23896215.0554
                                                                        39.5004
        21.2504
  -2622161.51248  -1988724.31245
                  21676846.1724                                   21676841.0044
                                                                        50.2504
        35.0004
   -111054.39847    -41799.96144
                  22513962.7664                                   22513960.2074
                                                                        45.0004
        29.7504
   -236344.05547   -142712.05144
                  23610981.1414                                   23610977.1564
                                                                        43.7504
        27.0004
 09 10  2 23 54  0.0000000  0  8G02G04G12G13G20G23G30G31
  -7228225.22748  -5564242.45346
                  20867805.8204                                   20867800.7074
                                                                        52.2504
        41.7504
   -343929.46948   -223147.25847
                  20474677.2034                                   20474674.3594
                                                                        53.2504
        42.2504
   4902898.19947   3842269.29345
                  23481399.7894                                   23481396.6684
                                                                        46.2504
        31.5004
  -9255777.29748  -7113068.85245
                  22078877.3834                                   22078873.6214
                                                                        48.2504
        32.5004
   8459701.28145   6595768.00443
                  23900267.8284                                   23900265.8324
                                                                        35.2504
        19.2504
  -2707040.29748  -2054863.60545
                  21660694.5314                                   21660688.7734
                                                                        50.5004
        35.0004
   -165871.08247    -84514.25445
                  22503532.4144                                   22503529.3524
                                                                        46.0004
        30.2504
   -296069.14847   -189251.09044
                  23599615.5704                                   23599611.7974
                                                                        43.5004
        26.7504
 09 10  2 23 54 30.0000000  0  8G02G04G12G13G20G23G30G31
  -5796364.88748  -4448507.10546
                  21140279.5314                                   21140274.4804
                                                                        52.5004
        41.2504
   1170533.37548    956953.67647
                  20762869.9844                                   20762866.9534
                                                                        53.5004
        42.2504
   6471024.60247   5064185.94145
                  23779804.4454                                   23779801.0984
                                                                        46.2504
        31.5004
  -7846756.30948  -6015130.39545
                  22347005.0944                                   22347001.6054
                                                                        48.7504
        32.5004
  10056619.76246   7840119.90243
                  24204152.1884                                   24204149.3634
                                                                        38.5004
        20.2504
  -1215824.14848   -892876.98045
                  21944463.4144                                   21944457.5044
                                                                        50.5004
        34.7504
   1355414.25847   1100902.89844
                  22793022.9534                                   22793020.4344
                                                                        46.5004
        29.7504
   1220239.70347    992288.26244
                  23888159.8674                                   23888155.4494
                                                                        43.7504
        26.2504
 09 10  2 23 55  0.0000000  0  8G02G04G12G13G20G23G30G31
  -5939419.98848  -4559978.61347
                  21113057.3134                                   21113052.2504
                                                                        52.5004
        42.5004
   1110159.87148    909909.38746
                  20751381.0784                                   20751378.3914
                                                                        52.0004
        41.7504
   6464163.77747   5058839.84445
                  23778498.6024                                   23778495.4534
                                                                        46.0004
        31.0004
  -8012631.92248  -6144384.09445
                  22315440.2974                                   22315436.2384
                                                                        48.7504
        33.0004
  10078329.26646   7857036.43043
                  24208283.9534                                   24208280.5984
                                                                        41.5004
        22.2504
  -1299358.85248   -957968.93745
                  21928567.4534                                   21928561.2504
                                                                        50.0004
        35.2504
   1301956.75047   1059247.69944
                  22782850.3674                                   22782847.8834
                                                                        45.5004
        29.7504
   1161737.70747    946702.28144
                  23877027.5474                                   23877022.7194
                                                                        43.5004
        27.0004
 09 10  2 23 55 30.0000000  0  8G02G04G12G13G20G23G30G31
  -6081966.50848  -4671053.81647
                  21085931.6564                                   21085926.5704
                                                                        52.2504
        42.2504
   1050368.93448    863319.03147
                  20740003.3754                                   20740000.6564
                                                                        53.2504
        42.0004
   6457730.62147   5053826.95745
                  23777274.5554                                   23777271.7704
                                                                        45.5004
        31.0004
  -8177978.29748  -6273225.42245
                  22283976.1644                                   22283972.3284
                                                                        49.5004
        32.5004
  10100244.46547   7874113.28143
                  24212454.6414                                   24212450.9884
                                                                        43.2504
        23.0004
  -1382224.11748  -1022539.30545
                  21912798.4384                                   21912792.8014
                                                                        49.5004
        35.5004
   1249174.11347   1018118.39145
                  22772806.0084                                   22772803.1564
                                                                        45.5004
        30.2504
   1103843.11347    901589.62944
                  23866010.4384                                   23866005.9654
                                                                        43.5004
        27.7504
 09 10  2 23 56  0.0000000  0  8G02G04G12G13G20G23G30G31
  -6224002.49648  -4781731.19546
                  21058903.0864                                   21058898.1334
                                                                        52.5004
        41.2504
    991160.10248    817182.27047
                  20728736.5004                                   20728733.2814
                                                                        52.7504
        42.0004
   6451723.01647   5049145.70745
                  23776131.1334                                   23776128.0594
                                                                        45.0004
        30.7504
  -8342792.26648  -6401651.88345
                  22252612.9694                                   22252608.8134
                                                                        49.5004
        33.2504
  10122363.42246   7891348.87143
                  24216663.0164                                   24216659.5784
                                                                        41.7504
        20.2504
  -1464420.05548  -1086588.11345
                  21897157.0784                                   21897151.2894
                                                                        50.0004
        35.5004
   1197065.32447    977514.13745
                  22762890.0554                                   22762887.2664
                                                                        45.7504
        30.5004
   1046555.44147    856949.89544
                  23855108.8984                                   23855104.9344
                                                                        44.2504
        27.0004
 09 10  2 23 56 30.0000000  0  8G02G04G12G13G20G23G30G31
  -6365527.71948  -4892010.57047
                  21031971.5234                                   21031966.2424
                                                                        53.0004
        42.0004
    932530.87548    771497.15647
                  20717579.6334                                   20717576.4454
                                                                        52.5004
        42.0004
   6446136.80547   5044792.80145
                  23775068.0554                                   23775064.8674
                                                                        46.0004
        30.2504
  -8507073.07448  -6529662.88745
                  22221351.0164                                   22221347.5234
                                                                        49.5004
        32.2504
  10144682.58646   7908740.46543
                  24220910.4384                                   24220906.0204
                                                                        40.0004
        19.2504
  -1545948.23048  -1150116.54745
                  21881643.0704                                   21881637.0234
                                                                        50.2504
        35.0004
   1145627.59847    937432.81345
                  22753101.6724                                   22753098.8404
                                                                        46.2504
        30.0004
    989871.59846    812780.64844
                  23844322.0234                                   23844318.0164
                                                                        41.2504
        28.0004
 09 10  2 23 57  0.0000000  0  8G02G04G12G13G20G23G30G31
  -6506544.39548  -5001893.68446
                  21005136.9614                                   21005132.1484
                                                                        52.0004
        41.7504
    874476.59048    726260.05547
                  20706532.2194                                   20706529.1914
                                                                        53.0004
        42.5004
   6440965.11747   5040762.90245
                  23774084.3284                                   23774080.8244
                                                                        46.2504
        31.0004
  -8670822.02048  -6657259.44945
                  22190190.4224                                   22190186.8134
                                                                        49.5004
        32.0004
  10167195.44546   7926282.96142
                  24225193.1334                                   24225190.9184
                                                                        36.2504
        17.2504
  -1626812.84448  -1213127.93445
                  21866254.4924                                   21866248.7504
                                                                        49.5004
        35.2504
   1094855.09847    897869.80544
                  22743440.1644                                   22743437.3244
                                                                        45.2504
        29.7504
    933786.66447    769078.10944
                  23833649.7734                                   23833646.2234
                                                                        43.5004
        28.5004
 09 10  2 23 57 30.0000000  0  8G02G04G12G13G20G23G30G31
  -6647047.43048  -5111376.56646
                  20978400.3054                                   20978394.9384
                                                                        52.7504
        41.5004
    816999.75448    681472.86347
                  20695594.9924                                   20695591.5354
                                                                        53.5004
        42.0004
   6436208.73047   5037056.65645
                  23773179.2894                                   23773175.8444
                                                                        46.2504
        30.2504
  -8834033.04748  -6784436.85245
                  22159132.7504                                   22159129.0394
                                                                        48.7504
        33.0004
  10189903.50846   7943977.43443
                  24229515.1094                                   24229512.3404
                                                                        37.0004
        19.0004
  -1707010.48848  -1275619.64145
                  21850993.5784                                   21850988.0434
                                                                        50.5004
        35.0004
   1044750.04747    858826.91445
                  22733905.4224                                   22733903.0704
                                                                        46.7504
        30.5004
    878303.03947    725844.13744
                  23823091.5234                                   23823087.6564
                                                                        44.5004
        28.0004
 09 10  2 23 58  0.0000000  0  8G02G04G12G13G20G23G30G31
  -6787036.56248  -5220459.00846
                  20951761.1884                                   20951755.8984
                                                                        52.5004
        41.7504
    760098.34448    637134.09046
                  20684766.9454                                   20684764.2384
                                                                        51.7504
        41.5004
   6431863.39847   5033670.66445
                  23772352.3284                                   23772348.2114
                                                                        46.0004
        30.0004
  -8996705.05548  -6911194.27345
                  22128177.2894                                   22128173.8444
                                                                        49.5004
        33.2504
  10212803.52746   7961821.55943
                  24233873.0394                                   24233870.5744
                                                                        39.7504
        21.7504
  -1786543.09848  -1337593.09045
                  21835859.1254                                   21835853.5634
                                                                        50.2504
        34.7504
    995309.25447    820301.61345
                  22724497.2504                                   22724495.0824
                                                                        46.2504
        31.0004
    823417.96546    683076.52344
                  23812647.0864                                   23812643.3594
                                                                        41.0004
        27.5004
 09 10  2 23 58 30.0000000  0  8G02G04G12G13G20G23G30G31
  -6926509.25048  -5329139.01647
                  20925220.5554                                   20925215.1604
                                                                        52.0004
        42.0004
    703772.12948    593243.52046
                  20674048.2504                                   20674045.4654
                                                                        52.2504
        41.7504
   6427927.29747   5030603.55545
                  23771603.4774                                   23771599.8364
                                                                        46.0004
        30.2504
  -9158834.21148  -7037528.68745
                  22097325.0314                                   22097321.6414
                                                                        49.5004
        33.2504
  10235893.94946   7979814.01643
                  24238267.4304                                   24238264.5164
                                                                        41.5004
        22.7504
  -1865410.02048  -1399047.82845
                  21820851.4144                                   21820845.5634
                                                                        50.0004
        35.0004
    946532.07847    782293.46145
                  22715215.5314                                   22715212.9304
                                                                        45.5004
        31.0004
    769131.50846    640775.38344
                  23802317.0944                                   23802312.8404
                                                                        41.0004
        27.7504
 09 10  2 23 59  0.0000000  0  8G02G04G12G13G20G23G30G31
  -7065463.28548  -5437414.86346
                  20898778.2584                                   20898773.0394
                                                                        51.7504
        41.7504
    648020.86748    549800.97346
                  20663439.3364                                   20663436.2734
                                                                        53.0004
        41.7504
   6424398.22347   5027853.60545
                  23770931.9844                                   23770928.5044
                                                                        46.0004
        30.2504
  -9320417.70348  -7163437.89145
                  22066576.6174                                   22066573.2194
                                                                        50.0004
        32.7504
  10259172.93047   7997953.43443
                  24242697.9144                                   24242694.1764
                                                                        42.0004
        23.5004
  -1943611.28148  -1459983.89145
                  21805970.1644                                   21805964.6644
                                                                        50.0004
        34.7504
    898417.21947    744801.36745
                  22706059.3054                                   22706056.5864
                                                                        46.2504
        30.0004
    715442.68847    598939.92244
                  23792099.9844                                   23792096.5984
                                                                        44.5004
        27.0004
 09 10  2 23 59 30.0000000  0  8G02G04G12G13G20G23G30G31
  -7203897.67248  -5545285.80947
                  20872435.0784                                   20872429.6684
                                                                        52.5004
        42.2504
    592842.89548    506805.12547
                  20652939.2664                                   20652936.4224
                                                                        51.7504
        42.0004
   6421273.01247   5025418.29745
                  23770336.5164                                   23770334.1024
                                                                        45.5004
        31.2504
  -9481453.87148  -7288920.60945
                  22035932.7584                                   22035929.2664
                                                                        49.2504
        34.0004
  10282637.55546   8016237.51643
                  24247162.3674                                   24247159.5664
                                                                        39.7504
        21.0004
  -2021147.78548  -1520401.94945
                  21791215.5234                                   21791209.9104
                                                                        49.2504
        34.5004
    850962.34447    707823.55545
                  22697029.2424                                   22697026.3794
                                                                        45.2504
        30.0004
    662349.42247    557568.53144
                  23781996.6884                                   23781993.0824
                                                                        42.0004
        28.5004
