     2.11           OBSERVATION DATA    G (GPS)             RINEX VERSION / TYPE
teqc  2019Feb25                         20221121 12:28:34UTCPGM / RUN BY / DATE
OSX ker:10.11.6|Core i5|gcc 4.3 -m64|OSX ker:10.10+|=+      COMMENT
BIT 2 OF LLI FLAGS DATA COLLECTED UNDER A/S CONDITION       COMMENT
04712940                                                    MARKER NAME
2940                                                        MARKER NUMBER
-Unknown-           -Unknown-                               OBSERVER / AGENCY
0220400471          TRIMBLE R7          2.30                REC # / TYPE / VERS
-Unknown-           TRM39105.00     NONE                    ANT # / TYPE
  1449459.8219 -1709242.4412  5952441.4900                  APPROX POSITION XYZ
        0.0000        0.0000        0.0000                  ANTENNA: DELTA H/E/N
     1     1                                                WAVELENGTH FACT L1/2
    20    L1    L2    L5    L6    L7    L8    C1    P1    C2# / TYPES OF OBSERV
          P2    C5    C6    C7    C8    S1    S2    S5    S6# / TYPES OF OBSERV
          S7    S8                                          # / TYPES OF OBSERV
    30.0000                                                 INTERVAL
    15                                                      LEAP SECONDS
Forced Modulo Decimation to 30 seconds                      COMMENT
 SNR is mapped to RINEX snr flag value [0-9]                COMMENT
  L1 & L2: min(max(int(snr_dBHz/6), 0), 9)                  COMMENT
teqc edited: Beidou # 1 - 37 excluded                       COMMENT
  2009    10    21     0     0    0.0000000     GPS         TIME OF FIRST OBS
                                                            END OF HEADER
 09 10 21  0  0  0.0000000  0  9G02G04G05G10G25G13G23G29G16
  -8282357.82048  -6425069.06647
                  20628232.9844                                   20628226.9614
                                                                        51.2504
        42.2504
   -496013.65647   -377734.11345
                  22700636.4534                                   22700632.7584
                                                                        47.0004
        33.5004
 -19026597.35948 -14761783.86346
                  22293145.7664                                   22293141.5634
                                                                        50.0004
        38.0004
 -18313062.52748 -14219472.61346
                  21506989.7344                                   21506985.7304
                                                                        49.2504
        38.5004
 -11694035.79747  -9070767.59844
                  23174870.3444                                   23174865.3164
                                                                        44.7504
        26.2504
  -9783600.52348  -7586728.11346
                  21297197.0864                                   21297192.6334
                                                                        50.5004
        36.7504
  -2046126.32847  -1579522.81244
                  23280427.7664                                   23280420.8674
                                                                        44.0004
        26.7504
 -15586154.91048 -12097911.31245
                  22328333.7504                                   22328329.8014
                                                                        48.5004
        35.2504
   -705618.21146   -514378.18043
                  24327514.1644                                   24327509.4694
                                                                        40.7504
        19.5004
 09 10 21  0  0 30.0000000  0  9G02G04G05G10G25G13G23G29G16
  -8331458.22748  -6463329.12947
                  20618889.7034                                   20618883.7974
                                                                        51.7504
        42.2504
   -478864.57447   -364371.19545
                  22703899.9534                                   22703896.1954
                                                                        47.2504
        33.0004
 -19199480.59448 -14896498.04746
                  22260247.0394                                   22260242.8094
                                                                        49.2504
        38.0004
 -18473379.61348 -14344395.00446
                  21476482.3054                                   21476478.3794
                                                                        49.2504
        38.5004
 -11837749.23047  -9182752.03944
                  23147522.1884                                   23147517.9494
                                                                        45.2504
        26.5004
  -9843490.90648  -7633395.91046
                  21285800.3284                                   21285795.8244
                                                                        51.0004
        36.5004
  -2039079.77747  -1574031.99244
                  23281768.2734                                   23281761.6724
                                                                        44.0004
        26.7504
 -15712958.39147 -12196719.25046
                  22304203.7344                                   22304199.8634
                                                                        47.7504
        36.0004
   -854787.93446   -630614.31643
                  24299128.0784                                   24299123.3134
                                                                        41.2504
        21.0004
 09 10 21  0  1  0.0000000  0  9G02G04G05G10G25G13G23G29G16
  -8379952.58248  -6501116.96547
                  20609661.5084                                   20609655.5704
                                                                        52.7504
        42.0004
   -461398.36747   -350761.14145
                  22707223.6954                                   22707220.1414
                                                                        47.7504
        34.0004
 -19372000.23048 -15030928.95346
                  22227417.7504                                   22227413.1334
                                                                        50.0004
        37.5004
 -18633226.77348 -14468951.19546
                  21446064.7274                                   21446061.1094
                                                                        50.0004
        38.7504
 -11980958.41847  -9294343.55944
                  23120270.2344                                   23120266.0204
                                                                        44.5004
        27.0004
  -9902693.67648  -7679527.92246
                  21274534.4304                                   21274529.8714
                                                                        51.0004
        36.5004
  -2031622.64147  -1568221.24644
                  23283187.6884                                   23283181.3444
                                                                        43.7504
        26.5004
 -15839171.80148 -12295067.39845
                  22280185.9454                                   22280182.4774
                                                                        48.7504
        35.5004
  -1003452.75047   -746457.05943
                  24270838.1804                                   24270833.4884
                                                                        42.2504
        22.0004
 09 10 21  0  1 30.0000000  0  9G02G04G05G10G25G13G23G29G16
  -8427840.84448  -6538432.47347
                  20600548.9304                                   20600542.8244
                                                                        52.2504
        42.7504
   -443616.78147   -336905.40645
                  22710607.7274                                   22710604.5554
                                                                        47.0004
        33.2504
 -19544153.75048 -15165074.55946
                  22194658.1024                                   22194653.6174
                                                                        50.0004
        38.0004
 -18792601.48048 -14593139.27046
                  21415736.7814                                   21415732.4884
                                                                        50.0004
        39.0004
 -12123660.64547  -9405540.10544
                  23093115.0314                                   23093110.8524
                                                                        44.0004
        25.7504
  -9961209.19148  -7725124.44546
                  21263399.2424                                   21263394.6214
                                                                        51.0004
        36.5004
  -2023756.78147  -1562092.02744
                  23284684.5164                                   23284677.9734
                                                                        44.5004
        27.5004
 -15964792.80948 -12392953.80546
                  22256281.1094                                   22256277.2194
                                                                        49.2504
        36.0004
  -1151609.98447   -861904.22743
                  24242644.6414                                   24242640.0784
                                                                        42.7504
        22.2504
 09 10 21  0  2  0.0000000  0  9G02G04G05G10G25G13G23G29G16
  -8475123.10248  -6575275.77347
                  20591550.9694                                   20591545.1024
                                                                        52.5004
        42.5004
   -425520.77347   -322804.68045
                  22714051.1414                                   22714047.9264
                                                                        46.7504
        33.0004
 -19715938.13348 -15298932.48846
                  22161968.2034                                   22161964.1174
                                                                        50.0004
        37.5004
 -18951500.83648 -14716956.93746
                  21385498.9304                                   21385495.2194
                                                                        50.0004
        38.7504
 -12265852.67247  -9516339.04744
                  23066056.8134                                   23066052.8914
                                                                        43.7504
        27.7504
 -10019037.53548  -7770185.51246
                  21252395.0944                                   21252390.4734
                                                                        51.2504
        36.5004
  -2015484.07847  -1555645.76244
                  23286258.6334                                   23286252.5234
                                                                        45.5004
        27.2504
 -16089819.10948 -12490377.02746
                  22232489.6564                                   22232485.8054
                                                                        48.7504
        36.2504
  -1299255.80947   -976952.91043
                  24214548.6954                                   24214544.1294
                                                                        42.2504
        22.0004
 09 10 21  0  2 30.0000000  0  9G02G04G05G10G25G13G23G29G16
  -8521800.21948  -6611647.54346
                  20582668.6334                                   20582662.5664
                                                                        52.7504
        41.5004
   -407112.87947   -308460.91045
                  22717553.6644                                   22717550.0784
                                                                        47.5004
        32.5004
 -19887351.95348 -15432501.67646
                  22129349.4304                                   22129345.3594
                                                                        49.2504
        37.7504
 -19109923.46948 -14840403.14546
                  21355351.8524                                   21355348.2934
                                                                        50.2504
        38.7504
 -12407532.80547  -9626739.10944
                  23039095.4144                                   23039091.9224
                                                                        44.2504
        27.7504
 -10076179.96948  -7814712.04345
                  21241521.1884                                   21241516.5124
                                                                        51.0004
        35.7504
  -2006807.35247  -1548884.66444
                  23287909.8524                                   23287903.2274
                                                                        45.0004
        27.0004
 -16214248.61748 -12587335.00846
                  22208811.0164                                   22208807.5744
                                                                        48.7504
        36.2504
  -1446388.47346  -1091601.70743
                  24186550.0554                                   24186545.9884
                                                                        41.5004
        22.7504
 09 10 21  0  3  0.0000000  0  9G02G04G05G10G25G13G23G29G16
  -8567874.16848  -6647549.35247
                  20573901.3364                                   20573895.1374
                                                                        52.7504
        42.7504
   -388396.03948   -293876.39145
                  22721115.8444                                   22721111.6454
                                                                        48.0004
        32.0004
 -20058394.33648 -15565781.42646
                  22096801.0164                                   22096796.6684
                                                                        50.2504
        38.5004
 -19267868.86348 -14963477.48846
                  21325296.2814                                   21325292.2704
                                                                        51.0004
        38.5004
 -12548700.10547  -9736739.62944
                  23012232.9384                                   23012228.6254
                                                                        45.7504
        29.0004
 -10132639.01648  -7858706.16445
                  21230777.3834                                   21230772.4884
                                                                        51.0004
        35.5004
  -1997730.24647  -1541811.59844
                  23289636.9064                                   23289630.6994
                                                                        45.0004
        26.0004
 -16338081.85548 -12683828.37146
                  22185246.5234                                   22185242.9614
                                                                        48.5004
        36.2504
  -1593006.83246  -1205849.73443
                  24158649.7194                                   24158645.4264
                                                                        40.2504
        20.0004
 09 10 21  0  3 30.0000000  0  9G02G04G05G10G25G13G23G29G16
  -8613345.94148  -6682981.86346
                  20565248.1094                                   20565242.1764
                                                                        52.7504
        41.7504
   -369373.06647   -279053.34445
                  22724735.5394                                   22724731.9064
                                                                        47.2504
        31.5004
 -20229063.73448 -15698770.51246
                  22064323.6564                                   22064319.3054
                                                                        50.0004
        38.0004
 -19425335.20748 -15086178.53946
                  21295331.2424                                   21295327.6994
                                                                        51.0004
        38.5004
 -12689352.57847  -9846338.94544
                  22985467.8674                                   22985463.7544
                                                                        46.2504
        29.7504
 -10188416.02748  -7902168.78945
                  21220163.3914                                   21220158.8324
                                                                        51.0004
        35.7504
  -1988256.00447  -1534429.07844
                  23291439.6334                                   23291433.1414
                                                                        45.0004
        26.0004
 -16461317.48848 -12779856.05546
                  22161795.5634                                   22161792.1094
                                                                        48.5004
        36.2504
  -1739108.87546  -1319695.43743
                  24130847.1484                                   24130842.6804
                                                                        40.5004
        20.0004
 09 10 21  0  4  0.0000000  0 10G02G04G05G10G25G13G23G29G16G07
  -8658218.17648  -6717947.21147
                  20556709.1094                                   20556703.5744
                                                                        53.0004
        42.2504
   -350047.16447   -263994.24645
                  22728413.3364                                   22728409.7344
                                                                        46.0004
        32.5004
 -20399359.72348 -15831468.62546
                  22031917.4454                                   22031913.1214
                                                                        50.2504
        38.2504
 -19582322.05548 -15208505.96146
                  21265457.3364                                   21265453.5434
                                                                        50.7504
        39.0004
 -12829489.65247  -9955536.63344
                  22958800.2344                                   22958796.4264
                                                                        46.5004
        29.2504
 -10243513.03548  -7945101.56246
                  21209678.6564                                   21209673.8984
                                                                        51.0004
        36.0004
  -1978388.45747  -1526740.09844
                  23293317.5164                                   23293310.6254
                                                                        43.7504
        24.7504
 -16583955.29747 -12875417.94946
                  22138458.2584                                   22138454.9574
                                                                        47.5004
        36.0004
  -1884693.55946  -1433138.05543
                  24103143.0394                                   24103138.9494
                                                                        40.0004
        20.0004
   -305841.62957   -220397.82454
                  24317705.1564                                   24317701.4264
                                                                        43.5004
        26.0004
 09 10 21  0  4 30.0000000  0 10G02G04G05G10G25G13G23G29G16G07
  -8702495.76248  -6752449.23847
                  20548283.6174                                   20548277.1174
                                                                        52.0004
        42.2504
   -330424.61747   -248703.96145
                  22732147.3834                                   22732143.7544
                                                                        46.5004
        32.5004
 -20569284.17648 -15963877.25446
                  21999581.7734                                   21999577.6954
                                                                        49.7504
        38.5004
 -19738831.44948 -15330461.32846
                  21235674.9384                                   21235671.0474
                                                                        50.5004
        39.2504
 -12969113.30947 -10064334.23844
                  22932230.8914                                   22932226.9964
                                                                        44.5004
        28.2504
 -10297935.48448  -7987508.66045
                  21199322.5234                                   21199317.8014
                                                                        50.2504
        35.5004
  -1968134.11747  -1518749.68044
                  23295268.7734                                   23295262.0594
                                                                        44.2504
        25.0004
 -16705997.60548 -12970515.82046
                  22115234.3984                                   22115230.9574
                                                                        48.0004
        36.2504
  -2029762.57846  -1546178.82043
                  24075538.2664                                   24075532.6524
                                                                        40.0004
        19.2504
   -486741.35547   -361358.59043
                  24283280.5944                                   24283277.1724
                                                                        42.5004
        22.5004
 09 10 21  0  5  0.0000000  0 10G02G04G05G10G25G13G23G29G16G07
  -8746181.16848  -6786489.85546
                  20539970.3984                                   20539964.4804
                                                                        52.5004
        41.5004
   -310509.28547   -233185.54745
                  22735937.2734                                   22735933.7424
                                                                        47.7504
        32.5004
 -20738837.30948 -16095996.53546
                  21967317.0864                                   21967312.8594
                                                                        50.2504
        38.5004
 -19894863.67648 -15452044.85546
                  21205982.8444                                   21205978.8834
                                                                        51.2504
        39.7504
 -13108223.49647 -10172731.76644
                  22905758.4384                                   22905754.7464
                                                                        46.0004
        27.7504
 -10351686.53148  -8029392.61345
                  21189094.0944                                   21189089.7194
                                                                        50.2504
        35.7504
  -1957497.66447  -1510461.54344
                  23297292.7974                                   23297286.3484
                                                                        44.5004
        25.5004
 -16827444.90248 -13065149.99246
                  22092124.0554                                   22092119.9734
                                                                        48.5004
        36.2504
  -2174316.15246  -1658817.99243
                  24048029.7584                                   24048025.1914
                                                                        41.2504
        18.5004
   -667360.11346   -502100.54743
                  24248910.0234                                   24248906.2274
                                                                        40.5004
        22.0004
 09 10 21  0  5 30.0000000  0 10G02G04G05G10G25G13G23G29G16G07
  -7213851.66448  -5592466.90247
                  20831562.9534                                   20831556.9804
                                                                        52.7504
        42.0004
   1285118.15247   1010160.47745
                  23039574.7814                                   23039571.4884
                                                                        46.5004
        32.0004
 -19332589.50048 -15000219.01646
                  22234916.9064                                   22234912.6804
                                                                        49.7504
        38.5004
 -18474989.62948 -14345649.52346
                  21476176.0554                                   21476172.3484
                                                                        51.2504
        39.0004
 -11671391.16847  -9053122.19144
                  23179179.2584                                   23179174.5824
                                                                        44.7504
        27.2504
  -8829343.19548  -6843151.03145
                  21478786.2504                                   21478782.0474
                                                                        49.7504
        35.7504
   -371059.64847   -274276.07444
                  23599182.2114                                   23599175.7344
                                                                        44.2504
        25.5004
 -15372869.72748 -11931714.79346
                  22368920.0004                                   22368916.4534
                                                                        49.0004
        36.0004
   -742924.59846   -543448.00443
                  24320414.3984                                   24320410.1024
                                                                        41.2504
        20.0004
    727733.72346    584985.51643
                  24514387.7894                                   24514384.3674
                                                                        41.7504
        22.0004
 09 10 21  0  6  0.0000000  0 10G02G04G05G10G25G13G23G29G16G07
  -7256349.28548  -5625581.90646
                  20823476.2114                                   20823470.2464
                                                                        52.5004
        41.5004
   1305618.46547   1026134.66845
                  23043476.4384                                   23043473.0594
                                                                        47.0004
        32.7504
 -19501388.31648 -15131750.54346
                  22202795.5704                                   22202791.1914
                                                                        49.7504
        38.5004
 -18630056.33248 -14466480.71146
                  21446667.6954                                   21446663.8634
                                                                        50.7504
        39.2504
 -11809461.80947  -9160709.66044
                  23152904.8204                                   23152900.6564
                                                                        44.5004
        27.5004
  -8881748.64548  -6883986.44946
                  21468814.0084                                   21468809.4844
                                                                        49.5004
        36.0004
   -359660.30947   -265393.47344
                  23601351.4304                                   23601345.0084
                                                                        43.7504
        26.2504
 -15493116.69948 -12025413.65246
                  22346037.5784                                   22346034.1254
                                                                        49.5004
        37.2504
   -886433.24246   -655272.94143
                  24293106.0944                                   24293101.5124
                                                                        41.2504
        20.0004
    547692.18446    444693.35943
                  24480126.8594                                   24480123.0984
                                                                        41.5004
        23.7504
 09 10 21  0  6 30.0000000  0 10G02G04G05G10G25G13G23G29G16G07
  -7298250.18448  -5658231.93046
                  20815502.6094                                   20815496.4924
                                                                        52.0004
        41.5004
   1326412.38747   1042337.69545
                  23047432.5944                                   23047429.3954
                                                                        45.5004
        31.2504
 -19669802.79748 -15262982.60246
                  22170747.7424                                   22170743.2274
                                                                        50.0004
        38.7504
 -18784633.11748 -14586930.15246
                  21417252.7034                                   21417248.7504
                                                                        50.5004
        39.0004
 -11947005.52747  -9267886.55544
                  23126731.0234                                   23126726.6994
                                                                        45.0004
        27.0004
  -8933478.97348  -6924295.81245
                  21458970.0474                                   21458965.2384
                                                                        49.5004
        35.5004
   -347879.61347   -256213.70744
                  23603593.0944                                   23603586.9534
                                                                        43.7504
        26.5004
 -15612757.29348 -12118640.03546
                  22323271.1804                                   22323267.3484
                                                                        49.2504
        36.0004
  -1029412.27046   -766685.23043
                  24265898.0394                                   24265893.1334
                                                                        41.2504
        20.2504
    367947.97747    304633.01244
                  24445922.9144                                   24445919.5204
                                                                        44.2504
        25.7504
 09 10 21  0  7  0.0000000  0 10G02G04G05G10G25G13G23G29G16G07
  -7339555.26248  -5690417.68046
                  20807642.7664                                   20807636.3204
                                                                        51.2504
        41.7504
   1347497.93847   1058767.97345
                  23051445.5864                                   23051441.7464
                                                                        45.2504
        32.0004
 -19837830.68748 -15393913.41046
                  22138772.8284                                   22138768.2624
                                                                        49.2504
        38.7504
 -18938717.99648 -14706996.29746
                  21387931.7194                                   21387927.2584
                                                                        51.2504
        39.0004
 -12084020.32847  -9374651.29344
                  23100658.3524                                   23100654.0944
                                                                        43.2504
        27.0004
  -8984535.32048  -6964079.96946
                  21449253.8444                                   21449249.4884
                                                                        49.7504
        36.0004
   -335719.93447   -246738.62944
                  23605907.1254                                   23605901.2544
                                                                        43.5004
        26.0004
 -15731789.96548 -12211392.76646
                  22300619.9694                                   22300616.3014
                                                                        48.7504
        36.5004
  -1171859.16846   -877682.86743
                  24238791.5474                                   24238786.6334
                                                                        40.7504
        20.7504
    188504.23447    164806.87944
                  24411776.5394                                   24411772.5514
                                                                        43.5004
        26.2504
 09 10 21  0  7 30.0000000  0 10G02G04G05G10G25G13G23G29G16G07
  -7380265.98848  -5722140.32046
                  20799895.6414                                   20799889.4414
                                                                        52.7504
        41.7504
   1368872.70747   1075423.61745
                  23055513.0864                                   23055509.1644
                                                                        47.0004
        31.5004
 -20005471.03548 -15524542.26246
                  22106872.1724                                   22106868.0434
                                                                        49.2504
        39.0004
 -19092309.82448 -14826678.24646
                  21358704.0234                                   21358700.1604
                                                                        51.2504
        40.0004
 -12220504.49647  -9481002.61744
                  23074686.0704                                   23074681.5634
                                                                        45.0004
        27.7504
  -9034919.27348  -7003340.17646
                  21439666.6954                                   21439661.9654
                                                                        48.7504
        36.0004
   -323184.00047   -236970.35544
                  23608292.9454                                   23608286.2034
                                                                        44.0004
        25.0004
 -15850213.47348 -12303670.77746
                  22278084.3284                                   22278081.2664
                                                                        49.2504
        36.7504
  -1313771.91446   -988264.33243
                  24211786.7114                                   24211781.6134
                                                                        41.0004
        21.0004
      9363.41047     25216.64144
                  24377686.3984                                   24377683.1524
                                                                        43.0004
        27.5004
 09 10 21  0  8  0.0000000  0 10G02G04G05G10G25G13G23G29G16G07
  -7420378.71548  -5753396.99247
                  20792262.4224                                   20792256.3954
                                                                        52.0004
        42.0004
   1390538.95747   1092306.35545
                  23059636.0784                                   23059632.5514
                                                                        46.0004
        31.5004
 -20172717.11748 -15654863.87946
                  22075046.2034                                   22075042.2194
                                                                        48.7504
        38.2504
 -19245402.05148 -14945970.89146
                  21329571.5944                                   21329566.9734
                                                                        51.7504
        39.5004
 -12356451.58247  -9586935.39844
                  23048816.0474                                   23048811.8984
                                                                        44.0004
        28.2504
  -9084627.75048  -7042074.06246
                  21430207.1564                                   21430202.8164
                                                                        48.7504
        36.2504
   -310270.16047   -226907.60944
                  23610749.7114                                   23610743.3674
                                                                        42.7504
        25.5004
 -15968022.10248 -12395469.68446
                  22255666.4224                                   22255662.4454
                                                                        49.0004
        36.7504
  -1455143.78946  -1098424.24243
                  24184883.9614                                   24184879.4694
                                                                        40.5004
        21.5004
   -169466.84447   -114131.57444
                  24343656.3054                                   24343652.5704
                                                                        43.0004
        25.5004
 09 10 21  0  8 30.0000000  0 10G02G04G05G10G25G13G23G29G16G07
  -7459901.34048  -5784193.84846
                  20784741.3054                                   20784735.3594
                                                                        52.5004
        41.5004
   1412487.80147   1109409.28545
                  23063812.3834                                   23063809.3324
                                                                        46.2504
        31.2504
 -20339574.24648 -15784882.44546
                  22043294.1954                                   22043290.0204
                                                                        48.7504
        38.7504
 -19397999.94948 -15064878.34446
                  21300532.9614                                   21300528.8674
                                                                        51.2504
        39.2504
 -12491866.38747  -9692453.40644
                  23023047.1954                                   23023043.3054
                                                                        44.2504
        28.0004
  -9133668.97348  -7080288.00445
                  21420875.2034                                   21420870.7464
                                                                        49.7504
        35.5004
   -296987.88747   -216557.77343
                  23613277.5004                                   23613271.1724
                                                                        42.5004
        22.7504
 -16085221.45348 -12486793.87946
                  22233363.8914                                   22233360.3284
                                                                        48.7504
        36.7504
  -1595979.58246  -1208166.43743
                  24158083.3364                                   24158079.2974
                                                                        39.7504
        22.2504
   -347990.35546   -253240.83244
                  24309684.2584                                   24309680.5984
                                                                        41.0004
        24.5004
 09 10 21  0  9  0.0000000  0 10G02G04G05G10G25G13G23G29G16G07
  -7498834.53548  -5814531.41446
                  20777332.7504                                   20777326.7624
                                                                        52.0004
        41.7504
   1434717.21147   1126730.84445
                  23068043.2034                                   23068039.5554
                                                                        45.7504
        31.5004
 -20506040.12148 -15914596.13746
                  22011616.5944                                   22011612.3444
                                                                        48.2504
        38.2504
 -19550101.32848 -15183398.87546
                  21271589.2974                                   21271585.3954
                                                                        51.0004
        39.5004
 -12626746.98047  -9797555.12544
                  22997380.5864                                   22997376.2664
                                                                        43.2504
        29.5004
  -9182043.89548  -7117982.75445
                  21411669.8674                                   21411665.0164
                                                                        48.7504
        35.5004
   -283339.62146   -205922.78143
                  23615874.3984                                   23615867.7114
                                                                        41.7504
        22.0004
 -16201809.97748 -12577642.14146
                  22211177.8524                                   22211174.2734
                                                                        49.5004
        37.0004
  -1736277.13746  -1317489.23843
                  24131387.1024                                   24131381.7384
                                                                        39.2504
        22.0004
   -526204.15646   -392108.82443
                  24275771.0394                                   24275767.4774
                                                                        41.0004
        23.2504
 09 10 21  0  9 30.0000000  0 10G02G04G05G10G25G13G23G29G16G07
  -7537183.85948  -5844414.00846
                  20770035.0944                                   20770029.1294
                                                                        52.0004
        41.7504
   1457220.89147   1144266.11345
                  23072325.3524                                   23072322.1094
                                                                        47.0004
        32.0004
 -20672116.99248 -16044006.73046
                  21980013.8204                                   21980009.1254
                                                                        50.2504
        39.0004
 -19701709.18048 -15301534.85946
                  21242738.8284                                   21242734.8954
                                                                        51.0004
        39.7504
 -12761095.72347  -9902242.41844
                  22971814.3204                                   22971810.3834
                                                                        43.7504
        29.0004
  -9229758.23848  -7155162.75045
                  21402590.0704                                   21402585.2774
                                                                        48.5004
        35.5004
   -269332.16447   -195007.82443
                  23618539.8754                                   23618533.0354
                                                                        43.2504
        22.2504
 -16317790.54348 -12668016.66446
                  22189107.7894                                   22189104.1094
                                                                        49.0004
        36.2504
  -1876038.55146  -1426394.31243
                  24104790.8284                                   24104786.3874
                                                                        40.0004
        22.7504
   -704109.52346   -530736.33643
                  24241915.8674                                   24241912.6454
                                                                        41.0004
        23.5004
 09 10 21  0 10  0.0000000  0 10G02G04G05G10G25G13G23G29G16G07
  -7574945.09448  -5873838.34446
                  20762849.1564                                   20762843.0084
                                                                        52.5004
        41.7504
   1480001.94947   1162017.50045
                  23076660.6254                                   23076657.2894
                                                                        47.5004
        31.5004
 -20837798.15648 -16173108.95346
                  21948485.3984                                   21948480.8834
                                                                        49.5004
        39.0004
 -19852816.43448 -15419280.76646
                  21213984.2814                                   21213980.2774
                                                                        50.7504
        39.7504
 -12894905.42647 -10006509.67245
                  22946351.7424                                   22946347.7154
                                                                        44.0004
        30.2504
  -9276808.46148  -7191825.25845
                  21393636.4304                                   21393631.7584
                                                                        48.7504
        35.5004
   -254963.14547   -183811.16044
                  23621274.5164                                   23621267.7114
                                                                        43.0004
        25.5004
 -16433156.71548 -12757912.38746
                  22167153.8524                                   22167150.4774
                                                                        48.5004
        36.5004
  -2015256.40246  -1534875.84443
                  24078298.8284                                   24078294.2034
                                                                        39.7504
        23.2504
   -881697.96146   -669116.81244
                  24208123.0164                                   24208119.2734
                                                                        41.0004
        25.2504
 09 10 21  0 10 30.0000000  0 10G02G04G05G10G25G13G23G29G16G07
  -7612121.70748  -5902807.14546
                  20755774.7114                                   20755768.7894
                                                                        52.5004
        41.5004
   1503055.85247   1179981.51645
                  23081047.8134                                   23081044.9414
                                                                        47.5004
        31.0004
 -21003083.92248 -16301903.06246
                  21917032.7274                                   21917028.2114
                                                                        49.5004
        39.2504
 -20003423.65648 -15536637.03146
                  21185324.9304                                   21185320.6524
                                                                        51.2504
        40.0004
 -13028176.71547 -10110357.37944
                  22920990.7274                                   22920986.9534
                                                                        43.2504
        29.5004
  -9323198.21948  -7227973.10245
                  21384808.9144                                   21384804.2304
                                                                        49.7504
        35.5004
   -240237.57047   -172336.66444
                  23624077.2504                                   23624070.1094
                                                                        43.7504
        26.7504
 -16547909.48048 -12847330.11746
                  22145317.2734                                   22145313.6094
                                                                        49.2504
        36.7504
  -2153931.07046  -1642934.14543
                  24051909.6484                                   24051905.2854
                                                                        39.0004
        22.2504
  -1058969.36747   -807250.33644
                  24174389.8524                                   24174385.1844
                                                                        42.0004
        25.5004
 09 10 21  0 11  0.0000000  0 10G02G04G05G10G25G13G23G29G16G07
  -7648718.35548  -5931324.01247
                  20748810.5164                                   20748804.5474
                                                                        52.7504
        42.0004
   1526376.77747   1198153.64545
                  23085485.7734                                   23085482.1214
                                                                        47.7504
        31.5004
 -21167976.47748 -16430390.80946
                  21885654.5784                                   21885650.3674
                                                                        50.2504
        39.0004
 -20153533.10248 -15653605.43746
                  21156759.7894                                   21156755.8914
                                                                        50.7504
        39.5004
 -13160911.51247 -10213787.08244
                  22895732.5084                                   22895728.6954
                                                                        44.5004
        29.2504
  -9368932.38748  -7263610.08645
                  21376105.8204                                   21376101.1484
                                                                        50.0004
        35.2504
   -225161.81647   -160589.33644
                  23626945.7734                                   23626938.9304
                                                                        43.0004
        26.0004
 -16662051.56648 -12936272.00846
                  22123597.0004                                   22123593.3244
                                                                        48.5004
        36.7504
  -2292064.05146  -1750570.31243
                  24025624.1884                                   24025619.5864
                                                                        39.0004
        22.0004
  -1235924.45747   -945137.38344
                  24140716.1254                                   24140712.2154
                                                                        42.2504
        26.5004
 09 10 21  0 11 30.0000000  0 10G02G04G05G10G25G13G23G29G16G07
  -7684735.96548  -5959389.69146
                  20741956.7664                                   20741950.9654
                                                                        52.0004
        41.5004
   1549962.93047   1216532.46945
                  23089973.6644                                   23089970.6334
                                                                        47.0004
        31.7504
 -21332473.43048 -16558570.25846
                  21854352.1024                                   21854347.1804
                                                                        49.5004
        39.0004
 -20303142.52348 -15770184.19146
                  21128290.0084                                   21128286.0474
                                                                        51.2504
        39.7504
 -13293107.54347 -10316796.93044
                  22870576.4924                                   22870572.5234
                                                                        44.2504
        29.7504
  -9414012.28148  -7298737.23445
                  21367527.5554                                   21367522.8954
                                                                        49.7504
        35.7504
   -209738.34446   -148571.05944
                  23629879.9694                                   23629874.2974
                                                                        41.7504
        26.0004
 -16775581.56248 -13024736.96146
                  22101992.7974                                   22101989.2734
                                                                        48.2504
        36.0004
  -2429653.09446  -1857782.54343
                  23999441.8594                                   23999437.2854
                                                                        39.2504
        22.0004
  -1412559.89546  -1082775.38344
                  24107103.2194                                   24107099.5554
                                                                        41.5004
        26.7504
 09 10 21  0 12  0.0000000  0 10G02G04G05G10G25G13G23G29G16G07
  -7720175.69948  -5987005.08246
                  20735212.9304                                   20735206.6454
                                                                        52.5004
        41.5004
   1573812.14547   1235116.27745
                  23094511.7424                                   23094508.6914
                                                                        45.7504
        30.5004
 -21496573.19148 -16686440.24246
                  21823124.7584                                   21823120.5434
                                                                        50.2504
        39.2504
 -20452250.74248 -15886372.40246
                  21099915.6564                                   21099911.8594
                                                                        51.0004
        40.0004
 -13424763.08647 -10419385.60544
                  22845523.0944                                   22845518.7074
                                                                        43.5004
        29.2504
  -9458439.50848  -7333355.84445
                  21359073.1254                                   21359068.6914
                                                                        50.0004
        35.5004
   -193969.54747   -136283.71543
                  23632880.7504                                   23632874.6094
                                                                        42.5004
        22.5004
 -16888497.87548 -13112723.71946
                  22080505.6884                                   22080501.9384
                                                                        50.0004
        36.7504
  -2566696.02746  -1964569.25443
                  23973363.1174                                   23973358.9384
                                                                        39.7504
        21.5004
  -1588872.65647  -1220161.90644
                  24073552.3674                                   24073548.5664
                                                                        42.5004
        28.0004
 09 10 21  0 12 30.0000000  0 10G02G04G05G10G25G13G23G29G16G07
  -7755040.32448  -6014172.32446
                  20728578.4144                                   20728572.0904
                                                                        52.5004
        41.5004
   1597920.73847   1253902.15645
                  23099099.8284                                   23099096.4614
                                                                        46.0004
        31.0004
 -21660275.09048 -16814000.16446
                  21791973.4454                                   21791969.3134
                                                                        50.7504
        39.5004
 -20600856.94148 -16002169.47746
                  21071636.9144                                   21071632.8834
                                                                        51.5004
        39.7504
 -13555877.93747 -10521553.06644
                  22820572.8134                                   22820568.4694
                                                                        43.7504
        28.5004
  -9502216.88748  -7367468.07845
                  21350742.4694                                   21350738.0864
                                                                        50.0004
        35.5004
   -177859.90647   -123730.75443
                  23635946.1334                                   23635940.3444
                                                                        43.0004
        23.2504
 -17000801.13348 -13200232.77046
                  22059134.8594                                   22059131.4844
                                                                        49.0004
        36.7504
  -2703192.46546  -2070930.16843
                  23947389.7194                                   23947384.1724
                                                                        39.7504
        22.0004
  -1764861.35247  -1357295.86344
                  24040062.7894                                   24040059.2194
                                                                        42.0004
        28.0004
 09 10 21  0 13  0.0000000  0 10G02G04G05G10G25G13G23G29G16G07
  -7789330.47748  -6040891.93446
                  20722053.1804                                   20722046.9264
                                                                        51.7504
        41.5004
   1622286.76647   1272888.64545
                  23103736.3674                                   23103733.2504
                                                                        45.2504
        30.2504
 -21823577.37148 -16941248.70346
                  21760897.9774                                   21760893.8054
                                                                        49.5004
        39.5004
 -20748959.57448 -16117574.16046
                  21043453.8054                                   21043450.1684
                                                                        50.2504
        39.7504
 -13686449.82447 -10623297.38744
                  22795725.8834                                   22795721.2704
                                                                        43.5004
        28.7504
  -9545346.26648  -7401075.45345
                  21342535.4304                                   21342530.9104
                                                                        49.5004
        35.2504
   -161411.60247   -110913.88343
                  23639076.5004                                   23639070.1374
                                                                        43.2504
        22.5004
 -17112489.59848 -13287262.74646
                  22037881.3594                                   22037877.8834
                                                                        48.7504
        37.0004
  -2839140.19546  -2176863.55543
                  23921519.0234                                   23921513.7854
                                                                        41.2504
        21.2504
  -1940522.81646  -1494174.82044
                  24006635.1954                                   24006631.6024
                                                                        38.7504
        26.5004
 09 10 21  0 13 30.0000000  0 10G02G04G05G10G25G13G23G29G16G07
  -7823047.77048  -6067165.16446
                  20715636.7274                                   20715631.0704
                                                                        51.7504
        41.5004
   1646908.02347   1292074.00445
                  23108422.0944                                   23108418.2544
                                                                        45.2504
        30.2504
 -21986478.32448 -17068184.51646
                  21729898.9774                                   21729894.8244
                                                                        49.7504
        39.0004
 -20896557.25048 -16232585.43446
                  21015367.0864                                   21015363.0944
                                                                        50.7504
        39.0004
 -13816477.43747 -10724617.58244
                  22770982.1724                                   22770977.7504
                                                                        43.5004
        28.5004
  -9587828.85548  -7434178.78545
                  21334451.2974                                   21334446.9964
                                                                        48.7504
        35.5004
   -144627.66447    -97835.44143
                  23642270.9614                                   23642263.6374
                                                                        44.0004
        23.7504
 -17223562.84448 -13373813.31246
                  22016744.8674                                   22016741.5164
                                                                        49.2504
        37.5004
  -2974537.46946  -2282367.98043
                  23895753.7274                                   23895748.5944
                                                                        41.5004
        22.0004
  -2115854.74246  -1630797.04744
                  23973270.0704                                   23973266.6954
                                                                        38.5004
        24.7504
 09 10 21  0 14  0.0000000  0 10G02G04G05G10G25G13G23G29G16G07
  -7856193.36348  -6092992.91446
                  20709329.4614                                   20709323.7894
                                                                        52.2504
        41.2504
   1671781.84447   1311456.13745
                  23113155.0314                                   23113151.5594
                                                                        45.2504
        30.7504
 -22148976.39848 -17194806.39846
                  21698976.9304                                   21698972.3794
                                                                        50.2504
        39.5004
 -21043648.43448 -16347201.96146
                  20987376.4304                                   20987372.6564
                                                                        51.5004
        40.2504
 -13945959.14847 -10825512.40644
                  22746342.7344                                   22746338.1054
                                                                        43.5004
        28.7504
  -9629666.52748  -7466779.55945
                  21326489.4454                                   21326485.4414
                                                                        48.5004
        35.0004
   -127511.02047    -84497.77743
                  23645528.0704                                   23645520.8094
                                                                        43.5004
        23.0004
 -17334019.82848 -13459883.70346
                  21995725.7814                                   21995721.7934
                                                                        50.0004
        37.0004
  -3109382.14546  -2387441.68443
                  23870093.4384                                   23870088.2704
                                                                        40.5004
        21.2504
  -2290853.71546  -1767159.78544
                  23939969.3674                                   23939965.2154
                                                                        41.7504
        25.2504
 09 10 21  0 14 30.0000000  0 10G02G04G05G10G25G13G23G29G16G07
  -7888770.33248  -6118377.57446
                  20703130.4064                                   20703124.0554
                                                                        52.5004
        41.5004
   1696904.99647   1331032.62945
                  23117935.8054                                   23117932.5594
                                                                        45.0004
        30.0004
 -22311071.29348 -17321114.10246
                  21668130.8204                                   21668126.7274
                                                                        50.7504
        40.2504
 -21190233.28948 -16461423.93446
                  20959482.5634                                   20959478.6914
                                                                        51.0004
        39.0004
 -14074894.94547 -10925981.85244
                  22721806.9694                                   22721802.2934
                                                                        45.0004
        28.7504
  -9670862.81648  -7498880.56245
                  21318650.2734                                   21318645.8244
                                                                        49.0004
        35.2504
   -110065.78147    -70904.05943
                  23648847.6954                                   23648840.6884
                                                                        42.5004
        22.5004
 -17443860.85248 -13545474.12146
                  21974823.9144                                   21974820.2464
                                                                        50.0004
        36.7504
  -3243674.52746  -2492085.09843
                  23844538.2504                                   23844533.4024
                                                                        40.2504
        21.5004
  -2465518.62547  -1903262.20344
                  23906731.3674                                   23906727.8444
                                                                        43.7504
        26.5004
 09 10 21  0 15  0.0000000  0 10G02G04G05G10G25G13G23G29G16G07
  -7920779.91848  -6143320.12146
                  20697039.4384                                   20697033.1054
                                                                        52.2504
        41.5004
   1722274.93847   1350801.34445
                  23122763.6564                                   23122760.6134
                                                                        45.0004
        31.0004
 -22472761.36348 -17447106.30546
                  21637362.4774                                   21637357.7704
                                                                        50.7504
        40.5004
 -21336310.12148 -16575250.07846
                  20931685.2814                                   20931681.3484
                                                                        51.2504
        39.7504
 -14203283.18447 -11026024.63344
                  22697376.1024                                   22697371.6254
                                                                        45.0004
        29.0004
  -9711419.39848  -7530483.12145
                  21310932.9534                                   21310928.0204
                                                                        49.7504
        34.7504
    -92294.88746    -57056.60943
                  23652228.7664                                   23652222.7194
                                                                        40.5004
        22.5004
 -17553085.14548 -13630583.95346
                  21954039.3524                                   21954035.6454
                                                                        49.2504
        37.0004
  -3377412.16446  -2596296.28943
                  23819089.0944                                   23819084.3324
                                                                        39.7504
        21.0004
  -2639846.73847  -2039102.27044
                  23873558.3444                                   23873553.7344
                                                                        43.7504
        26.7504
 09 10 21  0 15 30.0000000  0 10G02G04G05G10G25G13G23G29G16G07
  -6376802.91848  -4940221.15647
                  20990848.2114                                   20990842.0124
                                                                        51.7504
        42.0004
   3323308.37547   2598359.82845
                  23427430.6414                                   23427427.1844
                                                                        44.5004
        31.0004
 -21058620.23448 -16345178.18446
                  21906464.2584                                   21906459.8714
                                                                        50.2504
        40.0004
 -19906452.80548 -15461075.53946
                  21203777.6724                                   21203773.4414
                                                                        51.7504
        39.2504
 -12755698.25447  -9898036.38344
                  22972841.6484                                   22972837.5474
                                                                        44.7504
        29.0004
  -8175916.22748  -6333987.11745
                  21603129.4844                                   21603124.7074
                                                                        48.5004
        34.7504
   1501218.32446   1184641.97743
                  23955464.1024                                   23955458.3714
                                                                        40.7504
        23.7504
 -16086268.32048 -12487609.82446
                  22233165.0314                                   22233161.5474
                                                                        50.0004
        37.7504
  -1935169.44146  -1472470.75843
                  24093538.7734                                   24093534.3834
                                                                        40.0004
        22.0004
  -1238409.80547   -947073.43044
                  24140242.5944                                   24140238.2194
                                                                        43.5004
        24.5004
 09 10 21  0 16  0.0000000  0 10G02G04G05G10G25G13G23G29G16G07
  -6407685.84848  -4964285.77346
                  20984971.5704                                   20984965.3834
                                                                        51.5004
        41.2504
   3349161.77047   2618505.37945
                  23432350.0944                                   23432346.9064
                                                                        43.7504
        30.2504
 -21219499.63348 -16470538.73846
                  21875849.9144                                   21875845.8204
                                                                        49.5004
        39.2504
 -20051512.81648 -15574109.26646
                  21176173.7194                                   21176169.5004
                                                                        51.0004
        40.2504
 -12882990.35947  -9997225.01644
                  22948619.0394                                   22948614.8014
                                                                        45.0004
        29.2504
  -8215201.53148  -6364599.03145
                  21595653.6954                                   21595648.8524
                                                                        48.2504
        34.7504
   1519628.68447   1198987.70344
                  23958968.0234                                   23958961.8954
                                                                        42.2504
        26.2504
 -16194260.19548 -12571759.36346
                  22212615.1024                                   22212611.2464
                                                                        49.7504
        37.7504
  -2067796.86746  -1575816.76643
                  24068300.3754                                   24068296.5314
                                                                        40.5004
        22.5004
  -1412059.71547  -1082384.97344
                  24107197.7344                                   24107193.6644
                                                                        42.0004
        25.7504
 09 10 21  0 16 30.0000000  0 10G02G04G05G10G25G13G23G29G16G07
  -6438006.93748  -4987912.58646
                  20979201.5864                                   20979195.3554
                                                                        52.0004
        41.2504
   3375253.80547   2638836.88744
                  23437315.1174                                   23437312.1334
                                                                        45.2504
        29.5004
 -21379970.86748 -16595581.24246
                  21845313.5164                                   21845309.3674
                                                                        49.0004
        39.2504
 -20196061.75048 -15686744.77346
                  21148666.7894                                   21148663.1684
                                                                        51.2504
        40.7504
 -13009731.67247 -10095984.46944
                  22924500.2974                                   22924496.5084
                                                                        43.5004
        29.7504
  -8253853.80548  -6394717.67645
                  21588298.1024                                   21588293.5434
                                                                        48.0004
        34.5004
   1538355.20347   1213579.77343
                  23962531.8914                                   23962525.5354
                                                                        43.2504
        23.7504
 -16301633.78148 -12655427.10546
                  22192182.0944                                   22192178.7814
                                                                        49.7504
        37.2504
  -2199865.82846  -1678727.62943
                  24043168.2814                                   24043164.6604
                                                                        40.0004
        23.7504
  -1585365.83246  -1217428.63744
                  24074218.4844                                   24074214.6724
                                                                        40.0004
        25.5004
 09 10 21  0 17  0.0000000  0 10G02G04G05G10G25G13G23G29G16G07
  -6467767.28948  -5011102.46946
                  20973538.2814                                   20973532.3874
                                                                        51.7504
        41.2504
   3401582.39147   2659352.68444
                  23442325.0634                                   23442321.7074
                                                                        45.0004
        28.7504
 -21540031.75048 -16720303.95746
                  21814854.7734                                   21814850.7154
                                                                        49.0004
        40.2504
 -20340098.18448 -15798980.90646
                  21121257.6334                                   21121253.7934
                                                                        51.2504
        40.2504
 -13135920.46547 -10194313.37945
                  22900488.0554                                   22900483.7464
                                                                        44.0004
        30.0004
  -8291874.60947  -6424344.30145
                  21581063.4064                                   21581058.4344
                                                                        47.2504
        34.5004
   1557395.01247   1228415.98443
                  23966154.7114                                   23966148.0864
                                                                        43.7504
        23.5004
 -16408388.26648 -12738612.40646
                  22171867.6414                                   22171864.2854
                                                                        50.0004
        37.0004
  -2331374.26646  -1781201.63743
                  24018142.9064                                   24018139.3914
                                                                        40.5004
        22.7504
  -1758325.46546  -1352202.31244
                  24041305.1254                                   24041301.8204
                                                                        41.2504
        26.2504
 09 10 21  0 17 30.0000000  0 10G02G04G05G10G25G13G23G29G16G07
  -6496970.37148  -5033858.12946
                  20967981.3364                                   20967975.1214
                                                                        52.7504
        41.2504
   3428143.63347   2680049.77744
                  23447379.7584                                   23447375.9104
                                                                        44.5004
        28.5004
 -21699682.35248 -16844706.98046
                  21784474.2504                                   21784470.2544
                                                                        50.2504
        40.0004
 -20483622.29748 -15910817.89546
                  21093946.2194                                   21093942.1484
                                                                        51.7504
        40.5004
 -13261556.91047 -10292211.87945
                  22876579.3364                                   22876575.5904
                                                                        45.5004
        30.0004
  -8329267.33647  -6453481.51245
                  21573947.6564                                   21573943.4064
                                                                        47.7504
        35.0004
   1576743.82847   1243492.99643
                  23969836.8284                                   23969829.9774
                                                                        43.2504
        22.7504
 -16514524.46148 -12821315.90246
                  22151670.2664                                   22151666.8984
                                                                        50.0004
        37.5004
  -2462321.90246  -1883238.59843
                  23993224.5704                                   23993220.6604
                                                                        41.0004
        23.7504
  -1930936.78947  -1486704.58644
                  24008459.0234                                   24008454.8714
                                                                        42.7504
        25.7504
 09 10 21  0 18  0.0000000  0 10G02G04G05G10G25G13G23G29G16G07
  -6525617.31248  -5056180.45746
                  20962529.7344                                   20962523.9104
                                                                        52.7504
        41.5004
   3454935.84447   2700926.90244
                  23452477.7034                                   23452474.7384
                                                                        45.0004
        28.7504
 -21858921.06248 -16968789.11346
                  21754172.2504                                   21754168.5084
                                                                        49.5004
        40.2504
 -20626632.35548 -16022254.31646
                  21066732.0634                                   21066728.1604
                                                                        51.5004
        40.0004
 -13386639.30147 -10389678.66045
                  22852777.5474                                   22852774.0354
                                                                        44.5004
        30.2504
  -8366033.74247  -6482130.69145
                  21566951.1884                                   21566946.7704
                                                                        46.5004
        35.5004
   1596398.96147   1258808.71543
                  23973576.6954                                   23973570.2114
                                                                        43.5004
        22.2504
 -16620041.19948 -12903536.73846
                  22131591.0004                                   22131587.7854
                                                                        50.2504
        37.2504
  -2592707.47346  -1984837.63743
                  23968413.2734                                   23968408.9104
                                                                        41.7504
        23.0004
  -2103197.28947  -1620933.50044
                  23975678.8834                                   23975674.6954
                                                                        43.7504
        27.0004
 09 10 21  0 18 30.0000000  0 10G02G04G05G10G25G13G23G29G16G07
  -6553710.64848  -5078071.40646
                  20957183.8674                                   20957177.6484
                                                                        52.2504
        41.0004
   3481955.22347   2721981.03944
                  23457619.8524                                   23457616.0984
                                                                        45.7504
        29.2504
 -22017747.64148 -17092550.10546
                  21723948.4304                                   21723944.7074
                                                                        50.2504
        40.0004
 -20769127.86348 -16133289.75446
                  21039616.2664                                   21039612.3244
                                                                        51.7504
        40.0004
 -13511167.39547 -10486713.53945
                  22829080.5084                                   22829076.3634
                                                                        44.5004
        30.0004
  -8402176.69147  -6510294.03545
                  21560073.3984                                   21560068.5944
                                                                        47.7504
        35.0004
   1616356.59846   1274360.12543
                  23977374.2974                                   23977367.7154
                                                                        40.5004
        21.5004
 -16724938.82048 -12985275.14546
                  22111630.0944                                   22111626.6724
                                                                        50.5004
        37.7504
  -2722530.06646  -2085997.99643
                  23943709.0084                                   23943704.1604
                                                                        41.5004
        23.5004
  -2275105.29747  -1754887.77344
                  23942965.5234                                   23942961.4224
                                                                        45.0004
        27.2504
 09 10 21  0 19  0.0000000  0 10G02G04G05G10G25G13G23G29G16G07
  -6581249.60548  -5099530.35946
                  20951943.4774                                   20951937.4264
                                                                        52.2504
        41.0004
   3509201.71147   2743212.09844
                  23462804.0314                                   23462800.9414
                                                                        46.0004
        29.5004
 -22176158.05548 -17215986.75846
                  21693804.1024                                   21693800.1054
                                                                        50.0004
        40.2504
 -20911105.52048 -16243921.71946
                  21012598.5394                                   21012594.6484
                                                                        52.0004
        40.5004
 -13635137.57047 -10583313.65644
                  22805489.7734                                   22805486.1214
                                                                        44.0004
        29.2504
  -8437695.93447  -6537971.32445
                  21553314.1954                                   21553309.6994
                                                                        47.5004
        34.0004
   1636615.83246   1290146.53943
                  23981229.3364                                   23981223.3484
                                                                        40.2504
        21.0004
 -16829214.49648 -13066528.90646
                  22091786.8204                                   22091783.2274
                                                                        50.7504
        38.0004
  -2851786.30146  -2186717.10243
                  23919111.9224                                   23919107.0594
                                                                        41.5004
        22.5004
  -2446655.81247  -1888563.42644
                  23910320.7814                                   23910316.4144
                                                                        45.0004
        27.5004
 09 10 21  0 19 30.0000000  0 10G02G04G05G10G25G13G23G29G16G07
  -6608235.81248  -5120558.59046
                  20946808.3204                                   20946802.3594
                                                                        53.0004
        41.2504
   3536673.03547   2764618.29345
                  23468031.9534                                   23468028.8404
                                                                        45.7504
        30.0004
 -22334150.68748 -17339097.89846
                  21663739.0634                                   21663734.7114
                                                                        50.2504
        40.0004
 -21052564.14148 -16354149.20746
                  20985679.5554                                   20985675.8404
                                                                        52.0004
        40.0004
 -13758548.41847 -10679477.92644
                  22782005.9534                                   22782001.6254
                                                                        45.2504
        29.7504
  -8472593.56248  -6565164.24645
                  21546673.5704                                   21546668.6054
                                                                        48.2504
        34.5004
   1657174.26246   1306166.08643
                  23985141.8914                                   23985135.6094
                                                                        41.7504
        22.5004
 -16932867.54348 -13147297.49246
                  22072062.6484                                   22072059.0824
                                                                        49.7504
        37.2504
  -2980474.21547  -2286993.36343
                  23894623.4224                                   23894618.3634
                                                                        42.0004
        22.2504
  -2617846.57447  -2021958.80144
                  23877744.4304                                   23877740.3324
                                                                        45.2504
        26.0004
 09 10 21  0 20  0.0000000  0 10G02G04G05G10G25G13G23G29G16G07
  -6634672.99248  -5141158.99646
                  20941777.5474                                   20941771.3794
                                                                        52.5004
        41.5004
   3564364.96547   2786196.50044
                  23473301.7814                                   23473298.4494
                                                                        45.7504
        28.7504
 -22491726.33648 -17461884.27746
                  21633753.4454                                   21633749.0314
                                                                        50.5004
        39.2504
 -21193504.49648 -16463972.88746
                  20958860.1094                                   20958856.0864
                                                                        51.7504
        40.5004
 -13881400.89147 -10775207.11744
                  22758627.5864                                   22758623.1054
                                                                        45.0004
        29.2504
  -8506873.83248  -6591876.16445
                  21540149.9924                                   21540145.5864
                                                                        48.0004
        34.7504
   1678026.60247   1322414.68444
                  23989110.1094                                   23989104.5634
                                                                        42.0004
        25.0004
 -17035899.47748 -13227582.10246
                  22052456.2034                                   22052452.4614
                                                                        49.5004
        37.2504
  -3108594.02046  -2386826.96543
                  23870243.1644                                   23870238.1684
                                                                        41.2504
        23.7504
  -2788676.25447  -2155072.72344
                  23845236.1024                                   23845232.1884
                                                                        44.7504
        25.7504
 09 10 21  0 20 30.0000000  0 10G02G04G05G10G25G13G23G29G16G07
  -6660564.44148  -5161334.15246
                  20936850.3834                                   20936844.3794
                                                                        53.0004
        41.7504
   3592273.01647   2807943.00844
                  23478612.2034                                   23478609.2464
                                                                        46.0004
        28.7504
 -22648885.08648 -17584345.82446
                  21603847.0314                                   21603842.9694
                                                                        50.2504
        40.2504
 -21333926.96948 -16573392.99646
                  20932138.4144                                   20932134.4104
                                                                        52.5004
        40.5004
 -14003695.49247 -10870501.61345
                  22735355.4844                                   22735351.8634
                                                                        45.5004
        30.0004
  -8540540.37547  -6618109.82845
                  21533743.5554                                   21533739.1374
                                                                        47.5004
        35.0004
   1699167.90647   1338888.43444
                  23993133.1954                                   23993127.2384
                                                                        42.5004
        25.7504
 -17138311.45748 -13307383.63746
                  22032967.8594                                   22032964.0784
                                                                        49.2504
        37.5004
  -3236146.96547  -2486218.96543
                  23845970.6414                                   23845965.7894
                                                                        42.7504
        22.0004
  -2959144.47347  -2287905.04344
                  23812796.4534                                   23812792.5704
                                                                        44.0004
        26.0004
 09 10 21  0 21  0.0000000  0 10G02G04G05G10G25G13G23G29G16G07
  -6685912.28148  -5181085.73046
                  20932026.9614                                   20932020.8134
                                                                        52.0004
        41.2504
   3620395.01647   2829856.21944
                  23483963.5784                                   23483960.5944
                                                                        44.7504
        28.2504
 -22805625.67648 -17706481.49646
                  21574020.5474                                   21574016.3954
                                                                        51.2504
        40.0004
 -21473830.58248 -16682408.84446
                  20905515.5394                                   20905511.9414
                                                                        52.0004
        40.7504
 -14125430.93047 -10965360.37544
                  22712190.1174                                   22712186.2464
                                                                        46.0004
        29.5004
  -8573595.34048  -6643866.91845
                  21527453.7504                                   21527448.9144
                                                                        48.0004
        34.5004
   1720595.55947   1355585.28944
                  23997210.6484                                   23997204.7234
                                                                        42.5004
        26.0004
 -17240102.77748 -13386701.51246
                  22013597.5084                                   22013593.8754
                                                                        49.5004
        37.2504
  -3363131.13747  -2585167.71943
                  23821806.8914                                   23821800.8794
                                                                        42.5004
        21.7504
  -3129248.58247  -2420453.61344
                  23780427.2114                                   23780423.7034
                                                                        43.7504
        27.0004
 09 10 21  0 21 30.0000000  0 10G02G04G05G10G25G13G23G29G16G07
  -6710720.44148  -5200416.84446
                  20927305.7894                                   20927299.9104
                                                                        52.7504
        41.0004
   3648726.14547   2851932.46544
                  23489355.0314                                   23489351.5314
                                                                        44.7504
        27.7504
 -22961948.69948 -17828291.68746
                  21544273.6024                                   21544269.1054
                                                                        51.7504
        40.5004
 -21613216.32448 -16791021.15246
                  20878991.5474                                   20878987.2464
                                                                        51.5004
        40.0004
 -14246608.49247 -11059784.43044
                  22689131.1024                                   22689126.6294
                                                                        46.2504
        29.2504
  -8606043.30948  -6669151.03145
                  21521278.8054                                   21521274.4184
                                                                        48.0004
        34.0004
   1742304.30546   1372501.19943
                  24001341.7344                                   24001335.8524
                                                                        41.0004
        22.0004
 -17341275.53148 -13465537.41046
                  21994344.9694                                   21994341.6804
                                                                        49.0004
        37.7504
  -3489547.53147  -2683673.99243
                  23797750.0314                                   23797744.7424
                                                                        42.5004
        20.7504
  -3298988.28547  -2552718.22344
                  23748126.4844                                   23748122.6254
                                                                        43.0004
        26.0004
 09 10 21  0 22  0.0000000  0 10G02G04G05G10G25G13G23G29G16G07
  -6734989.41448  -5219327.74246
                  20922687.8054                                   20922681.4304
                                                                        53.0004
        41.0004
   3677264.93447   2874170.40644
                  23494785.8284                                   23494782.6054
                                                                        44.2504
        28.0004
 -23117851.78148 -17949774.62146
                  21514606.3594                                   21514601.7704
                                                                        51.2504
        40.5004
 -21752082.37548 -16899228.62546
                  20852566.2424                                   20852562.1684
                                                                        51.7504
        40.5004
 -14367225.92247 -11153772.04745
                  22666178.2734                                   22666174.0744
                                                                        45.5004
        30.5004
  -8637885.53548  -6693963.14545
                  21515219.4924                                   21515214.6604
                                                                        48.7504
        34.5004
   1764292.18846   1389634.61343
                  24005525.2424                                   24005518.9384
                                                                        38.5004
        20.2504
 -17441827.96948 -13543889.94146
                  21975210.5784                                   21975206.8324
                                                                        49.5004
        37.5004
  -3615393.20747  -2781735.52743
                  23773802.3364                                   23773797.0824
                                                                        42.0004
        21.7504
  -3468359.96947  -2684696.05944
                  23715896.5314                                   23715892.0474
                                                                        44.2504
        26.2504
 09 10 21  0 22 30.0000000  0 10G02G04G05G10G25G13G23G29G16G07
  -6758718.47748  -5237817.92646
                  20918172.4064                                   20918166.1844
                                                                        52.5004
        41.2504
   3706011.44147   2896570.23044
                  23500256.0004                                   23500252.3754
                                                                        46.0004
        27.7504
 -23273331.22748 -18070927.45346
                  21485019.1484                                   21485015.1294
                                                                        51.5004
        40.5004
 -21890424.69148 -17007027.89546
                  20826240.5234                                   20826236.5984
                                                                        51.2504
        40.5004
 -14487279.70747 -11247320.45345
                  22643332.7344                                   22643328.1334
                                                                        45.5004
        30.0004
  -8669121.66848  -6718302.96145
                  21509275.1414                                   21509270.4304
                                                                        50.0004
        34.5004
   1786558.49646   1406984.96943
                  24009763.1954                                   24009757.0044
                                                                        38.7504
        19.5004
 -17541757.35248 -13621756.96946
                  21956194.4534                                   21956191.0704
                                                                        49.5004
        37.7504
  -3740664.93746  -2879349.82043
                  23749964.3284                                   23749958.7894
                                                                        41.5004
        20.5004
  -3637358.80947  -2816383.39144
                  23683737.1024                                   23683732.4654
                                                                        44.5004
        27.0004
 09 10 21  0 23  0.0000000  0 10G02G04G05G10G25G13G23G29G16G07
  -6781910.85948  -5255889.87146
                  20913758.7504                                   20913752.9924
                                                                        52.7504
        40.7504
   3734962.08647   2919129.28544
                  23505765.7814                                   23505761.5554
                                                                        45.2504
        28.5004
 -23428387.35548 -18191750.40246
                  21455513.0234                                   21455508.9024
                                                                        50.5004
        40.5004
 -22028244.04348 -17114419.57046
                  20800014.5164                                   20800010.5984
                                                                        51.2504
        40.5004
 -14606770.35247 -11340430.04745
                  22620594.3524                                   22620590.0784
                                                                        45.5004
        30.2504
  -8699755.56248  -6742173.53945
                  21503445.8754                                   21503441.3754
                                                                        49.2504
        34.7504
   1809098.71546   1424548.80143
                  24014051.7194                                   24014045.2814
                                                                        39.7504
        20.2504
 -17641064.83648 -13699139.40646
                  21937296.8754                                   21937293.1024
                                                                        49.0004
        37.7504
  -3865362.72746  -2976516.91443
                  23726235.5944                                   23726230.0824
                                                                        40.7504
        20.2504
  -3805983.89147  -2947779.50844
                  23651648.9224                                   23651644.3524
                                                                        44.2504
        28.5004
 09 10 21  0 23 30.0000000  0 10G02G04G05G10G25G13G23G29G16G07
  -6804568.27748  -5273544.96146
                  20909447.2664                                   20909441.1214
                                                                        52.0004
        40.7504
   3764114.02747   2941845.01645
                  23511312.8834                                   23511309.6294
                                                                        45.2504
        30.0004
 -23583018.30148 -18312242.10246
                  21426087.7664                                   21426083.5984
                                                                        50.7504
        40.5004
 -22165539.19948 -17221402.89546
                  20773887.8984                                   20773884.1374
                                                                        51.2504
        40.5004
 -14725696.34447 -11433099.64545
                  22597963.1724                                   22597959.3754
                                                                        45.5004
        30.2504
  -8729789.22748  -6765576.39545
                  21497730.8364                                   21497726.1994
                                                                        49.2504
        34.5004
   1831910.47346   1442324.18043
                  24018393.2424                                   24018386.9534
                                                                        41.0004
        21.5004
 -17739749.80948 -13776036.76246
                  21918517.8054                                   21918513.9574
                                                                        48.5004
        37.2504
  -3989485.09846  -3073235.64543
                  23702615.4614                                   23702610.3834
                                                                        41.5004
        22.0004
  -3974232.21147  -3078882.07044
                  23619631.8674                                   23619627.8014
                                                                        42.7504
        28.0004
 09 10 21  0 24  0.0000000  0 10G02G04G05G10G25G13G23G29G16G07
  -6826692.74648  -5290784.78946
                  20905237.1334                                   20905231.3954
                                                                        51.7504
        41.0004
   3793465.42247   2964716.16844
                  23516898.0234                                   23516895.0124
                                                                        43.5004
        28.5004
 -23737222.56248 -18432401.22746
                  21396743.9224                                   21396739.6994
                                                                        50.7504
        40.7504
 -22302308.62548 -17327976.59046
                  20747862.0164                                   20747857.9304
                                                                        51.2504
        40.5004
 -14844056.62547 -11525328.41045
                  22575440.0394                                   22575435.6334
                                                                        46.0004
        30.0004
  -8759224.50848  -6788512.99645
                  21492129.3674                                   21492125.1564
                                                                        48.5004
        34.7504
   1854990.65247   1460308.77043
                  24022785.6334                                   24022778.8244
                                                                        42.2504
        22.5004
 -17837811.62948 -13852448.54746
                  21899857.0234                                   21899853.5474
                                                                        49.0004
        37.2504
  -4113030.67646  -3169504.90643
                  23679105.2894                                   23679100.6524
                                                                        41.2504
        22.7504
  -4142101.60247  -3209689.35944
                  23587687.5394                                   23587683.9694
                                                                        43.7504
        28.2504
 09 10 21  0 24 30.0000000  0 10G02G04G05G10G25G13G23G29G16G07
  -6848286.61348  -5307611.15246
                  20901128.0004                                   20901122.0274
                                                                        51.7504
        41.0004
   3823013.13747   2987740.31644
                  23522520.6564                                   23522517.5434
                                                                        43.0004
        28.2504
 -23890999.04348 -18552227.02346
                  21367481.0314                                   21367476.8874
                                                                        50.7504
        40.5004
 -22438551.60948 -17434139.93046
                  20721935.8834                                   20721932.1604
                                                                        52.0004
        40.7504
 -14961850.70747 -11617116.00445
                  22553024.7664                                   22553019.9184
                                                                        45.7504
        30.0004
  -8788064.49648  -6810985.72345
                  21486641.3524                                   21486637.0204
                                                                        48.2504
        34.2504
   1878335.76246   1478499.76243
                  24027227.3134                                   24027221.3134
                                                                        41.5004
        22.7504
 -17935250.65247 -13928375.04346
                  21881315.1724                                   21881311.2344
                                                                        47.7504
        37.2504
  -4235998.50446  -3265323.92243
                  23655705.6094                                   23655700.5704
                                                                        41.2504
        22.7504
  -4309589.34447  -3340199.30944
                  23555815.7344                                   23555811.4964
                                                                        42.5004
        28.2504
 09 10 21  0 25  0.0000000  0  9G02G04G05G10G25G13G29G16G07
  -5293930.11748  -4096424.30546
                  21196912.3364                                   21196906.1094
                                                                        52.0004
        41.0004
   5428174.30147   4238515.18044
                  23827972.3834                                   23827969.8364
                                                                        43.0004
        28.0004
 -22468921.35248 -17444114.52046
                  21638093.3754                                   21638089.0944
                                                                        50.0004
        41.0004
 -20998842.05548 -16312288.30146
                  20995903.0704                                   20995899.1994
                                                                        51.2504
        40.5004
 -13503653.02347 -10480858.03145
                  22830510.0394                                   22830506.4454
                                                                        45.7504
        30.0004
  -7240889.93048  -5605395.21145
                  21781058.9694                                   21781053.9694
                                                                        48.5004
        33.7504
 -16456642.64147 -12776212.94546
                  22162684.5864                                   22162681.0664
                                                                        47.5004
        37.0004
  -2782962.80546  -2133088.32843
                  23932208.5234                                   23932203.8874
                                                                        41.5004
        23.5004
  -2901266.92246  -2242805.16044
                  23823810.0944                                   23823806.3674
                                                                        41.5004
        27.0004
 09 10 21  0 25 30.0000000  0  9G02G04G05G10G25G13G29G16G07
  -5314464.68748  -4112425.28546
                  21193004.5234                                   21192998.7504
                                                                        52.0004
        41.0004
   5458110.44947   4261841.96544
                  23833669.4694                                   23833666.7774
                                                                        43.0004
        27.7504
 -22621836.32048 -17563269.07846
                  21608994.7504                                   21608990.5084
                                                                        50.0004
        40.5004
 -21134026.29348 -16417626.73046
                  20970178.5164                                   20970174.7034
                                                                        51.2504
        40.7504
 -13620308.67647 -10571758.55145
                  22808311.8984                                   22808307.4924
                                                                        46.5004
        30.0004
  -7268543.07848  -5626943.10945
                  21775796.5084                                   21775791.8984
                                                                        49.0004
        34.0004
 -16552832.06248 -12851165.73446
                  22144380.6564                                   22144376.9774
                                                                        48.5004
        37.0004
  -2904768.62547  -2228001.90644
                  23909029.9144                                   23909025.2074
                                                                        42.0004
        25.5004
  -3067981.30546  -2372712.43744
                  23792085.6564                                   23792081.2704
                                                                        41.2504
        26.0004
 09 10 21  0 26  0.0000000  0  9G02G04G05G10G25G13G29G16G07
  -5334468.87948  -4128012.98046
                  21189197.9614                                   21189192.3244
                                                                        52.0004
        41.0004
   5488240.90247   4285320.22344
                  23839403.1094                                   23839399.7114
                                                                        43.2504
        28.0004
 -22774314.44148 -17682083.18746
                  21579978.9144                                   21579974.9964
                                                                        50.0004
        40.5004
 -21268675.77348 -16522548.34446
                  20944556.0704                                   20944551.9454
                                                                        50.5004
        40.2504
 -13736390.01247 -10662211.53545
                  22786222.1484                                   22786218.0904
                                                                        46.0004
        30.0004
  -7295602.74648  -5648028.61345
                  21770647.6884                                   21770642.7344
                                                                        48.7504
        33.7504
 -16648392.40648 -12925628.35246
                  22126196.0314                                   22126192.4694
                                                                        48.0004
        37.5004
  -3025988.02046  -2322458.52744
                  23885962.4614                                   23885958.1294
                                                                        41.5004
        24.0004
  -3234301.83246  -2502312.82444
                  23760436.0704                                   23760431.1214
                                                                        41.0004
        27.0004
 09 10 21  0 26 30.0000000  0  9G02G04G05G10G25G13G29G16G07
  -5353941.62948  -4143186.54346
                  21185492.6334                                   21185486.3984
                                                                        51.5004
        40.5004
   5518566.14547   4308950.27044
                  23845173.4694                                   23845170.6254
                                                                        44.5004
        27.7504
 -22926351.90248 -17800553.94546
                  21551047.1564                                   21551043.1724
                                                                        50.7504
        41.2504
 -21402787.23048 -16627050.76646
                  20919035.1724                                   20919031.2384
                                                                        51.5004
        40.5004
 -13851893.12147 -10752213.90245
                  22764242.6644                                   22764238.4184
                                                                        46.2504
        30.2504
  -7322068.30148  -5668651.13345
                  21765611.2734                                   21765606.7194
                                                                        49.0004
        33.5004
 -16743320.55148 -12999598.36746
                  22108131.6884                                   22108128.4654
                                                                        48.2504
        38.0004
  -3146617.12946  -2416455.21544
                  23863007.5944                                   23863003.1334
                                                                        41.7504
        25.7504
  -3400222.94947  -2631601.99644
                  23728862.2734                                   23728857.4964
                                                                        43.7504
        26.5004
 09 10 21  0 27  0.0000000  0  9G02G04G05G10G25G13G29G16G07
  -5372890.37948  -4157951.80546
                  21181886.6174                                   21181880.4574
                                                                        51.5004
        41.0004
   5549078.20347   4332725.87144
                  23850980.5554                                   23850976.7464
                                                                        43.5004
        26.0004
 -23077952.09448 -17918683.96546
                  21522198.5704                                   21522194.5394
                                                                        50.0004
        40.5004
 -21536364.55548 -16731137.00446
                  20893615.9774                                   20893612.3524
                                                                        51.0004
        40.7504
 -13966822.42647 -10841769.17244
                  22742371.9614                                   22742367.9384
                                                                        45.7504
        29.7504
  -7347947.35248  -5688816.59445
                  21760686.5234                                   21760682.1644
                                                                        49.2504
        33.5004
 -16837621.65648 -13073079.74646
                  22090187.1804                                   22090183.5274
                                                                        48.0004
        37.5004
  -3266659.86746  -2509994.98844
                  23840163.7274                                   23840159.7114
                                                                        41.5004
        26.0004
  -3565747.27347  -2760581.98044
                  23697364.0704                                   23697359.6294
                                                                        42.7504
        28.7504
 09 10 21  0 27 30.0000000  0  9G02G04G05G10G25G13G29G16G07
  -5391317.22348  -4172310.41446
                  21178380.2734                                   21178373.9924
                                                                        51.0004
        40.2504
   5579774.55147   4356645.05944
                  23856821.3134                                   23856818.6954
                                                                        43.5004
        27.0004
 -23229114.75848 -18036473.04746
                  21493433.4924                                   21493429.5314
                                                                        50.0004
        41.2504
 -21669407.23848 -16834806.60546
                  20868299.0864                                   20868295.2464
                                                                        51.0004
        40.5004
 -14081177.35947 -10930876.89845
                  22720611.2814                                   22720607.0234
                                                                        46.2504
        31.5004
  -7373242.86748  -5708527.42645
                  21755873.0864                                   21755868.5704
                                                                        48.7504
        33.0004
 -16931295.91847 -13146072.69146
                  22072361.2194                                   22072357.7734
                                                                        47.7504
        37.5004
  -3386115.27746  -2603077.09844
                  23817433.1564                                   23817428.5434
                                                                        41.2504
        24.7504
  -3730872.92646  -2889251.32444
                  23665942.1254                                   23665938.0004
                                                                        41.5004
        29.2504
 09 10 21  0 28  0.0000000  0  9G02G04G05G10G25G13G29G16G07
  -5409229.15648  -4186267.80546
                  21174971.7504                                   21174965.7344
                                                                        52.2504
        40.7504
   5610647.75047   4380702.10544
                  23862695.8984                                   23862693.0164
                                                                        42.5004
        26.0004
 -23379843.35248 -18153923.92646
                  21464750.6094                                   21464746.5864
                                                                        50.7504
        41.0004
 -21801919.32048 -16938062.77746
                  20843082.7734                                   20843078.8054
                                                                        51.2504
        40.2504
 -14194962.18447 -11019540.37545
                  22698958.9064                                   22698954.5664
                                                                        46.2504
        30.5004
  -7397962.05148  -5727789.12545
                  21751168.9144                                   21751164.8164
                                                                        49.5004
        33.5004
 -17024348.14847 -13218580.93446
                  22054654.0474                                   22054650.5004
                                                                        47.7504
        37.5004
  -3504987.50446  -2695704.77744
                  23794811.8134                                   23794807.1884
                                                                        40.7504
        24.5004
  -3895602.55946  -3017612.06644
                  23634594.5004                                   23634590.5864
                                                                        41.5004
        28.7504
 09 10 21  0 28 30.0000000  0  9G02G04G05G10G25G13G29G16G07
  -5426628.71948  -4199825.93046
                  21171660.5394                                   21171654.8554
                                                                        50.7504
        40.2504
   5641694.48847   4404894.30144
                  23868604.3444                                   23868601.6764
                                                                        42.0004
        27.2504
 -23530137.24648 -18271036.05946
                  21436150.7584                                   21436146.8014
                                                                        50.2504
        41.2504
 -21933900.19148 -17040904.99646
                  20817967.6484                                   20817963.7814
                                                                        51.5004
        40.5004
 -14308176.57447 -11107759.36345
                  22677414.7344                                   22677410.7114
                                                                        46.5004
        30.5004
  -7422108.21148  -5746604.31245
                  21746574.5164                                   21746569.8484
                                                                        49.7504
        33.2504
 -17116778.96948 -13290604.96546
                  22037064.9534                                   22037061.3834
                                                                        48.0004
        37.2504
  -3623276.16446  -2787877.77044
                  23772302.5164                                   23772297.4884
                                                                        40.7504
        24.5004
  -4059934.04346  -3145662.57444
                  23603323.2274                                   23603319.5354
                                                                        41.5004
        28.7504
 09 10 21  0 29  0.0000000  0  9G02G04G05G10G25G13G29G16G07
  -5443518.80548  -4212987.03546
                  21168446.8444                                   21168440.6454
                                                                        51.2504
        40.5004
   5672911.24647   4429218.95344
                  23874545.3284                                   23874542.0664
                                                                        43.5004
        28.0004
 -23679996.01248 -18387809.09846
                  21407633.4534                                   21407629.4264
                                                                        50.2504
        41.5004
 -22065349.99648 -17143333.41046
                  20792953.4304                                   20792949.5984
                                                                        51.5004
        40.5004
 -14420820.81647 -11195534.09445
                  22655979.0394                                   22655975.0704
                                                                        46.5004
        31.5004
  -7445684.59848  -5764975.50845
                  21742087.4384                                   21742083.2234
                                                                        49.2504
        33.0004
 -17208588.99247 -13362145.25846
                  22019594.2664                                   22019590.7774
                                                                        47.5004
        37.7504
  -3740980.90246  -2879595.72343
                  23749903.5234                                   23749898.5514
                                                                        41.5004
        22.5004
  -4223866.22747  -3273401.87144
                  23572128.2274                                   23572124.1484
                                                                        42.5004
        28.7504
 09 10 21  0 29 30.0000000  0  9G02G04G05G10G25G13G29G16G07
  -5459902.32448  -4225753.45746
                  21165329.2584                                   21165322.8714
                                                                        51.2504
        40.0004
   5704295.33247   4453674.02744
                  23880516.8834                                   23880514.3524
                                                                        44.2504
        26.2504
 -23829419.05948 -18504242.61746
                  21379199.4224                                   21379195.1414
                                                                        50.7504
        41.0004
 -22196268.78148 -17245348.03146
                  20768040.7974                                   20768036.6564
                                                                        51.5004
        40.7504
 -14532894.66847 -11282864.37145
                  22634652.6024                                   22634648.6844
                                                                        46.5004
        30.5004
  -7468694.45348  -5782905.26245
                  21737709.1174                                   21737704.6174
                                                                        49.0004
        33.7504
 -17299778.69148 -13433202.17246
                  22002241.4614                                   22002238.1454
                                                                        48.0004
        38.2504
  -3858101.73446  -2970858.71943
                  23727616.2664                                   23727611.2424
                                                                        40.2504
        23.0004
  -4387397.14547  -3400828.50844
                  23541009.4384                                   23541005.1764
                                                                        42.0004
        29.0004
 09 10 21  0 30  0.0000000  0  9G02G04G05G10G25G13G29G16G07
  -5475780.67248  -4238126.18046
                  21162307.5394                                   21162301.2234
                                                                        51.2504
        40.7504
   5735844.66447   4478257.88344
                  23886521.0704                                   23886517.9774
                                                                        44.0004
        27.7504
 -23978404.97348 -18620335.53546
                  21350847.9774                                   21350844.1884
                                                                        50.2504
        41.0004
 -22326654.97748 -17346947.64546
                  20743229.0554                                   20743224.8874
                                                                        51.2504
        41.0004
 -14644396.98447 -11369749.28945
                  22613434.0004                                   22613429.6724
                                                                        47.5004
        30.7504
  -7491139.97748  -5800395.38745
                  21733437.8134                                   21733433.7704
                                                                        49.0004
        33.5004
 -17390347.87948 -13503775.56646
                  21985006.7974                                   21985003.4454
                                                                        48.0004
        38.0004
  -3974637.06646  -3061665.48843
                  23705440.0164                                   23705435.3524
                                                                        40.5004
        22.0004
  -4550524.19546  -3527940.42644
                  23509967.3754                                   23509963.1564
                                                                        41.7504
        28.7504
 09 10 21  0 30 30.0000000  0  9G02G04G05G10G25G13G29G16G07
  -5491155.61348  -4250106.65246
                  21159381.4844                                   21159375.4924
                                                                        51.0004
        40.7504
   5767556.89147   4502968.69544
                  23892555.4694                                   23892552.0394
                                                                        44.5004
        27.0004
 -24126951.54348 -18736086.09046
                  21322580.6094                                   21322576.5164
                                                                        51.2504
        41.0004
 -22456506.98448 -17448131.02346
                  20718518.6174                                   20718514.8954
                                                                        52.0004
        40.5004
 -14755326.47747 -11456187.87145
                  22592324.8364                                   22592320.6954
                                                                        46.7504
        31.0004
  -7513022.79748  -5817446.99245
                  21729274.1174                                   21729269.2464
                                                                        49.0004
        33.2504
 -17480295.99247 -13573865.02046
                  21967890.1804                                   21967886.5704
                                                                        47.7504
        38.2504
  -4090585.42646  -3152014.87943
                  23683376.0634                                   23683370.9884
                                                                        39.0004
        21.5004
  -4713244.63747  -3654735.57444
                  23479002.0944                                   23478997.8204
                                                                        43.0004
        29.5004
 09 10 21  0 31  0.0000000  0  9G02G04G05G10G25G13G29G16G07
  -5506029.06648  -4261696.33246
                  21156551.3134                                   21156545.2464
                                                                        50.7504
        40.5004
   5799429.77747   4527804.64844
                  23898620.7424                                   23898617.4734
                                                                        44.5004
        25.5004
 -24275057.99248 -18851493.68446
                  21294397.0944                                   21294392.6024
                                                                        50.7504
        41.0004
 -22585824.44948 -17548897.88346
                  20693910.5084                                   20693906.6994
                                                                        52.7504
        41.2504
 -14865682.49247 -11542179.56245
                  22571324.6884                                   22571320.8594
                                                                        46.2504
        30.5004
  -7534345.45348  -5834061.90645
                  21725216.1724                                   21725211.6604
                                                                        48.5004
        33.5004
 -17569623.07048 -13643470.57446
                  21950891.6884                                   21950888.3094
                                                                        48.2504
        37.5004
  -4205945.86746  -3241906.14143
                  23661423.6724                                   23661418.3204
                                                                        39.7504
        21.5004
  -4875555.72347  -3781211.71544
                  23448115.4224                                   23448111.0164
                                                                        42.7504
        26.7504
 09 10 21  0 31 30.0000000  0  9G02G04G05G10G25G13G29G16G07
  -5520399.72748  -4272894.24246
                  21153816.3674                                   21153810.5864
                                                                        51.2504
        40.7504
   5831464.42647   4552766.68044
                  23904716.8834                                   23904713.1414
                                                                        43.0004
        25.2504
 -24422719.74248 -18966554.75046
                  21266297.6954                                   21266293.7624
                                                                        51.2504
        41.5004
 -22714603.30948 -17649245.03946
                  20669404.7974                                   20669400.8634
                                                                        52.2504
        41.0004
 -14975461.01647 -11627721.27045
                  22550434.7584                                   22550430.1484
                                                                        47.0004
        31.0004
  -7555107.76648  -5850240.31245
                  21721265.3914                                   21721260.9964
                                                                        49.5004
        33.5004
 -17658325.71148 -13712589.51646
                  21934012.3834                                   21934008.7424
                                                                        48.7504
        37.7504
  -4320714.23046  -3331336.05943
                  23639583.9384                                   23639578.7974
                                                                        40.2504
        22.0004
  -5037452.02747  -3907364.65644
                  23417307.5474                                   23417303.1454
                                                                        42.7504
        28.2504
 09 10 21  0 32  0.0000000  0  9G02G04G05G10G25G13G29G16G07
  -5534271.14148  -4283703.16846
                  21151177.1954                                   21151171.1684
                                                                        51.2504
        40.2504
   5863657.00047   4577851.76644
                  23910842.6254                                   23910840.0084
                                                                        42.0004
        25.2504
 -24569936.75448 -19081269.29746
                  21238283.1334                                   21238279.3164
                                                                        52.0004
        41.5004
 -22842843.61348 -17749172.51646
                  20645001.1334                                   20644997.6254
                                                                        52.7504
        41.0004
 -15084662.45347 -11712813.27745
                  22529654.2974                                   22529649.9494
                                                                        47.2504
        31.5004
  -7575312.98848  -5865984.69545
                  21717420.5634                                   21717415.6294
                                                                        49.2504
        33.2504
 -17746405.23848 -13781222.93746
                  21917251.4924                                   21917247.5984
                                                                        48.5004
        37.7504
  -4434890.32447  -3420304.42243
                  23617857.1724                                   23617851.7814
                                                                        42.0004
        21.5004
  -5198932.30947  -4033193.45344
                  23386579.1024                                   23386574.6764
                                                                        42.7504
        29.7504
 09 10 21  0 32 30.0000000  0  9G02G04G05G10G25G13G29G16G07
  -5547645.63348  -4294124.86746
                  21148631.8284                                   21148625.7734
                                                                        50.7504
        40.0004
   5896004.70747   4603057.71543
                  23916998.2734                                   23916995.4414
                                                                        42.7504
        23.7504
 -24716707.96148 -19195636.46946
                  21210353.4224                                   21210349.8524
                                                                        51.5004
        41.0004
 -22970544.87148 -17848679.94146
                  20620700.4844                                   20620696.3834
                                                                        52.5004
        41.2504
 -15193286.62147 -11797455.48845
                  22508983.8054                                   22508979.7424
                                                                        47.0004
        30.5004
  -7594964.37548  -5881297.48445
                  21713680.9534                                   21713676.0084
                                                                        49.5004
        33.5004
 -17833861.93048 -13849371.02046
                  21900608.8594                                   21900605.2544
                                                                        49.5004
        37.5004
  -4548474.13746  -3508811.37143
                  23596243.1414                                   23596238.1094
                                                                        41.5004
        22.5004
  -5359994.62147  -4158696.52744
                  23355929.7034                                   23355925.3244
                                                                        42.5004
        29.0004
 09 10 21  0 33  0.0000000  0  9G02G04G05G10G25G13G29G16G07
  -5560524.39848  -4304160.26246
                  21146181.4224                                   21146175.3164
                                                                        51.7504
        40.2504
   5928505.62547   4628383.06644
                  23923183.2664                                   23923180.1294
                                                                        44.0004
        26.7504
 -24863031.69548 -19309654.95346
                  21182509.0084                                   21182505.1024
                                                                        51.7504
        40.5004
 -23097705.59448 -17947766.19146
                  20596502.7274                                   20596498.7734
                                                                        52.0004
        41.0004
 -15301332.38347 -11881647.01245
                  22488423.8054                                   22488418.8794
                                                                        46.5004
        30.2504
  -7614063.70348  -5896180.09045
                  21710046.5084                                   21710042.0234
                                                                        48.7504
        32.5004
 -17920695.35948 -13917033.44946
                  21884085.1414                                   21884081.5984
                                                                        49.2504
        38.2504
  -4661464.08647  -3596855.50043
                  23574741.5704                                   23574736.4144
                                                                        42.2504
        22.7504
  -5520636.03147  -4283871.62545
                  23325361.3594                                   23325356.5824
                                                                        43.5004
        30.0004
 09 10 21  0 33 30.0000000  0  9G02G04G05G10G25G13G29G16G07
  -5572909.67248  -4313811.11346
                  21143824.3674                                   21143818.1564
                                                                        51.2504
        40.0004
   5961157.68847   4653826.19144
                  23929397.3134                                   23929394.0944
                                                                        43.2504
        26.5004
 -25008906.60948 -19423323.71146
                  21154750.0474                                   21154745.8674
                                                                        51.0004
        40.7504
 -23224324.95348 -18046430.60546
                  20572407.8284                                   20572403.8914
                                                                        52.2504
        41.0004
 -15408798.57847 -11965386.93445
                  22467973.2504                                   22467969.0124
                                                                        46.2504
        30.7504
  -7632613.35948  -5910634.40645
                  21706516.5474                                   21706512.2114
                                                                        48.2504
        33.0004
 -18006905.12148 -13984209.87946
                  21867680.3364                                   21867676.8364
                                                                        49.0004
        37.7504
  -4773858.83247  -3684435.78943
                  23553354.1724                                   23553348.1914
                                                                        42.5004
        22.0004
  -5680853.27347  -4408716.23044
                  23294872.3364                                   23294868.1644
                                                                        43.5004
        29.7504
 09 10 21  0 34  0.0000000  0  9G02G04G05G10G25G13G29G16G07
  -5584804.24648  -4323079.62546
                  21141560.8364                                   21141554.7194
                                                                        51.7504
        40.2504
   5993957.44547   4679384.44144
                  23935638.9224                                   23935635.5274
                                                                        43.2504
        28.0004
 -25154332.34048 -19536642.43746
                  21127076.7424                                   21127072.3054
                                                                        51.0004
        41.5004
 -23350403.18048 -18144673.35946
                  20548415.7424                                   20548412.1174
                                                                        52.0004
        41.0004
 -15515685.74247 -12048675.64145
                  22447633.4144                                   22447628.7034
                                                                        46.7504
        30.2504
  -7650616.63348  -5924662.96145
                  21703090.3834                                   21703086.3834
                                                                        48.5004
        32.7504
 -18092492.44148 -14050901.25046
                  21851393.3524                                   21851390.0314
                                                                        49.5004
        37.7504
  -4885658.84847  -3771552.74643
                  23532078.8054                                   23532073.7464
                                                                        42.5004
        22.7504
  -5840645.58647  -4533229.64544
                  23264465.0944                                   23264460.7544
                                                                        42.5004
        29.2504
 09 10 21  0 34 30.0000000  0  9G02G04G05G10G25G13G29G16G07
  -5596208.35948  -4331965.98046
                  21139390.7814                                   21139384.8204
                                                                        51.2504
        40.0004
   6026904.66446   4705057.53144
                  23941908.0634                                   23941905.2304
                                                                        41.2504
        26.0004
 -25299305.53948 -19649608.56246
                  21099489.0394                                   21099484.8674
                                                                        51.7504
        41.5004
 -23475936.95348 -18242491.87546
                  20524527.4224                                   20524523.8054
                                                                        51.5004
        41.0004
 -15621990.94947 -12131510.89144
                  22427403.9774                                   22427399.7464
                                                                        45.7504
        29.7504
  -7668074.05148  -5938266.10945
                  21699768.4844                                   21699764.2034
                                                                        48.2504
        32.2504
 -18177455.37948 -14117106.12946
                  21835224.7424                                   21835221.5594
                                                                        49.2504
        38.0004
  -4996860.88747  -3858203.71143
                  23510918.3364                                   23510912.6804
                                                                        42.2504
        22.2504
  -6000008.22747  -4657408.28544
                  23234139.3914                                   23234135.1644
                                                                        43.2504
        29.7504
 09 10 21  0 35  0.0000000  0  9G02G04G05G10G25G13G29G16G07
  -4031702.27048  -3112870.35546
                  21437106.4924                                   21437100.4144
                                                                        51.5004
        39.5004
   7635417.17646   5958443.77743
                  24247997.3134                                   24247995.0274
                                                                        39.0004
        22.7504
 -23868398.95348 -18534616.39146
                  21371781.4224                                   21371777.1844
                                                                        52.2504
        41.5004
 -22025500.35948 -17112281.54346
                  20800536.8204                                   20800532.2384
                                                                        52.2504
        41.2504
 -14152288.95747 -10986288.57845
                  22707079.4774                                   22707074.4534
                                                                        45.0004
        30.5004
  -6109566.73048  -4723844.81645
                  21996342.5944                                   21996338.0314
                                                                        48.7504
        32.2504
 -16686369.70748 -12955221.18746
                  22118969.3444                                   22118965.9454
                                                                        49.5004
        38.5004
  -3532039.27347  -2716784.23843
                  23789664.1644                                   23789659.3594
                                                                        42.2504
        23.2504
  -4583512.61747  -3553645.44944
                  23503689.4614                                   23503685.2194
                                                                        43.2504
        28.5004
 09 10 21  0 35 30.0000000  0  9G02G04G05G10G25G13G29G16G07
  -4042130.41848  -3120996.16046
                  21435122.0634                                   21435115.4884
                                                                        51.0004
        39.5004
   7668653.07446   5984341.76243
                  24254321.8284                                   24254319.4384
                                                                        41.0004
        22.5004
 -24012462.93448 -18646874.04746
                  21344366.9614                                   21344363.3164
                                                                        51.7504
        41.7504
 -22149942.25848 -17209249.29346
                  20776856.2734                                   20776852.1644
                                                                        51.7504
        40.5004
 -14257427.89847 -11068215.04345
                  22687071.5864                                   22687067.7854
                                                                        45.7504
        30.5004
  -6125939.63748  -4736602.87145
                  21993226.7274                                   21993222.1804
                                                                        48.0004
        32.2504
 -16770083.25048 -13020452.51246
                  22103038.9844                                   22103035.6524
                                                                        49.7504
        38.2504
  -3642042.25847  -2802500.82844
                  23768731.4304                                   23768726.9844
                                                                        42.5004
        24.5004
  -4742008.27747  -3677148.53144
                  23473528.6254                                   23473524.5784
                                                                        44.0004
        29.0004
 09 10 21  0 36  0.0000000  0  9G02G04G05G10G25G13G29G16G07
  -4052072.02348  -3128742.88746
                  21433230.0004                                   21433223.8284
                                                                        51.2504
        39.7504
   7702031.59447   6010350.91444
                  24260674.2504                                   24260670.7074
                                                                        42.5004
        24.5004
 -24156068.55548 -18758774.53946
                  21317039.7034                                   21317035.9494
                                                                        51.2504
        41.5004
 -22273835.52748 -17305789.57446
                  20753280.1724                                   20753275.9454
                                                                        52.5004
        41.0004
 -14361981.00847 -11149685.00845
                  22667175.9454                                   22667171.6134
                                                                        46.7504
        31.0004
  -6141772.53948  -4748940.19945
                  21990213.6564                                   21990209.5904
                                                                        48.5004
        32.2504
 -16853170.44148 -13085195.77346
                  22087228.2344                                   22087224.8874
                                                                        50.0004
        38.5004
  -3751442.46547  -2887747.69544
                  23747913.3914                                   23747909.0354
                                                                        42.5004
        24.5004
  -4900065.35947  -3800309.84044
                  23443451.0234                                   23443447.2154
                                                                        43.7504
        29.5004
 09 10 21  0 36 30.0000000  0  9G02G04G05G10G25G13G29G16G07
  -4061531.93448  -3136114.25446
                  21431429.6644                                   21431424.0554
                                                                        51.5004
        39.5004
   7735547.58647   6036467.21543
                  24267052.0234                                   24267048.8484
                                                                        44.5004
        23.7504
 -24299217.80948 -18870319.56647
                  21289799.6644                                   21289795.5434
                                                                        50.7504
        42.0004
 -22397181.95748 -17401903.75046
                  20729808.0554                                   20729803.6684
                                                                        52.5004
        41.0004
 -14465950.43047 -11230700.13745
                  22647391.0554                                   22647387.0274
                                                                        46.0004
        30.5004
  -6157070.78548  -4760860.90645
                  21987303.0864                                   21987298.4804
                                                                        49.2504
        32.7504
 -16935634.41448 -13149453.42246
                  22071535.8674                                   22071532.5984
                                                                        49.2504
        37.7504
  -3860242.29747  -2972526.74644
                  23727209.5394                                   23727204.8324
                                                                        42.5004
        26.0004
  -5057683.94547  -3923129.53145
                  23413457.5234                                   23413453.4264
                                                                        42.5004
        30.0004
 09 10 21  0 37  0.0000000  0  9G02G04G05G10G25G13G29G16G07
  -4070510.34048  -3143110.38746
                  21429721.3204                                   21429715.7274
                                                                        51.0004
        39.5004
   7769200.62947   6062690.32844
                  24273455.9304                                   24273453.2154
                                                                        43.7504
        26.5004
 -24441906.57848 -18981505.60246
                  21262646.5004                                   21262643.0394
                                                                        51.0004
        41.5004
 -22519978.51248 -17497589.44146
                  20706440.5554                                   20706436.6024
                                                                        53.0004
        40.7504
 -14569333.70347 -11311258.53945
                  22627718.0864                                   22627714.0514
                                                                        45.5004
        31.5004
  -6171835.23048  -4772365.70345
                  21984493.4614                                   21984488.8834
                                                                        48.5004
        32.5004
 -17017473.16448 -13213223.86746
                  22055962.6094                                   22055959.0084
                                                                        49.7504
        37.7504
  -3968438.73847  -3056835.60544
                  23706620.2504                                   23706615.4494
                                                                        42.5004
        25.0004
  -5214859.87147  -4045604.25044
                  23383548.2034                                   23383543.5124
                                                                        45.0004
        29.7504
 09 10 21  0 37 30.0000000  0  9G02G04G05G10G25G13G29G16G07
  -4079010.24248  -3149733.70346
                  21428104.1254                                   21428097.9024
                                                                        51.0004
        39.5004
   7802987.88347   6089018.02744
                  24279885.8914                                   24279883.1804
                                                                        44.0004
        25.7504
 -24584134.92648 -19092332.89846
                  21235581.5234                                   21235577.2894
                                                                        52.0004
        41.5004
 -22642225.69548 -17592847.05546
                  20683177.9384                                   20683174.0274
                                                                        52.5004
        41.2504
 -14672131.02347 -11391360.36745
                  22608156.5164                                   22608152.5044
                                                                        45.0004
        31.5004
  -6186068.62948  -4783456.68445
                  21981784.7894                                   21981780.4804
                                                                        48.5004
        32.0004
 -17098687.69548 -13276507.89846
                  22040507.9694                                   22040504.6524
                                                                        49.5004
        38.0004
  -4076031.74247  -3140674.27344
                  23686145.6644                                   23686141.0704
                                                                        43.0004
        25.0004
  -5371591.46147  -4167732.78144
                  23353723.2034                                   23353718.2034
                                                                        42.7504
        28.7504
 09 10 21  0 38  0.0000000  0  9G02G04G05G10G25G13G29G16G07
  -4087033.40248  -3155985.47746
                  21426577.2194                                   21426571.0004
                                                                        51.2504
        39.5004
   7836906.93847   6115448.40644
                  24286340.4844                                   24286337.9534
                                                                        43.0004
        27.2504
 -24725901.72748 -19202800.54746
                  21208604.1644                                   21208600.1214
                                                                        51.5004
        41.7504
 -22763921.96548 -17687675.33246
                  20660019.8594                                   20660016.1604
                                                                        52.0004
        40.5004
 -14774341.95747 -11471005.30945
                  22588706.3284                                   22588702.1644
                                                                        46.0004
        30.5004
  -6199773.71548  -4794135.95745
                  21979176.4774                                   21979171.8914
                                                                        48.0004
        32.2504
 -17179278.39148 -13339305.84046
                  22025171.9534                                   22025168.4614
                                                                        50.5004
        38.5004
  -4183020.80547  -3224042.29744
                  23665786.5474                                   23665781.7814
                                                                        42.0004
        25.0004
  -5527876.14147  -4289513.02344
                  23323983.0394                                   23323978.1844
                                                                        44.5004
        29.5004
 09 10 21  0 38 30.0000000  0  9G02G04G05G10G25G13G29G16G07
  -4094582.47748  -3161867.86746
                  21425140.5634                                   21425135.0594
                                                                        50.5004
        39.2504
   7870955.48447   6141979.78144
                  24292819.2344                                   24292816.9104
                                                                        43.2504
        25.0004
 -24867205.71148 -19312907.54347
                  21181715.1564                                   21181710.8094
                                                                        51.5004
        42.0004
 -22885067.20748 -17782074.20746
                  20636966.5944                                   20636963.0664
                                                                        52.0004
        41.0004
 -14875965.85547 -11550192.76245
                  22569367.7894                                   22569364.1294
                                                                        45.5004
        31.2504
  -6212953.26647  -4804405.72345
                  21976668.4694                                   21976664.2384
                                                                        47.7504
        32.0004
 -17259245.58648 -13401617.94546
                  22009954.7274                                   22009951.4844
                                                                        49.7504
        38.0004
  -4289405.06647  -3306939.00844
                  23645541.5164                                   23645537.4384
                                                                        42.5004
        24.0004
  -5683711.52347  -4410943.15644
                  23294328.1484                                   23294324.0004
                                                                        45.5004
        29.5004
 09 10 21  0 39  0.0000000  0  9G02G04G05G10G25G13G29G16G07
  -4101655.09448  -3167379.00446
                  21423794.8674                                   21423788.9534
                                                                        51.0004
        39.2504
   7905135.10947   6168613.17644
                  24299323.6094                                   24299321.3874
                                                                        43.0004
        24.0004
 -25008041.21948 -19422649.49646
                  21154915.0704                                   21154910.9304
                                                                        51.5004
        41.5004
 -23005656.37148 -17876039.73446
                  20614019.4144                                   20614015.2424
                                                                        52.7504
        41.0004
 -14976998.03547 -11628919.16445
                  22550142.3594                                   22550138.2934
                                                                        45.5004
        31.0004
  -6225605.62147  -4814264.69945
                  21974261.1724                                   21974256.6214
                                                                        47.2504
        31.5004
 -17338584.77748 -13463440.68046
                  21994857.1644                                   21994853.7854
                                                                        49.2504
        38.0004
  -4395179.64547  -3389360.73443
                  23625413.1724                                   23625409.0984
                                                                        42.2504
        23.2504
  -5839091.46547  -4532018.43444
                  23264759.9534                                   23264756.3404
                                                                        44.5004
        29.0004
 09 10 21  0 39 30.0000000  0  9G02G04G05G10G25G13G29G16G07
  -4108255.87948  -3172522.49646
                  21422538.8054                                   21422532.6644
                                                                        50.2504
        39.0004
   7939441.20347   6195345.12543
                  24305851.9924                                   24305849.0824
                                                                        43.0004
        22.5004
 -25148409.98048 -19532027.76247
                  21128203.5784                                   21128199.4844
                                                                        50.0004
        42.0004
 -23125691.33248 -17969573.45746
                  20591177.3834                                   20591173.2624
                                                                        52.5004
        41.2504
 -15077440.52747 -11707186.02745
                  22531028.5234                                   22531024.5554
                                                                        45.0004
        31.0004
  -6237736.01647  -4823716.94145
                  21971952.8364                                   21971948.5824
                                                                        47.5004
        32.2504
 -17417299.06647 -13524776.48446
                  21979878.2424                                   21979874.5554
                                                                        47.7504
        37.7504
  -4500346.41447  -3471308.84044
                  23605400.6094                                   23605396.5394
                                                                        42.5004
        24.7504
  -5994016.09847  -4652738.89844
                  23235279.3754                                   23235274.8134
                                                                        44.0004
        29.5004
 09 10 21  0 40  0.0000000  0  9G02G04G05G10G25G13G29G16G07
  -4114389.19148  -3177301.69146
                  21421371.4614                                   21421365.5864
                                                                        50.5004
        39.5004
   7973869.23847   6222172.14143
                  24312403.9144                                   24312399.8444
                                                                        43.0004
        21.5004
 -25288312.70748 -19641042.87947
                  21101581.1484                                   21101576.9964
                                                                        51.5004
        42.0004
 -23245173.35248 -18062676.31646
                  20568440.5704                                   20568436.6604
                                                                        52.7504
        41.2504
 -15177295.16847 -11784994.82445
                  22512027.0864                                   22512023.1724
                                                                        45.0004
        31.0004
  -6249349.56647  -4832766.50045
                  21969742.8524                                   21969738.5704
                                                                        47.7504
        33.0004
 -17495391.04748 -13585627.37546
                  21965017.7584                                   21965014.2274
                                                                        50.0004
        38.2504
  -4604906.82446  -3552784.48043
                  23585503.6024                                   23585498.9694
                                                                        41.5004
        23.7504
  -6148485.23847  -4773104.42645
                  23205884.4454                                   23205880.2154
                                                                        42.0004
        30.2504
 09 10 21  0 40 30.0000000  0  9G02G04G05G10G25G13G29G16G07
  -4120052.93748  -3181715.03146
                  21420293.9454                                   21420287.9414
                                                                        50.0004
        39.0004
   8008421.24647   6249095.73443
                  24318978.7274                                   24318975.0784
                                                                        43.5004
        22.2504
 -25427743.85548 -19749690.52746
                  21075048.2114                                   21075044.1884
                                                                        51.0004
        41.7504
 -23364097.53948 -18155344.50846
                  20545810.1724                                   20545805.9694
                                                                        52.5004
        40.7504
 -15276557.17647 -11862341.83645
                  22493138.3754                                   22493134.0434
                                                                        45.2504
        31.2504
  -6260444.32048  -4841411.73045
                  21967631.4694                                   21967627.3054
                                                                        48.0004
        32.5004
 -17572856.53548 -13645990.07446
                  21950276.4844                                   21950273.1484
                                                                        48.5004
        38.0004
  -4708856.03147  -3633783.83244
                  23565722.3364                                   23565718.2194
                                                                        42.0004
        24.7504
  -6302492.03147  -4893109.77745
                  23176578.5944                                   23176573.8554
                                                                        43.7504
        30.2504
 09 10 21  0 41  0.0000000  0  9G02G04G05G10G25G13G29G16G07
  -4125251.49248  -3185765.81246
                  21419304.7664                                   21419298.7774
                                                                        50.5004
        39.7504
   8043092.58647   6276112.26244
                  24325576.7504                                   24325573.6374
                                                                        42.0004
        26.0004
 -25566705.05948 -19857971.96946
                  21048604.9924                                   21048600.6914
                                                                        50.0004
        41.5004
 -23482465.44148 -18247579.23046
                  20523285.5634                                   20523281.4304
                                                                        52.2504
        41.7504
 -15375228.52047 -11939228.54345
                  22474361.3204                                   22474357.0004
                                                                        45.0004
        31.0004
  -6271025.15247  -4849656.48045
                  21965618.1334                                   21965613.6604
                                                                        47.2504
        32.0004
 -17649698.41848 -13705866.85946
                  21935653.5704                                   21935650.1484
                                                                        48.0004
        38.0004
  -4812195.57047  -3714308.12544
                  23546058.2424                                   23546053.1844
                                                                        42.7504
        24.7504
  -6456036.72747  -5012755.03945
                  23147359.7504                                   23147355.6914
                                                                        44.0004
        31.0004
 09 10 21  0 41 30.0000000  0  9G02G04G05G10G25G13G29G16G07
  -4129989.44948  -3189457.72746
                  21418402.8444                                   21418396.9454
                                                                        51.0004
        39.5004
   8077878.68046   6303218.07843
                  24332196.0944                                   24332193.6054
                                                                        41.2504
        22.5004
 -25705196.91848 -19965887.69546
                  21022250.5474                                   21022246.4384
                                                                        50.0004
        41.7504
 -23600278.80948 -18339381.84846
                  20500866.1644                                   20500862.4734
                                                                        51.7504
        41.0004
 -15473311.20747 -12015656.65645
                  22455697.1334                                   22455692.8324
                                                                        44.5004
        30.7504
  -6281097.19948  -4857504.85245
                  21963701.4694                                   21963697.0044
                                                                        48.0004
        31.2504
 -17725919.19148 -13765259.67646
                  21921149.4064                                   21921146.1254
                                                                        48.0004
        37.5004
  -4914927.21547  -3794358.77344
                  23526508.6414                                   23526504.0434
                                                                        42.2504
        25.0004
  -6609119.10547  -5132039.96145
                  23118229.0784                                   23118225.0864
                                                                        42.5004
        30.5004
 09 10 21  0 42  0.0000000  0  9G02G04G05G10G25G13G29G16G07
  -4134267.32448  -3192791.13746
                  21417588.9534                                   21417583.1054
                                                                        49.7504
        39.0004
   8112778.90246   6330412.95343
                  24338837.3834                                   24338835.3094
                                                                        40.7504
        23.2504
 -25843217.07048 -20073435.87946
                  20995986.4144                                   20995982.1604
                                                                        51.2504
        41.2504
 -23717535.34448 -18430750.53546
                  20478553.0004                                   20478549.1134
                                                                        52.0004
        41.7504
 -15570803.19947 -12091624.48845
                  22437145.1094                                   22437140.9264
                                                                        44.7504
        31.5004
  -6290661.34847  -4864957.37545
                  21961881.8364                                   21961876.7894
                                                                        47.2504
        31.5004
 -17801517.75448 -13824167.64546
                  21906763.6954                                   21906760.2704
                                                                        49.2504
        38.0004
  -5017049.09847  -3873934.33643
                  23507075.6954                                   23507070.8094
                                                                        42.2504
        22.5004
  -6761735.48047  -5250961.71945
                  23089187.1564                                   23089183.0664
                                                                        43.7504
        30.2504
 09 10 21  0 42 30.0000000  0  9G02G04G05G10G25G13G29G16G07
  -4138087.07448  -3195767.59046
                  21416861.9924                                   21416855.9534
                                                                        49.7504
        39.0004
   8147791.75446   6357695.57844
                  24345500.0784                                   24345497.4924
                                                                        39.5004
        24.2504
 -25980763.44948 -20180614.87146
                  20969812.1334                                   20969808.0234
                                                                        50.7504
        41.5004
 -23834233.91848 -18521684.48446
                  20456346.1884                                   20456342.4184
                                                                        52.0004
        41.7504
 -15667703.37547 -12167131.03545
                  22418705.4844                                   22418701.0314
                                                                        44.7504
        31.0004
  -6299720.05547  -4872016.05945
                  21960157.2114                                   21960152.8874
                                                                        47.0004
        30.7504
 -17876493.76248 -13882590.49246
                  21892496.0234                                   21892492.7424
                                                                        48.5004
        37.5004
  -5118559.85546  -3953033.67244
                  23487759.0634                                   23487754.0084
                                                                        41.5004
        24.5004
  -6913883.05547  -5369518.20345
                  23060235.1254                                   23060230.2704
                                                                        45.0004
        30.5004
 09 10 21  0 43  0.0000000  0  9G02G04G05G10G25G13G29G16G07
  -4141450.52348  -3198388.46546
                  21416222.0004                                   21416215.8524
                                                                        49.2504
        38.7504
   8182914.95347   6385064.37143
                  24352184.3834                                   24352181.6484
                                                                        42.0004
        22.5004
 -26117835.14848 -20287423.97746
                  20943728.1884                                   20943724.5474
                                                                        51.0004
        41.7504
 -23950373.67248 -18612182.97346
                  20434245.1884                                   20434241.3134
                                                                        52.5004
        41.0004
 -15764011.61747 -12242176.41845
                  22400378.6174                                   22400374.1334
                                                                        45.5004
        31.2504
  -6308275.92647  -4878683.00445
                  21958529.4614                                   21958524.8324
                                                                        46.0004
        30.7504
 -17950847.72348 -13940528.64146
                  21878347.4144                                   21878343.5004
                                                                        48.5004
        38.2504
  -5219458.65247  -4031656.14544
                  23468558.4534                                   23468553.4184
                                                                        42.5004
        24.5004
  -7065559.60247  -5487707.66044
                  23031371.4144                                   23031366.6994
                                                                        45.0004
        29.7504
 09 10 21  0 43 30.0000000  0  9G02G04G05G10G25G13G29G16G07
  -4144360.27348  -3200655.80946
                  21415667.8984                                   21415662.2424
                                                                        49.5004
        39.0004
   8218145.64147   6412516.94944
                  24358888.6174                                   24358885.7974
                                                                        44.0004
        24.7504
 -26254431.17248 -20393862.42246
                  20917734.8674                                   20917730.7504
                                                                        50.5004
        41.7504
 -24065954.39548 -18702245.89846
                  20412250.9924                                   20412247.0124
                                                                        51.7504
        41.0004
 -15859727.84447 -12316760.43745
                  22382164.5084                                   22382160.2894
                                                                        44.5004
        32.5004
  -6316331.81247  -4884960.30145
                  21956996.5234                                   21956991.7424
                                                                        46.5004
        31.0004
 -18024580.50847 -13997982.75446
                  21864315.9064                                   21864312.5164
                                                                        47.7504
        38.0004
  -5319745.67247  -4109801.84844
                  23449474.6414                                   23449469.7274
                                                                        43.0004
        24.0004
  -7216763.05947  -5605528.54744
                  23002598.4924                                   23002593.5434
                                                                        44.2504
        28.7504
 09 10 21  0 44  0.0000000  0  9G02G04G05G10G25G13G29G16G07
  -4146817.04348  -3202570.22746
                  21415200.6254                                   21415195.0634
                                                                        49.5004
        38.2504
   8253483.10247   6440052.64144
                  24365613.0784                                   24365610.3714
                                                                        43.2504
        24.5004
 -26390549.09848 -20499928.31646
                  20891832.5084                                   20891828.2624
                                                                        51.7504
        41.7504
 -24180973.85248 -18791871.47346
                  20390363.7274                                   20390359.8134
                                                                        52.2504
        41.2504
 -15954850.12547 -12390881.68045
                  22364063.2814                                   22364059.1134
                                                                        45.7504
        32.2504
  -6323888.86747  -4890848.89845
                  21955558.4304                                   21955553.8984
                                                                        46.5004
        31.2504
 -18097690.59048 -14054951.64846
                  21850403.7504                                   21850400.1134
                                                                        49.0004
        37.7504
  -5419418.49647  -4187469.00044
                  23430508.1564                                   23430502.6954
                                                                        42.7504
        25.0004
  -7367489.47747  -5722977.73045
                  22973916.3754                                   22973911.2234
                                                                        44.5004
        30.0004
 09 10 21  0 44 30.0000000  0  9G02G04G05G10G25G13G29G16G07
  -2573403.98448  -1976534.08646
                  21714611.1174                                   21714605.9184
                                                                        49.0004
        38.5004
   9864343.37147   7695268.59043
                  24672148.9454                                   24672145.9144
                                                                        42.5004
        22.0004
 -24950763.94548 -19378017.80547
                  21165814.5164                                   21165810.5704
                                                                        51.0004
        42.7504
 -22720008.65248 -17653457.07446
                  20668375.9924                                   20668372.1294
                                                                        52.0004
        41.0004
 -14473956.27347 -11236938.42645
                  22645867.9924                                   22645863.6884
                                                                        45.5004
        32.5004
  -4755530.80947  -3668751.71545
                  22254007.0004                                   22254002.5474
                                                                        46.0004
        31.7504
 -16594757.24648 -12883834.73846
                  22136402.6174                                   22136398.6524
                                                                        49.0004
        38.0004
  -3943054.44147  -3037055.41843
                  23711450.7194                                   23711445.2304
                                                                        43.5004
        23.5004
  -5942312.84047  -4612450.52345
                  23245117.7974                                   23245113.8094
                                                                        44.5004
        30.7504
 09 10 21  0 45  0.0000000  0  9G02G04G05G10G25G13G29G16G07
  -2574960.42648  -1977746.87546
                  21714315.4144                                   21714309.1604
                                                                        50.0004
        38.5004
   9899888.96146   7722966.57443
                  24678913.2114                                   24678910.0434
                                                                        40.7504
        21.5004
 -25085920.90648 -19483334.90247
                  21140095.0554                                   21140091.1564
                                                                        51.2504
        42.2504
 -22833902.75848 -17742205.77346
                  20646702.6254                                   20646699.1484
                                                                        52.5004
        41.0004
 -14567889.30147 -11310132.99645
                  22627992.9224                                   22627988.8444
                                                                        44.7504
        31.0004
  -4762097.64147  -3673868.73045
                  22252757.5784                                   22252753.0434
                                                                        46.5004
        31.5004
 -16666623.35948 -12939834.32446
                  22122726.5784                                   22122723.1454
                                                                        48.7504
        37.7504
  -4041497.02747  -3113763.92643
                  23692717.5004                                   23692711.9264
                                                                        43.5004
        22.7504
  -6092078.10947  -4729150.74245
                  23216618.5864                                   23216614.1804
                                                                        44.5004
        30.0004
 09 10 21  0 45 30.0000000  0  9G02G04G05G10G25G13G29G16G07
  -2576072.03148  -1978613.05946
                  21714103.6094                                   21714097.4344
                                                                        48.7504
        38.2504
   9935532.75446   7750740.93043
                  24685695.3284                                   24685692.5354
                                                                        39.5004
        21.5004
 -25220597.73448 -19588277.89847
                  21114466.7974                                   21114462.9384
                                                                        52.0004
        42.0004
 -22947235.39548 -17830516.87146
                  20625136.1724                                   20625132.5634
                                                                        51.0004
        41.0004
 -14661229.16047 -11382865.27745
                  22610231.2114                                   22610226.8554
                                                                        44.5004
        31.5004
  -4768175.46947  -3678604.69945
                  22251600.7344                                   22251596.4344
                                                                        46.5004
        31.0004
 -16737870.14548 -12995351.28546
                  22109168.9304                                   22109165.4024
                                                                        49.5004
        38.0004
  -4139326.07447  -3189994.34843
                  23674101.2584                                   23674095.9064
                                                                        43.2504
        22.5004
  -6241361.03947  -4845475.07845
                  23188210.9844                                   23188206.6524
                                                                        43.7504
        30.2504
 09 10 21  0 46  0.0000000  0  9G02G04G05G10G25G13G29G16G07
  -2576739.15648  -1979132.90246
                  21713976.5234                                   21713970.3834
                                                                        49.0004
        38.5004
   9971275.00846   7778592.05143
                  24692497.2504                                   24692494.5204
                                                                        41.0004
        22.5004
 -25354791.75848 -19692844.68447
                  21088930.6254                                   21088926.5274
                                                                        51.0004
        42.5004
 -23060004.48848 -17918388.87946
                  20603677.1564                                   20603673.1724
                                                                        52.2504
        41.5004
 -14753973.98847 -11455133.97745
                  22592582.5314                                   22592577.8834
                                                                        46.0004
        32.0004
  -4773765.03547  -3682960.16045
                  22250537.3284                                   22250532.8324
                                                                        46.0004
        31.0004
 -16808496.20348 -13050384.57446
                  22095729.0784                                   22095725.7734
                                                                        49.2504
        38.0004
  -4236539.21947  -3265744.83644
                  23655602.1024                                   23655596.4884
                                                                        43.5004
        25.7504
  -6390158.02047  -4961420.84045
                  23159895.5314                                   23159891.6644
                                                                        43.7504
        31.2504
 09 10 21  0 46 30.0000000  0  9G02G04G05G10G25G13G29G16G07
  -2576963.28948  -1979307.54746
                  21713934.2114                                   21713927.7504
                                                                        49.0004
        38.5004
  10007114.44947   7806519.00044
                  24699317.5084                                   24699314.6644
                                                                        42.2504
        24.7504
 -25488500.59448 -19797033.35947
                  21063486.5554                                   21063482.2734
                                                                        51.7504
        42.5004
 -23172208.00048 -18005820.15646
                  20582325.4614                                   20582321.1484
                                                                        51.5004
        41.0004
 -14846122.48847 -11526937.97745
                  22575047.0634                                   22575042.8714
                                                                        45.7504
        31.2504
  -4778868.28947  -3686936.72745
                  22249566.1884                                   22249561.3094
                                                                        47.0004
        31.5004
 -16878501.19548 -13104933.89846
                  22082407.8054                                   22082404.3324
                                                                        49.2504
        38.0004
  -4333134.83247  -3341014.16844
                  23637219.8444                                   23637214.8874
                                                                        43.5004
        24.0004
  -6538465.41047  -5076984.98445
                  23131673.9534                                   23131669.9304
                                                                        44.0004
        31.0004
 09 10 21  0 47  0.0000000  0  9G02G04G05G10G25G13G29G16G07
  -2576746.48048  -1979138.62146
                  21713975.1884                                   21713969.5084
                                                                        50.0004
        38.0004
  10043048.55147   7834519.71144
                  24706155.0234                                   24706152.9344
                                                                        42.0004
        25.2504
 -25621722.93448 -19900842.96947
                  21038135.1724                                   21038130.9344
                                                                        51.5004
        42.0004
 -23283845.34048 -18092810.30146
                  20561081.5864                                   20561077.5204
                                                                        52.5004
        41.5004
 -14937674.41447 -11598277.12145
                  22557625.3444                                   22557621.0004
                                                                        45.5004
        31.5004
  -4783487.62947  -3690536.25445
                  22248687.2274                                   22248682.2624
                                                                        45.2504
        31.7504
 -16947885.49648 -13158999.57446
                  22069204.4614                                   22069200.6994
                                                                        49.7504
        38.2504
  -4429112.57047  -3415802.01644
                  23618956.4304                                   23618951.5434
                                                                        43.5004
        25.0004
  -6686281.03947  -5192165.95345
                  23103545.8444                                   23103541.4414
                                                                        45.5004
        31.2504
 09 10 21  0 47 30.0000000  0  9G02G04G05G10G25G13G29G16G07
  -2576091.71548  -1978628.41446
                  21714099.9224                                   21714093.9884
                                                                        49.5004
        39.0004
  10079074.46147   7862591.98444
                  24713010.8834                                   24713007.8954
                                                                        42.7504
        26.0004
 -25754458.31648 -20004273.12947
                  21012876.2814                                   21012872.3094
                                                                        52.0004
        42.2504
 -23394917.08248 -18179359.72746
                  20539945.1804                                   20539941.4964
                                                                        52.0004
        41.5004
 -15028630.46547 -11669151.97345
                  22540317.1024                                   22540312.5944
                                                                        45.7504
        31.2504
  -4787626.94947  -3693761.69945
                  22247899.6884                                   22247894.7584
                                                                        45.7504
        30.2504
 -17016650.77048 -13212582.88746
                  22056119.0554                                   22056114.9774
                                                                        49.2504
        38.0004
  -4524472.82047  -3490108.73444
                  23600809.8594                                   23600805.2344
                                                                        43.5004
        24.5004
  -6833603.89847  -5306962.94945
                  23075511.0004                                   23075506.9024
                                                                        43.2504
        30.7504
 09 10 21  0 48  0.0000000  0  8G02G05G10G25G13G29G16G07
  -2574999.91848  -1977777.69946
                  21714308.0234                                   21714302.0394
                                                                        49.5004
        39.0004
 -25886704.99248 -20107322.47347
                  20987710.5554                                   20987706.3834
                                                                        51.5004
        42.7504
 -23505420.89148 -18265466.57046
                  20518917.1804                                   20518913.1844
                                                                        52.5004
        41.2504
 -15118989.18747 -11739561.33645
                  22523122.4224                                   22523118.2854
                                                                        45.2504
        31.0004
  -4791287.62147  -3696614.16045
                  22247202.6954                                   22247197.9574
                                                                        45.5004
        30.0004
 -17084796.05148 -13265683.08646
                  22043150.9454                                   22043147.4694
                                                                        49.2504
        37.5004
  -4619214.10247  -3563933.12544
                  23582781.6174                                   23582776.3634
                                                                        42.0004
        24.2504
  -6980430.10947  -5421372.93045
                  23047570.9694                                   23047566.5514
                                                                        44.0004
        32.2504
 09 10 21  0 48 30.0000000  0  8G02G05G10G25G13G29G16G07
  -2573473.69148  -1976588.45746
                  21714598.5164                                   21714592.1684
                                                                        49.0004
        39.0004
 -26018461.85948 -20209990.14847
                  20962638.3284                                   20962634.0514
                                                                        52.5004
        42.2504
 -23615356.99248 -18351131.04746
                  20497997.0554                                   20497993.2974
                                                                        53.0004
        41.0004
 -15208750.60547 -11809505.32445
                  22506041.0634                                   22506036.7704
                                                                        46.2504
        31.5004
  -4794472.37947  -3699095.78144
                  22246596.7814                                   22246592.2424
                                                                        46.2504
        29.5004
 -17152322.17648 -13318300.84446
                  22030301.2344                                   22030297.6604
                                                                        49.2504
        38.0004
  -4713336.27747  -3637275.07044
                  23564870.7424                                   23564866.1174
                                                                        43.0004
        24.7504
  -7126758.20347  -5535394.75445
                  23019725.7344                                   23019721.2894
                                                                        44.5004
        31.7504
 09 10 21  0 49  0.0000000  0  8G02G05G10G25G13G29G16G07
  -2571513.88748  -1975061.34046
                  21714971.1644                                   21714965.4414
                                                                        48.7504
        38.0004
 -26149726.62948 -20312274.39147
                  20937659.3674                                   20937654.9344
                                                                        51.0004
        42.7504
 -23724723.25048 -18436351.49646
                  20477185.5004                                   20477181.4884
                                                                        52.5004
        41.0004
 -15297913.17647 -11878982.64545
                  22489073.6884                                   22489069.4264
                                                                        44.7504
        31.5004
  -4797182.71547  -3701207.77345
                  22246081.2734                                   22246076.3094
                                                                        46.2504
        30.0004
 -17219228.81648 -13370435.88346
                  22017569.3204                                   22017565.6684
                                                                        49.5004
        37.0004
  -4806837.53547  -3710133.21544
                  23547077.8204                                   23547073.2584
                                                                        42.0004
        26.0004
  -7272584.13347  -5649025.26245
                  22991975.8524                                   22991971.2544
                                                                        45.0004
        31.2504
 09 10 21  0 49 30.0000000  0  8G02G05G10G25G13G29G16G07
  -2569120.83648  -1973196.63346
                  21715426.7584                                   21715420.3094
                                                                        49.5004
        38.0004
 -26280495.81648 -20414172.46147
                  20912774.5944                                   20912770.5274
                                                                        52.7504
        42.5004
 -23833517.44948 -18521126.20346
                  20456482.6884                                   20456478.3554
                                                                        52.5004
        41.7504
 -15386474.72347 -11947991.60945
                  22472221.4844                                   22472216.7154
                                                                        45.2504
        32.2504
  -4799419.24647  -3702950.54345
                  22245655.1484                                   22245651.0004
                                                                        46.0004
        30.5004
 -17285514.02348 -13422086.66446
                  22004955.5314                                   22004952.4264
                                                                        49.5004
        37.5004
  -4899715.29347  -3782505.50843
                  23529403.5634                                   23529399.1844
                                                                        42.0004
        23.7504
  -7417903.79347  -5762261.32845
                  22964322.3524                                   22964317.3364
                                                                        44.0004
        30.7504
 09 10 21  0 50  0.0000000  0  8G02G05G10G25G13G29G16G07
  -2566296.89148  -1970996.15646
                  21715963.5314                                   21715957.6294
                                                                        49.0004
        37.5004
 -26410768.62948 -20515683.72747
                  20887984.6414                                   20887980.6764
                                                                        51.5004
        42.5004
 -23941739.09448 -18605454.72346
                  20435888.7274                                   20435884.6644
                                                                        52.0004
        41.5004
 -15474435.70347 -12016532.62545
                  22455482.7344                                   22455478.4574
                                                                        45.5004
        32.0004
  -4801185.02747  -3704326.46545
                  22245319.5164                                   22245314.9384
                                                                        46.0004
        30.5004
 -17351179.22748 -13473254.35946
                  21992460.2034                                   21992456.7664
                                                                        49.2504
        38.5004
  -4991970.30146  -3854392.49644
                  23511848.2584                                   23511843.6294
                                                                        41.0004
        24.0004
  -7562715.48447  -5875101.57045
                  22936765.2424                                   22936760.8204
                                                                        45.0004
        30.5004
 09 10 21  0 50 30.0000000  0  8G02G05G10G25G13G29G16G07
  -2563045.00448  -1968462.23046
                  21716582.7664                                   21716577.0704
                                                                        49.5004
        38.0004
 -26540545.21548 -20616808.31647
                  20863289.0004                                   20863284.7854
                                                                        52.0004
        42.2504
 -24049388.30948 -18689337.22746
                  20415403.6414                                   20415399.8874
                                                                        52.5004
        41.5004
 -15561796.62547 -12084606.05545
                  22438858.6414                                   22438854.0474
                                                                        45.7504
        31.0004
  -4802483.27347  -3705338.11345
                  22245072.4064                                   22245068.0044
                                                                        45.7504
        30.2504
 -17416225.72348 -13523939.93746
                  21980082.0234                                   21980078.9344
                                                                        49.7504
        37.5004
  -5083602.53547  -3925794.20744
                  23494410.8834                                   23494406.3914
                                                                        42.0004
        24.7504
  -7707017.70347  -5987544.81245
                  22909305.7504                                   22909300.6844
                                                                        44.2504
        30.7504
 09 10 21  0 51  0.0000000  0  8G02G05G10G25G13G29G16G07
  -2559370.33648  -1965598.88346
                  21717282.0004                                   21717276.0314
                                                                        49.5004
        38.0004
 -26669826.66448 -20717547.09047
                  20838687.5864                                   20838683.2034
                                                                        52.5004
        42.5004
 -24156467.06648 -18772775.20746
                  20395027.0864                                   20395023.1564
                                                                        52.2504
        41.2504
 -15648560.18047 -12152214.04345
                  22422347.8364                                   22422343.6564
                                                                        45.5004
        31.7504
  -4803319.87547  -3705990.05545
                  22244913.0634                                   22244909.0354
                                                                        45.5004
        30.2504
 -17480656.75448 -13574145.94546
                  21967821.4844                                   21967817.8204
                                                                        49.2504
        37.5004
  -5174614.51646  -3996712.61343
                  23477091.8594                                   23477087.4614
                                                                        41.5004
        22.7504
  -7850810.96147  -6099591.51645
                  22881942.8284                                   22881938.1954
                                                                        44.7504
        30.7504
 09 10 21  0 51 30.0000000  0  8G02G05G10G25G13G29G16G07
  -2555276.95748  -1962409.25446
                  21718060.7734                                   21718054.6214
                                                                        48.5004
        38.0004
 -26798614.17648 -20817900.97747
                  20814179.8834                                   20814175.8794
                                                                        52.5004
        43.0004
 -24262976.98848 -18855769.87146
                  20374758.6024                                   20374755.0274
                                                                        52.2504
        40.7504
 -15734728.07047 -12219357.88745
                  22405950.5084                                   22405946.3244
                                                                        45.5004
        30.7504
  -4803699.69547  -3706286.02345
                  22244841.0234                                   22244836.7504
                                                                        44.5004
        30.0004
 -17544474.84448 -13623874.29346
                  21955677.2274                                   21955673.6134
                                                                        49.5004
        37.5004
  -5265007.92247  -4067149.00043
                  23459891.0084                                   23459885.9024
                                                                        42.5004
        23.5004
  -7994094.96547  -6211241.28945
                  22854676.2114                                   22854671.6374
                                                                        44.5004
        30.5004
 09 10 21  0 52  0.0000000  0  8G02G05G10G25G13G29G16G07
  -2550765.47748  -1958893.83246
                  21718919.3674                                   21718913.3674
                                                                        49.7504
        38.0004
 -26926904.77748 -20917867.66447
                  20789767.3914                                   20789762.9104
                                                                        52.0004
        43.0004
 -24368916.69948 -18938320.26246
                  20354599.1884                                   20354595.4654
                                                                        52.0004
        41.0004
 -15820298.87147 -12286036.40645
                  22389667.0164                                   22389663.2704
                                                                        45.5004
        30.7504
  -4803623.46547  -3706226.61344
                  22244855.5314                                   22244850.8204
                                                                        44.7504
        29.7504
 -17607679.78948 -13673124.90246
                  21943649.5784                                   21943645.8364
                                                                        49.7504
        38.0004
  -5354781.35547  -4137102.35943
                  23442806.8204                                   23442802.4654
                                                                        42.0004
        23.7504
  -8136866.41047  -6322491.74245
                  22827508.4454                                   22827503.1454
                                                                        45.2504
        30.5004
 09 10 21  0 52 30.0000000  0  8G02G05G10G25G13G29G16G07
  -2545839.93748  -1955055.78146
                  21719856.8674                                   21719850.9654
                                                                        48.7504
        38.0004
 -27054699.34848 -21017447.84446
                  20765448.4614                                   20765444.4224
                                                                        52.2504
        41.7504
 -24474287.11348 -19020427.05946
                  20334547.8674                                   20334544.0314
                                                                        52.5004
        41.0004
 -15905274.12947 -12352250.89145
                  22373496.7734                                   22373492.9884
                                                                        45.5004
        31.5004
  -4803095.98447  -3705815.55544
                  22244955.5314                                   22244951.1414
                                                                        44.0004
        28.7504
 -17670273.68448 -13721899.35546
                  21931738.3754                                   21931735.1884
                                                                        49.7504
        37.7504
  -5443936.07046  -4206573.57444
                  23425841.9064                                   23425837.5044
                                                                        41.2504
        25.7504
  -8279124.66047  -6433342.27345
                  22800436.9304                                   22800432.6684
                                                                        46.0004
        32.2504
 09 10 21  0 53  0.0000000  0  8G02G05G10G25G13G29G16G07
  -2540499.61348  -1950894.53146
                  21720873.0474                                   21720867.0824
                                                                        48.7504
        37.5004
 -27181993.36348 -21116637.94147
                  20741225.4614                                   20741221.0124
                                                                        52.0004
        42.7504
 -24579084.96148 -19102087.76646
                  20314605.4144                                   20314601.3134
                                                                        52.5004
        41.0004
 -15989651.03547 -12417999.14145
                  22357440.6954                                   22357436.1644
                                                                        45.2504
        31.0004
  -4802115.74247  -3705051.77745
                  22245142.7424                                   22245137.4454
                                                                        45.5004
        30.0004
 -17732254.03948 -13770195.72346
                  21919943.9304                                   21919940.7504
                                                                        50.0004
        38.0004
  -5532468.81246  -4275560.16043
                  23408994.4534                                   23408990.0394
                                                                        41.5004
        23.0004
  -8420864.46147  -6543788.84045
                  22773465.1564                                   22773460.4844
                                                                        46.0004
        31.2504
 09 10 21  0 53 30.0000000  0  8G02G05G10G25G13G29G16G07
  -2534748.02348  -1946412.82046
                  21721967.3754                                   21721961.5354
                                                                        48.2504
        37.5004
 -27308787.67648 -21215438.73047
                  20717097.4534                                   20717093.3284
                                                                        52.0004
        42.5004
 -24683310.47748 -19183302.44946
                  20294772.0004                                   20294768.2074
                                                                        52.0004
        40.7504
 -16073430.61347 -12483281.92245
                  22341497.8754                                   22341493.5084
                                                                        44.0004
        30.7504
  -4800688.11747  -3703939.29745
                  22245413.7664                                   22245409.1724
                                                                        44.7504
        30.2504
 -17793622.85948 -13818015.56646
                  21908265.9384                                   21908262.1804
                                                                        49.5004
        38.0004
  -5620380.62546  -4344062.96944
                  23392265.7424                                   23392261.0474
                                                                        40.7504
        25.0004
  -8562084.88347  -6653830.68045
                  22746591.4924                                   22746586.8874
                                                                        44.5004
        31.2504
 09 10 21  0 54  0.0000000  0  8G02G05G10G25G13G29G16G07
  -2528588.02748  -1941612.84846
                  21723139.7274                                   21723134.1684
                                                                        48.5004
        37.5004
 -27435081.51648 -21313849.51647
                  20693064.1884                                   20693059.9734
                                                                        52.5004
        42.2504
 -24786964.02348 -19264071.47746
                  20275047.3594                                   20275043.3984
                                                                        52.2504
        41.0004
 -16156613.63747 -12548099.87545
                  22325668.7034                                   22325664.0554
                                                                        45.5004
        31.2504
  -4798815.89847  -3702480.40244
                  22245770.2814                                   22245765.5784
                                                                        44.5004
        29.2504
 -17854381.89148 -13865360.25446
                  21896703.6024                                   21896700.2194
                                                                        49.5004
        38.0004
  -5707672.22346  -4412082.55944
                  23375654.0474                                   23375649.3834
                                                                        40.5004
        24.5004
  -8702784.47747  -6763466.69145
                  22719817.1644                                   22719812.8754
                                                                        44.5004
        32.0004
 09 10 21  0 54 30.0000000  0  8G02G05G10G25G13G29G16G07
   -946606.36748   -708899.85246
                  22024180.8594                                   22024174.7814
                                                                        48.5004
        37.2504
 -25985454.24648 -20184269.83247
                  20968918.9694                                   20968915.1334
                                                                        52.2504
        42.7504
 -23314626.23048 -18116795.25446
                  20555223.9924                                   20555220.1844
                                                                        52.0004
        41.5004
 -14663781.71547 -11384854.21145
                  22609744.7974                                   22609740.7234
                                                                        45.7504
        30.7504
  -3221086.40647  -2473080.84844
                  22546002.3984                                   22545997.5004
                                                                        45.0004
        28.7504
 -16339114.30548 -12684632.26246
                  22185049.5784                                   22185046.1884
                                                                        49.5004
        38.7504
  -4218924.87946  -3252019.84844
                  23658954.6884                                   23658949.5004
                                                                        41.7504
        25.2504
  -7267541.06247  -5645095.21545
                  22992935.1174                                   22992930.5394
                                                                        45.2504
        32.0004
 09 10 21  0 55  0.0000000  0  8G02G05G10G25G13G29G16G07
   -939639.63748   -703471.27346
                  22025506.7114                                   22025500.5594
                                                                        48.7504
        38.0004
 -26110747.76648 -20281901.12947
                  20945076.3914                                   20945072.4734
                                                                        53.0004
        42.2504
 -23417138.16048 -18196674.68746
                  20535716.8134                                   20535712.9224
                                                                        52.2504
        41.7504
 -14745775.08247 -11448745.16045
                  22594142.3204                                   22594137.5864
                                                                        44.5004
        31.0004
  -3218336.78547  -2470938.30544
                  22546525.3444                                   22546521.0314
                                                                        44.5004
        29.2504
 -16398659.25448 -12731030.93446
                  22173718.2974                                   22173715.2704
                                                                        49.7504
        37.7504
  -4304978.52746  -3319074.68044
                  23642578.0784                                   23642573.8244
                                                                        40.7504
        25.0004
  -7407196.87947  -5753917.83645
                  22966359.4384                                   22966354.9774
                                                                        46.0004
        32.0004
 09 10 21  0 55 30.0000000  0  8G02G05G10G25G13G29G16G07
   -932269.01648   -697727.98846
                  22026909.1724                                   22026903.3874
                                                                        48.2504
        37.2504
 -26235535.24648 -20379138.12147
                  20921330.1804                                   20921326.3554
                                                                        52.5004
        42.5004
 -23519074.39548 -18276105.51246
                  20516318.8674                                   20516314.9924
                                                                        52.5004
        41.0004
 -14827169.60547 -11512169.45745
                  22578653.3524                                   22578648.8874
                                                                        44.7504
        30.5004
  -3215148.65247  -2468454.05944
                  22547132.2584                                   22547127.5084
                                                                        45.2504
        29.2504
 -16457594.44948 -12776954.45346
                  22162503.6484                                   22162500.2704
                                                                        49.5004
        38.2504
  -4390408.96146  -3385643.88744
                  23626321.3284                                   23626317.2114
                                                                        40.7504
        26.0004
  -7546323.01247  -5862327.78545
                  22939884.0864                                   22939879.3914
                                                                        45.5004
        31.0004
 09 10 21  0 56  0.0000000  0  8G02G05G10G25G13G29G16G07
   -924494.09847   -691669.63346
                  22028388.9454                                   22028383.1684
                                                                        47.7504
        37.2504
 -26359813.24648 -20475978.07447
                  20897681.1724                                   20897677.2464
                                                                        52.5004
        42.5004
 -23620432.20348 -18355085.59046
                  20497031.0314                                   20497027.2664
                                                                        52.2504
        41.5004
 -14907962.96547 -11575125.31645
                  22563278.8284                                   22563274.4454
                                                                        45.7504
        30.7504
  -3211521.95347  -2465628.08244
                  22547822.2034                                   22547817.9694
                                                                        44.2504
        29.5004
 -16515918.16448 -12822401.50046
                  22151404.8914                                   22151401.4414
                                                                        49.2504
        37.2504
  -4475213.84846  -3451725.63744
                  23610183.6414                                   23610179.4964
                                                                        40.5004
        24.2504
  -7684915.21947  -5970321.67645
                  22913511.2664                                   22913506.6914
                                                                        46.0004
        31.7504
 09 10 21  0 56 30.0000000  0  8G02G05G10G25G13G29G16G07
   -916319.26648   -685299.64146
                  22029944.4304                                   22029938.6134
                                                                        48.5004
        37.2504
 -26483582.80148 -20572421.87947
                  20874128.2424                                   20874123.8984
                                                                        52.5004
        42.5004
 -23721213.26648 -18433616.28146
                  20477853.1484                                   20477849.3204
                                                                        52.5004
        41.0004
 -14988157.32447 -11637614.41445
                  22548017.9774                                   22548014.1454
                                                                        44.0004
        31.7504
  -3207461.14147  -2462463.82844
                  22548595.1094                                   22548591.0354
                                                                        43.7504
        28.7504
 -16573633.25448 -12867374.27746
                  22140422.3984                                   22140418.3554
                                                                        49.2504
        37.7504
  -4559395.27046  -3517321.60244
                  23594164.6564                                   23594160.1604
                                                                        41.5004
        24.5004
  -7822973.52047  -6077899.57445
                  22887239.2584                                   22887234.9264
                                                                        45.5004
        32.2504
 09 10 21  0 57  0.0000000  0  8G02G05G10G25G13G29G16G07
   -907750.49647   -678622.73046
                  22031575.1254                                   22031569.1454
                                                                        47.7504
        37.5004
 -26606846.73848 -20668471.68047
                  20850671.8834                                   20850668.3164
                                                                        52.2504
        43.0004
 -23821421.18048 -18511700.38746
                  20458784.2424                                   20458780.5274
                                                                        51.7504
        40.7504
 -15067756.56247 -11699639.80545
                  22532871.3204                                   22532867.2344
                                                                        43.7504
        31.2504
  -3202973.58647  -2458967.04344
                  22549449.1334                                   22549445.1254
                                                                        43.7504
        29.2504
 -16630744.59848 -12911876.62546
                  22129554.0554                                   22129550.4614
                                                                        49.2504
        38.0004
  -4642956.67246  -3582434.37144
                  23578263.4614                                   23578258.8914
                                                                        40.7504
        24.2504
  -7960499.65647  -6185062.83245
                  22861069.0554                                   22861064.5164
                                                                        45.7504
        31.7504
 09 10 21  0 57 30.0000000  0  8G02G05G10G25G13G29G16G07
   -898786.58248   -671637.82846
                  22033280.4454                                   22033274.6094
                                                                        48.5004
        36.7504
 -26729600.49648 -20764123.96147
                  20827312.5554                                   20827308.8714
                                                                        52.2504
        42.5004
 -23921052.15248 -18589334.89846
                  20439825.1804                                   20439821.1214
                                                                        52.2504
        41.0004
 -15146757.46547 -11761198.93745
                  22517838.0164                                   22517833.4924
                                                                        45.2504
        31.5004
  -3198057.44947  -2455136.23844
                  22550384.3444                                   22550379.9104
                                                                        43.7504
        28.5004
 -16687249.68748 -12955906.55146
                  22118801.6174                                   22118797.9024
                                                                        49.0004
        38.0004
  -4725895.01246  -3647061.67644
                  23562481.1094                                   23562476.3014
                                                                        41.2504
        24.5004
  -8097488.23047  -6291807.18745
                  22835001.2034                                   22834996.4884
                                                                        46.2504
        32.0004
 09 10 21  0 58  0.0000000  0  8G02G05G10G25G13G29G16G07
   -889429.42248   -664346.58646
                  22035061.5784                                   22035055.6684
                                                                        48.0004
        37.5004
 -26851842.31648 -20859377.29747
                  20804051.0004                                   20804047.1914
                                                                        52.0004
        43.0004
 -24020105.21548 -18666519.04746
                  20420976.0164                                   20420971.8674
                                                                        52.5004
        41.5004
 -15225159.40647 -11822291.36345
                  22502918.5864                                   22502914.2974
                                                                        45.0004
        31.7504
  -3192716.43047  -2450974.39844
                  22551400.7664                                   22551396.0864
                                                                        44.5004
        29.2504
 -16743148.50448 -12999464.06246
                  22108164.2664                                   22108160.8404
                                                                        49.0004
        37.7504
  -4808209.31646  -3711202.70344
                  23546816.6804                                   23546812.6484
                                                                        41.5004
        25.2504
  -8233936.62947  -6398130.61345
                  22809036.1644                                   22809031.1884
                                                                        46.0004
        32.2504
 09 10 21  0 58 30.0000000  0  8G02G05G10G25G13G29G16G07
   -879680.73848   -656750.19546
                  22036916.5554                                   22036910.5354
                                                                        49.0004
        37.0004
 -26973571.39848 -20954231.09447
                  20780886.8834                                   20780882.7584
                                                                        52.2504
        42.7504
 -24118579.25848 -18743251.99646
                  20402236.7504                                   20402232.7114
                                                                        52.7504
        41.0004
 -15302962.36347 -11882917.06645
                  22488113.3204                                   22488109.1954
                                                                        45.7504
        31.7504
  -3186951.40647  -2446482.16044
                  22552497.5944                                   22552493.3094
                                                                        44.5004
        29.0004
 -16798441.98048 -13042549.88346
                  22097642.3984                                   22097638.7234
                                                                        48.5004
        37.7504
  -4889899.43746  -3774857.35244
                  23531272.2344                                   23531267.3754
                                                                        41.7504
        25.0004
  -8369842.21147  -6504031.10245
                  22783174.2974                                   22783169.3134
                                                                        46.2504
        32.2504
 09 10 21  0 59  0.0000000  0  8G02G05G10G25G13G29G16G07
   -869539.44148   -648847.85946
                  22038846.3524                                   22038840.4104
                                                                        48.5004
        36.2504
 -27094783.00048 -21048681.66047
                  20757821.0394                                   20757817.2504
                                                                        53.5004
        42.7504
 -24216471.20348 -18819531.42246
                  20383608.4924                                   20383604.6094
                                                                        53.0004
        41.0004
 -15380163.24647 -11943073.61345
                  22473422.2734                                   22473418.0394
                                                                        44.5004
        31.2504
  -3180762.48447  -2441659.58644
                  22553675.4064                                   22553671.0004
                                                                        44.7504
        28.0004
 -16853127.66448 -13085162.09046
                  22087236.3594                                   22087232.5514
                                                                        49.0004
        37.7504
  -4970962.05147  -3838023.02744
                  23515845.9924                                   23515841.5784
                                                                        42.5004
        25.7504
  -8505199.77747  -6609504.51245
                  22757416.1954                                   22757411.7704
                                                                        46.0004
        32.2504
 09 10 21  0 59 30.0000000  0  8G02G05G10G25G13G29G16G07
   -859011.76648   -640644.53146
                  22040849.6254                                   22040844.0704
                                                                        48.5004
        36.5004
 -27215479.96948 -21142731.21947
                  20734853.0394                                   20734849.1954
                                                                        52.5004
        43.0004
 -24313784.55148 -18895360.01246
                  20365090.6804                                   20365086.7854
                                                                        53.0004
        41.2504
 -15456766.00047 -12002764.10245
                  22458845.0234                                   22458841.2114
                                                                        46.0004
        30.7504
  -3174156.13747  -2436511.78944
                  22554932.4614                                   22554928.3404
                                                                        43.5004
        28.2504
 -16907210.27048 -13127304.37946
                  22076944.6254                                   22076941.2704
                                                                        48.7504
        37.7504
  -5051400.85947  -3900702.55944
                  23500539.3834                                   23500534.7234
                                                                        42.5004
        25.7504
  -8640011.27047  -6714552.46145
                  22731762.4844                                   22731757.9064
                                                                        46.7504
        31.5004
 09 10 21  1  0  0.0000000  0  8G02G05G10G25G13G29G16G07
   -848099.73848   -632141.66046
                  22042926.3204                                   22042920.4304
                                                                        48.5004
        36.7504
 -27335661.26248 -21236378.96947
                  20711983.0084                                   20711979.3554
                                                                        52.2504
        42.5004
 -24410518.37148 -18970737.04346
                  20346682.6414                                   20346678.4614
                                                                        53.0004
        41.5004
 -15532770.58647 -12061988.43045
                  22444382.5784                                   22444377.5864
                                                                        45.5004
        31.7504
  -3167134.83247  -2431040.63744
                  22556268.9454                                   22556264.2384
                                                                        44.5004
        28.5004
 -16960690.81648 -13168977.52746
                  22066767.5634                                   22066763.9344
                                                                        49.0004
        37.2504
  -5131216.18746  -3962896.30944
                  23485350.5004                                   23485346.5004
                                                                        41.7504
        25.5004
  -8774274.39547  -6819173.07445
                  22706213.0474                                   22706208.6414
                                                                        47.0004
        32.5004
 09 10 21  1  0 30.0000000  0  8G02G05G10G25G13G29G16G07
   -836806.79748   -623341.95746
                  22045075.3674                                   22045069.4494
                                                                        48.0004
        36.7504
 -27455326.85248 -21329624.83647
                  20689211.5164                                   20689207.6524
                                                                        52.5004
        43.0004
 -24506673.99248 -19045663.49646
                  20328384.9224                                   20328380.6604
                                                                        52.2504
        41.7504
 -15608178.47747 -12120747.74245
                  22430031.8674                                   22430028.0004
                                                                        45.0004
        31.7504
  -3159702.88347  -2425249.50044
                  22557682.8204                                   22557678.4304
                                                                        45.0004
        28.2504
 -17013571.31647 -13210183.10246
                  22056704.6954                                   22056700.9574
                                                                        47.7504
        38.2504
  -5210409.10246  -4024604.99244
                  23470281.3284                                   23470276.5434
                                                                        41.7504
        26.0004
  -8907988.64147  -6923365.99645
                  22680768.1724                                   22680763.7624
                                                                        46.0004
        32.2504
 09 10 21  1  1  0.0000000  0  8G02G05G10G25G13G29G16G07
   -825135.93448   -614247.74646
                  22047296.1804                                   22047290.2774
                                                                        48.7504
        36.2504
 -27574477.29748 -21422469.37147
                  20666537.9304                                   20666533.5984
                                                                        52.0004
        42.5004
 -24602251.61348 -19120139.57846
                  20310197.0394                                   20310193.3204
                                                                        52.0004
        41.5004
 -15682991.03147 -12179043.23845
                  22415795.9844                                   22415791.6884
                                                                        45.7504
        31.2504
  -3151863.04747  -2419140.52744
                  22559175.1174                                   22559170.1724
                                                                        45.7504
        27.7504
 -17065853.69148 -13250922.59846
                  22046755.9144                                   22046751.9184
                                                                        48.5004
        37.5004
  -5288981.00447  -4085829.82843
                  23455328.9924                                   23455324.8984
                                                                        42.5004
        23.7504
  -9041152.59847  -7027130.11745
                  22655427.9924                                   22655423.1914
                                                                        46.5004
        32.5004
 09 10 21  1  1 30.0000000  0  8G02G05G10G25G13G29G16G07
   -813087.19548   -604859.10246
                  22049588.9924                                   22049583.0594
                                                                        49.0004
        36.5004
 -27693108.62148 -21514909.40247
                  20643963.2664                                   20643958.8364
                                                                        52.0004
        42.2504
 -24697248.39848 -19194163.05946
                  20292119.5634                                   20292115.7424
                                                                        51.7504
        41.7504
 -15757205.59047 -12236872.77745
                  22401673.6254                                   22401669.2584
                                                                        46.0004
        31.7504
  -3143615.60247  -2412713.98044
                  22560744.3754                                   22560739.9774
                                                                        45.0004
        28.0004
 -17117536.39848 -13291194.83646
                  22036920.8984                                   22036917.3794
                                                                        48.2504
        37.5004
  -5366928.78946  -4146568.32844
                  23440495.8834                                   23440491.7544
                                                                        41.5004
        24.5004
  -9173762.07047  -7130462.12945
                  22630192.6884                                   22630188.3674
                                                                        46.0004
        32.0004
 09 10 21  1  2  0.0000000  0  8G02G05G10G25G13G29G16G07
   -800660.85948   -595176.26646
                  22051953.8754                                   22051947.6484
                                                                        48.2504
        36.5004
 -27811217.99648 -21606942.80947
                  20621487.8834                                   20621483.5044
                                                                        52.0004
        42.2504
 -24791662.40648 -19267732.42647
                  20274153.0784                                   20274149.2114
                                                                        53.0004
        42.0004
 -15830820.77747 -12294235.26645
                  22387665.0474                                   22387660.8324
                                                                        46.5004
        31.0004
  -3134962.33247  -2405971.17644
                  22562391.4304                                   22562386.8204
                                                                        45.0004
        29.2504
 -17168618.68748 -13330999.20746
                  22027200.2034                                   22027196.8244
                                                                        48.7504
        37.5004
  -5444251.19547  -4206819.60244
                  23425782.4454                                   23425777.8094
                                                                        42.0004
        26.5004
  -9305813.12547  -7233359.05545
                  22605064.4774                                   22605060.3674
                                                                        47.0004
        32.5004
 09 10 21  1  2 30.0000000  0  8G02G05G10G25G13G29G16G07
   -787863.79347   -585204.55546
                  22054388.5944                                   22054382.6914
                                                                        47.5004
        36.5004
 -27928808.79348 -21698572.03547
                  20599111.0634                                   20599106.9694
                                                                        52.0004
        43.2504
 -24885497.74248 -19340850.82446
                  20256297.0394                                   20256292.9184
                                                                        52.0004
        41.5004
 -15903841.57447 -12351134.62545
                  22373769.7584                                   22373765.4804
                                                                        46.2504
        31.7504
  -3125910.01647  -2398917.43444
                  22564113.8054                                   22564109.5004
                                                                        44.0004
        28.2504
 -17219106.15248 -13370340.08646
                  22017592.9064                                   22017589.2584
                                                                        48.5004
        37.2504
  -5520952.74647  -4266587.08644
                  23411186.4454                                   23411182.2194
                                                                        42.5004
        24.5004
  -9437308.49247  -7335822.96945
                  22580041.8524                                   22580037.2504
                                                                        46.5004
        32.7504
 09 10 21  1  3  0.0000000  0  8G02G05G10G25G13G29G16G07
   -774694.25848   -574942.65246
                  22056894.9064                                   22056888.9224
                                                                        48.0004
        36.7504
 -28045876.03548 -21789793.25847
                  20576833.8674                                   20576830.1214
                                                                        52.5004
        43.0004
 -24978750.41048 -19413515.22746
                  20238551.5944                                   20238547.5004
                                                                        52.5004
        41.5004
 -15976263.93747 -12407567.63345
                  22359988.0394                                   22359983.5004
                                                                        46.7504
        31.5004
  -3116456.10547  -2391550.76644
                  22565912.3984                                   22565908.0514
                                                                        44.5004
        27.2504
 -17268995.52747 -13409214.89846
                  22008098.9694                                   22008095.1254
                                                                        47.5004
        36.5004
  -5597029.57847  -4325867.77744
                  23396709.5864                                   23396705.1884
                                                                        42.0004
        26.5004
  -9568241.81247  -7437848.90645
                  22555126.3134                                   22555121.5664
                                                                        46.7504
        32.7504
 09 10 21  1  3 30.0000000  0  8G02G05G10G25G13G29G16G07
   -761153.57848   -564391.55546
                  22059471.7894                                   22059465.7074
                                                                        48.5004
        36.5004
 -28162418.25048 -21880605.36347
                  20554656.8134                                   20554652.4804
                                                                        52.0004
        43.0004
 -25071419.31248 -19485724.74246
                  20220917.3834                                   20220913.7304
                                                                        52.2504
        40.7504
 -16048087.74247 -12463534.27045
                  22346320.5474                                   22346316.3324
                                                                        45.7504
        31.5004
  -3106603.87147  -2383873.70344
                  22567787.7194                                   22567782.5904
                                                                        43.7504
        27.0004
 -17318287.71947 -13447624.38346
                  21998719.1024                                   21998715.1254
                                                                        47.2504
        37.5004
  -5672481.36347  -4384661.34844
                  23382351.7504                                   23382347.4024
                                                                        42.0004
        25.5004
  -9698611.03147  -7539435.30945
                  22530317.8524                                   22530313.0204
                                                                        46.5004
        32.2504
 09 10 21  1  4  0.0000000  0  8G02G05G10G25G13G29G16G07
    828172.41448    674044.22746
                  22361910.3754                                   22361904.4614
                                                                        48.2504
        36.5004
 -26703013.40248 -20743406.75447
                  20832372.4064                                   20832367.8554
                                                                        52.7504
        43.0004
 -23588084.23048 -18329879.20346
                  20503186.7894                                   20503182.6334
                                                                        52.0004
        41.2504
 -14543893.96547 -11291435.23445
                  22632559.0234                                   22632554.9574
                                                                        45.7504
        31.7504
  -1520939.18047  -1148290.79744
                  22869529.4844                                   22869525.0234
                                                                        44.5004
        26.2504
 -15791565.12547 -12257970.39846
                  22289244.6954                                   22289241.2774
                                                                        47.2504
        37.7504
  -4171888.73046  -3215368.35544
                  23667904.7114                                   23667900.6914
                                                                        40.2504
        25.7504
  -8252992.67247  -6412979.43445
                  22805409.5084                                   22805405.3834
                                                                        47.0004
        32.7504
 09 10 21  1  4 30.0000000  0  8G02G05G10G25G13G29G16G07
    842442.28947    685163.59045
                  22364625.8204                                   22364620.1524
                                                                        47.5004
        35.7504
 -26818508.79748 -20833403.12947
                  20810393.9384                                   20810390.1564
                                                                        52.7504
        43.0004
 -23679591.30548 -18401183.41046
                  20485773.6954                                   20485769.2704
                                                                        52.2504
        41.0004
 -14614527.63347 -11346474.46545
                  22619117.7504                                   22619113.3554
                                                                        45.2504
        31.5004
  -1510304.43047  -1140004.00444
                  22871553.2894                                   22871548.7624
                                                                        45.0004
        27.0004
 -15839672.01247 -12295456.30546
                  22280090.0394                                   22280086.6134
                                                                        47.5004
        38.2504
  -4246097.21146  -3273193.13344
                  23653783.1804                                   23653778.9414
                                                                        41.7504
        25.2504
  -8382233.66847  -6513686.68045
                  22780815.7504                                   22780811.5824
                                                                        46.2504
        33.7504
 09 10 21  1  5  0.0000000  0  8G02G05G10G25G13G29G16G07
    857071.05148    696562.61746
                  22367409.6094                                   22367404.0044
                                                                        48.0004
        36.0004
 -26933481.65648 -20922992.37947
                  20788515.5944                                   20788511.2154
                                                                        52.0004
        43.0004
 -23770519.30948 -18472036.42246
                  20468470.4064                                   20468466.3674
                                                                        52.5004
        40.5004
 -14684569.11747 -11401052.25445
                  22605789.4304                                   22605785.3134
                                                                        45.5004
        31.5004
  -1499283.95747  -1131416.62544
                  22873650.4144                                   22873645.5044
                                                                        43.7504
        27.2504
 -15887190.11347 -12332483.41046
                  22271048.2274                                   22271044.2664
                                                                        46.7504
        38.0004
  -4319686.66446  -3330535.54744
                  23639779.6414                                   23639775.6564
                                                                        41.7504
        25.5004
  -8510909.82847  -6613953.82045
                  22756329.7034                                   22756324.7934
                                                                        46.5004
        33.2504
 09 10 21  1  5 30.0000000  0  8G02G05G10G25G13G29G16G07
    872057.94547    708240.69545
                  22370261.6414                                   22370255.0904
                                                                        47.0004
        35.5004
 -27047929.82448 -21012172.80147
                  20766736.8134                                   20766732.5434
                                                                        52.7504
        43.0004
 -23860866.80948 -18542437.14146
                  20451277.8054                                   20451273.8634
                                                                        52.7504
        41.2504
 -14754017.35947 -11455167.79345
                  22592573.5314                                   22592569.9734
                                                                        46.5004
        31.0004
  -1487880.15647  -1122530.54344
                  22875820.3134                                   22875816.0784
                                                                        44.5004
        28.5004
 -15934119.13747 -12369051.47746
                  22262117.6484                                   22262114.5124
                                                                        47.2504
        38.2504
  -4392655.94147  -3387394.73844
                  23625893.7974                                   23625889.7384
                                                                        42.0004
        24.5004
  -8639018.10547  -6713778.39145
                  22731951.1094                                   22731946.2934
                                                                        47.0004
        33.2504
 09 10 21  1  6  0.0000000  0  8G02G05G10G25G13G29G16G07
    887400.27747    720195.74645
                  22373181.0704                                   22373175.2934
                                                                        47.2504
        35.7504
 -27161852.68048 -21100943.86347
                  20745058.1024                                   20745053.8164
                                                                        52.0004
        43.2504
 -23950633.77048 -18612385.48446
                  20434195.8134                                   20434191.8954
                                                                        52.0004
        41.2504
 -14822873.24247 -11508821.76245
                  22579471.1024                                   22579467.1024
                                                                        45.5004
        31.0004
  -1476095.23447  -1113347.43444
                  22878063.0784                                   22878058.4614
                                                                        44.7504
        27.5004
 -15980460.89147 -12405161.96146
                  22253299.1174                                   22253295.4264
                                                                        47.5004
        37.2504
  -4465005.71146  -3443771.16044
                  23612126.7664                                   23612122.2624
                                                                        40.7504
        24.5004
  -8766557.28947  -6813159.55945
                  22707681.3134                                   22707676.7704
                                                                        46.7504
        33.0004
 09 10 21  1  6 30.0000000  0  8G02G05G10G25G13G29G16G07
    903092.88747    732423.69946
                  22376167.5554                                   22376161.7704
                                                                        47.0004
        36.0004
 -27275252.17648 -21189307.10547
                  20723478.7814                                   20723474.4614
                                                                        52.5004
        42.5004
 -24039822.98448 -18681883.61346
                  20417223.7194                                   20417220.0004
                                                                        53.0004
        41.5004
 -14891139.85247 -11562016.51645
                  22566480.5234                                   22566476.1214
                                                                        47.0004
        31.0004
  -1463934.66847  -1103871.64544
                  22880377.1644                                   22880373.0824
                                                                        42.0004
        27.0004
 -16026219.48848 -12440818.02746
                  22244591.3834                                   22244587.8794
                                                                        48.5004
        37.5004
  -4536739.16446  -3499667.34443
                  23598475.9144                                   23598471.2704
                                                                        41.7504
        23.0004
  -8893528.08247  -6912097.85545
                  22683519.4924                                   22683514.7464
                                                                        47.0004
        33.0004
 09 10 21  1  7  0.0000000  0  8G02G05G10G25G13G29G16G07
    919137.30548    744925.85246
                  22379220.4534                                   22379214.5594
                                                                        48.2504
        36.0004
 -27388123.48048 -21277258.75047
                  20702000.0864                                   20701996.0984
                                                                        52.0004
        43.0004
 -24128430.54748 -18750928.48046
                  20400362.0394                                   20400358.2814
                                                                        52.2504
        41.2504
 -14958813.99247 -11614749.59445
                  22553602.6644                                   22553598.5824
                                                                        46.5004
        30.7504
  -1451397.82047  -1094102.69544
                  22882762.6254                                   22882758.2154
                                                                        42.5004
        26.7504
 -16071392.07848 -12476017.45746
                  22235995.6254                                   22235992.0984
                                                                        48.5004
        36.5004
  -4607852.84446  -3555080.60544
                  23584943.5394                                   23584939.2464
                                                                        41.0004
        25.0004
  -9019925.27347  -7010589.16845
                  22659467.0704                                   22659462.2504
                                                                        47.0004
        32.7504
 09 10 21  1  7 30.0000000  0  8G02G05G10G25G13G29G16G07
    935529.26647    757698.81346
                  22382339.7424                                   22382334.0554
                                                                        47.5004
        36.0004
 -27500467.94148 -21364799.89847
                  20680621.6024                                   20680617.8674
                                                                        52.2504
        43.2504
 -24216458.61748 -18819521.82046
                  20383611.1334                                   20383607.7114
                                                                        52.2504
        41.2504
 -15025897.95747 -11667022.73445
                  22540836.5234                                   22540832.7814
                                                                        46.2504
        31.2504
  -1438489.17647  -1084044.01644
                  22885219.0004                                   22885214.6644
                                                                        42.0004
        26.0004
 -16115982.02748 -12510762.87146
                  22227510.3284                                   22227506.0744
                                                                        48.0004
        36.7504
  -4678349.20346  -3610012.83644
                  23571528.2504                                   23571524.4224
                                                                        41.0004
        24.7504
  -9145748.50847  -7108633.23445
                  22635523.7894                                   22635519.0084
                                                                        47.0004
        32.7504
 09 10 21  1  8  0.0000000  0  8G02G05G10G25G13G29G16G07
    952269.54347    770743.17245
                  22385525.7584                                   22385519.7304
                                                                        47.5004
        35.0004
 -27612281.76248 -21451927.53947
                  20659344.1254                                   20659340.2304
                                                                        52.0004
        42.5004
 -24303903.86748 -18887660.98446
                  20366970.6024                                   20366967.0634
                                                                        52.2504
        41.2504
 -15092389.72747 -11718834.46145
                  22528183.6484                                   22528179.3874
                                                                        46.7504
        31.5004
  -1425208.52047  -1073695.44144
                  22887746.2974                                   22887742.0354
                                                                        42.2504
        27.2504
 -16159987.71548 -12545053.02346
                  22219136.1564                                   22219132.5434
                                                                        49.0004
        36.7504
  -4748225.82047  -3664462.08644
                  23558231.5784                                   23558226.5474
                                                                        42.0004
        25.0004
  -9270993.51647  -7206226.72745
                  22611690.4694                                   22611685.7074
                                                                        46.2504
        33.2504
 09 10 21  1  8 30.0000000  0  8G02G05G10G25G13G29G16G07
    969354.03948    784055.77345
                  22388776.3284                                   22388770.1414
                                                                        48.0004
        34.7504
 -27723565.14848 -21538641.78947
                  20638167.7114                                   20638163.3954
                                                                        52.2504
        43.2504
 -24390767.48448 -18955346.91446
                  20350441.3754                                   20350437.3284
                                                                        52.5004
        41.0004
 -15158291.12547 -11770186.19145
                  22515643.0314                                   22515639.0474
                                                                        46.2504
        31.2504
  -1411560.03547  -1063060.25444
                  22890344.5394                                   22890338.8404
                                                                        44.5004
        25.7504
 -16203411.77348 -12578889.95346
                  22210872.6024                                   22210869.0784
                                                                        48.2504
        37.0004
  -4817484.69946  -3718430.05944
                  23545051.7274                                   23545047.0824
                                                                        41.0004
        25.5004
  -9395659.76247  -7303369.26645
                  22587967.3204                                   22587962.6804
                                                                        46.2504
        32.5004
 09 10 21  1  9  0.0000000  0  8G02G05G10G25G13G29G16G07
    986777.84848    797632.75445
                  22392092.2344                                   22392086.1604
                                                                        49.5004
        35.5004
 -27834320.47748 -21624944.64147
                  20617091.4614                                   20617087.6644
                                                                        52.7504
        43.0004
 -24477052.40648 -19022581.89147
                  20334021.7584                                   20334017.9104
                                                                        52.2504
        42.0004
 -15223605.41847 -11821080.43045
                  22503214.4694                                   22503210.3164
                                                                        46.0004
        31.0004
  -1397548.94547  -1052142.50044
                  22893009.4384                                   22893005.2544
                                                                        43.7504
        27.0004
 -16246258.45748 -12612277.00846
                  22202719.8594                                   22202716.1454
                                                                        49.2504
        37.0004
  -4886128.85246  -3771918.95344
                  23531989.3914                                   23531984.8204
                                                                        41.7504
        25.7504
  -9519748.64147  -7400061.89845
                  22564353.6644                                   22564349.1334
                                                                        47.0004
        32.5004
 09 10 21  1  9 30.0000000  0  8G02G05G10G25G13G29G16G07
   1004540.66848    811473.88745
                  22395472.3674                                   22395466.2544
                                                                        48.2504
        35.0004
 -27944545.08648 -21710833.96947
                  20596116.6254                                   20596112.3834
                                                                        52.5004
        42.7504
 -24562756.50848 -19089364.32446
                  20317712.8284                                   20317708.7734
                                                                        52.5004
        41.5004
 -15288331.28147 -11871516.17245
                  22490897.4774                                   22490893.2074
                                                                        46.7504
        31.5004
  -1383176.52047  -1040943.22744
                  22895744.3594                                   22895740.3794
                                                                        43.7504
        26.2504
 -16288526.94548 -12645213.48046
                  22194676.0634                                   22194672.9304
                                                                        48.7504
        37.0004
  -4954156.95746  -3824927.84844
                  23519043.8364                                   23519039.5904
                                                                        41.7504
        26.0004
  -9643256.75847  -7496301.96945
                  22540850.8364                                   22540846.3754
                                                                        47.2504
        33.2504
 09 10 21  1 10  0.0000000  0  8G02G05G10G25G13G29G16G07
   1022640.90648    825577.92645
                  22398916.8594                                   22398911.2344
                                                                        48.0004
        35.5004
 -28054236.99248 -21796308.11347
                  20575242.7974                                   20575238.9144
                                                                        51.7504
        43.2504
 -24647878.90648 -19155693.41046
                  20301514.6334                                   20301510.6214
                                                                        52.5004
        41.7504
 -15352468.31647 -11921493.07445
                  22478691.9144                                   22478688.1914
                                                                        46.2504
        31.5004
  -1368444.16047  -1029463.49244
                  22898548.3204                                   22898543.8204
                                                                        44.0004
        27.0004
 -16330217.83648 -12677699.89146
                  22186742.6024                                   22186739.0704
                                                                        48.5004
        37.2504
  -5021568.21147  -3877456.02744
                  23506215.9924                                   23506211.4654
                                                                        42.2504
        24.7504
  -9766180.80947  -7592086.91445
                  22517459.2894                                   22517454.8244
                                                                        46.7504
        33.0004
 09 10 21  1 10 30.0000000  0  8G02G05G10G25G13G29G16G07
   1041075.61347    839942.64145
                  22402424.8524                                   22402419.1564
                                                                        47.7504
        35.0004
 -28163396.42648 -21881367.38747
                  20554470.5944                                   20554466.3134
                                                                        52.0004
        43.0004
 -24732420.68048 -19221570.10546
                  20285426.6254                                   20285422.6844
                                                                        52.0004
        41.0004
 -15416017.97347 -11971012.26645
                  22466599.0474                                   22466595.1374
                                                                        46.2504
        31.5004
  -1353355.40647  -1017706.02044
                  22901419.8594                                   22901415.4144
                                                                        44.7504
        25.7504
 -16371333.17648 -12709737.80946
                  22178918.3524                                   22178915.0394
                                                                        49.0004
        37.0004
  -5088364.46947  -3929505.00444
                  23493505.4614                                   23493500.8094
                                                                        42.7504
        25.7504
  -9888520.44947  -7687416.47745
                  22494179.0784                                   22494174.3404
                                                                        47.0004
        33.5004
 09 10 21  1 11  0.0000000  0  8G02G05G10G25G13G29G16G07
   1059842.30547    854566.03145
                  22405995.8674                                   22405989.9734
                                                                        47.2504
        35.2504
 -28272022.80148 -21966011.32447
                  20533799.6254                                   20533795.3164
                                                                        51.2504
        42.7504
 -24816381.57048 -19286994.11746
                  20269449.5164                                   20269445.5124
                                                                        51.7504
        41.5004
 -15478981.27347 -12020074.57045
                  22454617.8524                                   22454613.3984
                                                                        46.0004
        30.7504
  -1337913.35947  -1005673.28944
                  22904358.2974                                   22904354.1094
                                                                        42.2504
        27.0004
 -16411874.92648 -12741328.77046
                  22171203.8674                                   22171199.6684
                                                                        49.5004
        37.0004
  -5154546.43047  -3981075.29744
                  23480911.1804                                   23480906.7624
                                                                        42.7504
        24.2504
 -10010274.39547  -7782289.67245
                  22471009.8134                                   22471005.4384
                                                                        46.7504
        33.0004
 09 10 21  1 11 30.0000000  0  8G02G05G10G25G13G29G16G07
   1078937.53547    869445.43445
                  22409629.5864                                   22409623.9064
                                                                        47.0004
        35.0004
 -28380116.44948 -22050240.10247
                  20513230.0944                                   20513225.9844
                                                                        51.7504
        43.2504
 -24899763.11348 -19351966.70746
                  20253582.5004                                   20253578.5984
                                                                        52.2504
        41.7504
 -15541359.87547 -12068681.27345
                  22442747.8134                                   22442743.3054
                                                                        46.0004
        31.0004
  -1322121.60947   -993368.02044
                  22907362.7814                                   22907358.8834
                                                                        43.5004
        24.7504
 -16451845.14848 -12772474.41046
                  22163597.6564                                   22163593.9064
                                                                        49.5004
        37.5004
  -5220115.91047  -4032168.34844
                  23468433.2194                                   23468428.8014
                                                                        42.0004
        25.5004
 -10131441.99247  -7876705.97745
                  22447952.2424                                   22447947.7934
                                                                        46.7504
        33.5004
 09 10 21  1 12  0.0000000  0  9G02G21G05G10G25G13G29G16G07
   1098359.56647    884579.48845
                  22413325.3984                                   22413319.6134
                                                                        47.0004
        34.2504
  10714474.51656   8392437.36353
                  24674534.2814                                   24674529.8984
                                                                        40.5004
        22.5004
 -28487676.00048 -22134052.75447
                  20492761.9064                                   20492758.2274
                                                                        51.7504
        42.7504
 -24982564.52048 -19416487.23846
                  20237825.8594                                   20237821.8134
                                                                        51.5004
        41.7504
 -15603153.63747 -12116832.24245
                  22430988.6024                                   22430985.0634
                                                                        45.7504
        30.7504
  -1305982.41047   -980792.02344
                  22910434.0234                                   22910429.6994
                                                                        43.5004
        25.5004
 -16491244.73848 -12803175.37146
                  22156100.4144                                   22156096.4574
                                                                        48.5004
        37.5004
  -5285072.39147  -4082783.75044
                  23456072.4614                                   23456068.1214
                                                                        43.5004
        25.5004
 -10252020.77047  -7970663.44945
                  22425007.2114                                   22425002.3914
                                                                        47.0004
        33.5004
 09 10 21  1 12 30.0000000  0  9G02G21G05G10G25G13G29G16G07
   1118101.93847    899963.14845
                  22417082.4694                                   22417076.5394
                                                                        45.7504
        34.7504
  10528644.82446   8247635.09043
                  24639171.9774                                   24639167.6604
                                                                        40.7504
        22.0004
 -28594704.53548 -22217451.58647
                  20472395.3204                                   20472391.1254
                                                                        52.2504
        43.2504
 -25064789.75448 -19480558.82446
                  20222178.7344                                   20222174.3984
                                                                        51.7504
        41.5004
 -15664367.40247 -12164531.28145
                  22419340.2034                                   22419335.8094
                                                                        46.5004
        31.7504
  -1289502.35946   -967950.42243
                  22913569.5474                                   22913565.3484
                                                                        40.5004
        23.7504
 -16530079.33648 -12833436.12546
                  22148710.0164                                   22148706.5514
                                                                        48.0004
        36.7504
  -5349420.79747  -4132925.35244
                  23443828.0784                                   23443822.8754
                                                                        43.5004
        25.5004
 -10372013.28547  -8064164.08645
                  22402173.2424                                   22402168.6054
                                                                        47.7504
        33.5004
 09 10 21  1 13  0.0000000  0  9G02G21G05G10G25G13G29G16G07
   1138163.02347    915595.16045
                  22420899.9924                                   22420893.4454
                                                                        46.5004
        34.5004
  10342936.75446   8102927.53543
                  24603832.8204                                   24603828.7114
                                                                        39.5004
        22.7504
 -28701200.91048 -22300435.73447
                  20452129.2974                                   20452125.2504
                                                                        51.7504
        43.0004
 -25146438.55948 -19544181.27046
                  20206641.5474                                   20206638.0084
                                                                        52.0004
        41.2504
 -15725001.50447 -12211778.64545
                  22407801.4064                                   22407797.7154
                                                                        46.2504
        31.5004
  -1272683.52747   -954844.85944
                  22916771.1094                                   22916766.3794
                                                                        42.5004
        24.2504
 -16568349.62548 -12863257.11346
                  22141427.8444                                   22141423.7584
                                                                        48.7504
        37.2504
  -5413161.44547  -4182593.40243
                  23431698.0554                                   23431693.3014
                                                                        43.7504
        23.7504
 -10491417.67647  -8157206.43445
                  22379451.4694                                   22379447.0234
                                                                        47.5004
        34.0004
 09 10 21  1 13 30.0000000  0  9G02G21G05G10G25G13G29G16G07
   1158542.30547    931475.10245
                  22424777.7344                                   22424771.7274
                                                                        46.5004
        33.5004
  10157354.18846   7958317.77343
                  24568517.0084                                   24568512.8094
                                                                        38.2504
        21.5004
 -28807162.84448 -22383003.43747
                  20431965.7894                                   20431961.8364
                                                                        52.0004
        43.7504
 -25227509.06648 -19607353.06246
                  20191214.3754                                   20191210.4844
                                                                        51.7504
        41.0004
 -15785054.68047 -12258573.33245
                  22396374.2584                                   22396369.9384
                                                                        46.7504
        31.2504
  -1255526.68047   -941475.87544
                  22920035.7274                                   22920031.3204
                                                                        44.0004
        25.7504
 -16606055.66848 -12892638.44546
                  22134252.4614                                   22134248.8914
                                                                        48.5004
        37.5004
  -5476292.80547  -4231786.69943
                  23419684.7734                                   23419680.2624
                                                                        42.5004
        23.5004
 -10610230.60247  -8249787.93045
                  22356842.1954                                   22356837.4804
                                                                        47.5004
        34.0004
 09 10 21  1 14  0.0000000  0  9G02G21G05G10G25G13G29G16G07
   2754660.63747   2175203.65245
                  22728509.3364                                   22728503.3284
                                                                        47.5004
        34.0004
  11547328.75046   9041414.90643
                  24833020.6334                                   24833016.2154
                                                                        39.5004
        19.7504
 -27337162.13348 -21237548.35247
                  20711697.6414                                   20711692.8794
                                                                        52.0004
        43.2504
 -23732574.48448 -18442468.92246
                  20475691.0394                                   20475687.1564
                                                                        52.0004
        41.2504
 -14269101.82447 -11077311.37545
                  22684850.3754                                   22684846.2344
                                                                        46.0004
        31.7504
    337388.51647    299756.75844
                  23223157.1024                                   23223153.1174
                                                                        42.7504
        26.2504
 -15067773.51648 -11693977.03146
                  22426977.7504                                   22426974.1024
                                                                        48.5004
        37.2504
  -3963389.91447  -3052901.34444
                  23707580.1724                                   23707575.8444
                                                                        42.7504
        25.2504
  -9153022.48847  -7114301.06645
                  22634139.5084                                   22634134.7424
                                                                        47.0004
        34.0004
 09 10 21  1 14 30.0000000  0  9G02G21G05G10G25G13G29G16G07
   2775678.84847   2191581.45345
                  22732509.2114                                   22732502.6844
                                                                        46.2504
        34.2504
  11362012.87546   8897012.96143
                  24797756.5394                                   24797751.7274
                                                                        41.0004
        18.5004
 -27442043.20748 -21319273.86747
                  20691739.3834                                   20691735.0314
                                                                        52.0004
        43.2504
 -23812478.98448 -18504732.14546
                  20460485.6414                                   20460481.5554
                                                                        52.0004
        41.0004
 -14327985.87147 -11123195.04745
                  22673644.9924                                   22673641.0984
                                                                        46.0004
        31.7504
    355222.36347    313653.27044
                  23226550.5474                                   23226547.1844
                                                                        43.2504
        26.0004
 -15104345.35547 -11722474.54346
                  22420018.3284                                   22420014.7304
                                                                        47.7504
        36.5004
  -4025295.87146  -3101139.76644
                  23695800.0784                                   23695795.2624
                                                                        40.7504
        24.2504
  -9270637.81647  -7205949.37145
                  22611758.0784                                   22611753.1844
                                                                        47.7504
        33.0004
 09 10 21  1 15  0.0000000  0  9G02G21G05G10G25G13G29G16G07
   2797012.67247   2208205.25045
                  22736568.4534                                   22736562.6954
                                                                        47.0004
        33.5004
  11176833.32847   8752717.26243
                  24762518.0944                                   24762513.1024
                                                                        42.7504
        21.5004
 -27546383.24248 -21400577.81247
                  20671883.9454                                   20671880.1804
                                                                        52.0004
        43.2504
 -23891801.21948 -18566541.66046
                  20445390.9694                                   20445387.0474
                                                                        51.5004
        40.7504
 -14386287.07847 -11168624.55545
                  22662550.4224                                   22662546.3134
                                                                        46.2504
        31.0004
    373390.34846    327810.14144
                  23230008.3134                                   23230004.4694
                                                                        41.7504
        25.5004
 -15140353.04348 -11750532.48046
                  22413166.2114                                   22413162.8444
                                                                        48.5004
        36.7504
  -4086590.47747  -3148901.82044
                  23684136.4614                                   23684131.5824
                                                                        43.2504
        25.2504
  -9387652.77047  -7297129.84045
                  22589491.0164                                   22589486.2734
                                                                        47.2504
        33.5004
 09 10 21  1 15 30.0000000  0  9G02G21G05G10G25G13G29G16G07
   2818662.29347   2225075.03545
                  22740687.9224                                   22740682.8754
                                                                        47.0004
        33.7504
  10991794.77347   8608531.39843
                  24727306.6484                                   24727301.4694
                                                                        42.7504
        22.5004
 -27650178.24648 -21481457.02347
                  20652132.6254                                   20652128.7974
                                                                        52.2504
        43.5004
 -23970538.50848 -18627895.35246
                  20430407.7114                                   20430403.7704
                                                                        52.0004
        41.0004
 -14444003.30947 -11213598.24245
                  22651567.7974                                   22651563.6054
                                                                        46.2504
        31.7504
    391892.95347    342227.73443
                  23233529.1564                                   23233525.3554
                                                                        42.7504
        23.7504
 -15175794.87148 -11778149.48046
                  22406421.6334                                   22406418.4344
                                                                        48.5004
        37.0004
  -4147271.59047  -3196185.78944
                  23672588.9534                                   23672583.9414
                                                                        43.5004
        25.5004
  -9504063.25047  -7387839.28145
                  22567338.6414                                   22567334.3714
                                                                        46.7504
        33.2504
 09 10 21  1 16  0.0000000  0  9G02G21G05G10G25G13G29G16G07
   2840626.10947   2242189.64845
                  22744867.8134                                   22744862.2704
                                                                        47.0004
        34.2504
  10806899.84047   8464457.45343
                  24692122.0474                                   24692116.5824
                                                                        42.5004
        21.5004
 -27753427.75048 -21561911.14147
                  20632484.9774                                   20632480.9064
                                                                        52.0004
        43.5004
 -24048690.49248 -18688792.98046
                  20415535.9534                                   20415531.8554
                                                                        52.2504
        41.0004
 -14501135.01647 -11258116.45345
                  22640695.4304                                   22640691.6454
                                                                        45.5004
        31.0004
    410727.19947    356903.75444
                  23237112.7734                                   23237108.6684
                                                                        42.2504
        25.0004
 -15210672.15248 -11805326.57446
                  22399784.6884                                   22399781.3954
                                                                        49.0004
        36.7504
  -4207339.76247  -3242992.15243
                  23661158.6484                                   23661153.3754
                                                                        43.7504
        23.7504
  -9619867.08247  -7478076.02045
                  22545301.6174                                   22545297.3094
                                                                        47.0004
        33.2504
 09 10 21  1 16 30.0000000  0  9G02G21G05G10G25G13G29G16G07
   2862899.01647   2259545.11745
                  22749106.4694                                   22749100.4454
                                                                        47.5004
        34.5004
  10622147.85946   8320494.87143
                  24656964.3914                                   24656960.4264
                                                                        41.0004
        21.2504
 -27856133.97348 -21641941.93747
                  20612940.4384                                   20612936.4144
                                                                        51.5004
        43.2504
 -24126259.84848 -18749236.64846
                  20400775.1484                                   20400770.9924
                                                                        52.2504
        41.2504
 -14557685.51647 -11302181.77745
                  22629934.7274                                   22629930.3524
                                                                        46.2504
        30.5004
    429888.35947    371834.53144
                  23240759.4384                                   23240754.8284
                                                                        42.7504
        25.0004
 -15244989.46948 -11832067.35246
                  22393254.6094                                   22393251.0164
                                                                        48.2504
        37.2504
  -4266798.12147  -3289323.28544
                  23649843.8054                                   23649839.2234
                                                                        44.0004
        25.2504
  -9735065.42647  -7567840.94945
                  22523380.6094                                   22523375.4694
                                                                        47.7504
        33.5004
