     2.11           OBSERVATION DATA    G (GPS)             RINEX VERSION / TYPE
teqc  2019Feb25                         20221121 12:28:04UTCPGM / RUN BY / DATE
OSX ker:10.11.6|Core i5|gcc 4.3 -m64|OSX ker:10.10+|=+      COMMENT
BIT 2 OF LLI FLAGS DATA COLLECTED UNDER A/S CONDITION       COMMENT
04712790                                                    MARKER NAME
2790                                                        MARKER NUMBER
-Unknown-           -Unknown-                               OBSERVER / AGENCY
0220400471          TRIMBLE R7          2.30                REC # / TYPE / VERS
-Unknown-           TRM39105.00     NONE                    ANT # / TYPE
  1449460.6922 -1709240.2907  5952443.0252                  APPROX POSITION XYZ
        0.0000        0.0000        0.0000                  ANTENNA: DELTA H/E/N
     1     1                                                WAVELENGTH FACT L1/2
    20    L1    L2    L5    L6    L7    L8    C1    P1    C2# / TYPES OF OBSERV
          P2    C5    C6    C7    C8    S1    S2    S5    S6# / TYPES OF OBSERV
          S7    S8                                          # / TYPES OF OBSERV
    30.0000                                                 INTERVAL
    15                                                      LEAP SECONDS
Forced Modulo Decimation to 30 seconds                      COMMENT
 SNR is mapped to RINEX snr flag value [0-9]                COMMENT
  L1 & L2: min(max(int(snr_dBHz/6), 0), 9)                  COMMENT
teqc edited: Beidou # 1 - 37 excluded                       COMMENT
  2009    10     6     0     0    0.0000000     GPS         TIME OF FIRST OBS
                                                            END OF HEADER
 09 10  6  0  0  0.0000000  0  9G02G04G12G13G29G10G23G30G31
 -16076700.59048 -12470222.61347
                  20604894.1484                                   20604887.7464
                                                                        52.2504
        43.7504
  -7821840.56248  -6060327.93046
                  20796710.5084                                   20796706.7464
                                                                        53.5004
        41.5004
  -2218203.57847  -1716013.09444
                  24156479.7504                                   24156475.7154
                                                                        43.5004
        29.0004
 -18372147.58648 -14245518.05945
                  21658495.0554                                   21658490.5354
                                                                        48.7504
        34.5004
  -3373835.11347  -2581664.10944
                  24023225.9144                                   24023223.3594
                                                                        43.2504
        29.0004
  -1330338.56247  -1014401.65644
                  23950065.9924                                   23950062.6604
                                                                        42.5004
        27.2504
 -10363300.30148  -8030724.90245
                  21822392.7274                                   21822386.1524
                                                                        49.0004
        34.7504
  -7330569.94947  -5678316.75044
                  22877122.0784                                   22877118.2504
                                                                        45.5004
        29.0004
  -7755955.88347  -6010548.29744
                  23924040.2894                                   23924036.0394
                                                                        42.5004
        28.0004
 09 10  6  0  0 30.0000000  0  9G02G04G12G13G29G10G23G30G31
 -16208966.77348 -12573287.18447
                  20579724.9534                                   20579718.5554
                                                                        52.2504
        42.5004
  -7869835.14848  -6097726.34047
                  20787577.4534                                   20787573.8284
                                                                        52.5004
        42.0004
  -2219480.09047  -1717007.79744
                  24156237.1174                                   24156233.1174
                                                                        42.5004
        27.2504
 -18525759.02748 -14365215.24645
                  21629264.1094                                   21629259.0704
                                                                        49.5004
        35.7504
  -3567155.36747  -2732303.25844
                  23986439.0394                                   23986435.1954
                                                                        44.0004
        28.5004
  -1543208.62147  -1180274.37144
                  23909558.1254                                   23909554.6844
                                                                        43.7504
        28.0004
 -10431730.86348  -8084047.39845
                  21809371.0164                                   21809364.4184
                                                                        49.7504
        35.7504
  -7369153.60547  -5708381.96144
                  22869779.6484                                   22869776.1484
                                                                        45.2504
        29.0004
  -7802092.44546  -6046498.87944
                  23915261.0084                                   23915256.6764
                                                                        40.7504
        26.7504
 09 10  6  0  1  0.0000000  0  9G02G04G12G13G29G10G23G30G31
 -16340687.78148 -12675926.90647
                  20554658.8914                                   20554652.8404
                                                                        52.5004
        43.2504
  -7917302.25448  -6134713.68046
                  20778544.8364                                   20778540.8984
                                                                        53.5004
        41.7504
  -2220447.41847  -1717761.57044
                  24156053.2734                                   24156048.7624
                                                                        43.0004
        27.0004
 -18678774.53548 -14484448.09445
                  21600145.7114                                   21600141.5744
                                                                        49.0004
        35.0004
  -3760186.93747  -2882717.43044
                  23949705.9694                                   23949701.9344
                                                                        42.7504
        26.5004
  -1755910.30947  -1346015.94944
                  23869082.7274                                   23869078.9844
                                                                        44.0004
        27.0004
 -10499530.40648  -8136878.20745
                  21796468.9384                                   21796462.2504
                                                                        50.0004
        34.7504
  -7407146.92247  -5737987.17644
                  22862549.3444                                   22862546.4884
                                                                        45.5004
        28.5004
  -7847689.29347  -6082028.89144
                  23906584.1334                                   23906580.1454
                                                                        43.0004
        28.0004
 09 10  6  0  1 30.0000000  0  9G02G04G12G13G29G10G23G30G31
 -16471862.63348 -12778141.09447
                  20529697.1254                                   20529690.6724
                                                                        52.0004
        42.5004
  -7964243.85248  -6171291.54346
                  20769612.0634                                   20769608.4414
                                                                        52.2504
        41.2504
  -2221109.52347  -1718277.55144
                  24155926.6724                                   24155923.1804
                                                                        42.2504
        28.0004
 -18831192.32048 -14603215.20745
                  21571141.9844                                   21571137.1644
                                                                        49.0004
        35.2504
  -3952927.70346  -3032904.98444
                  23913028.0634                                   23913024.2154
                                                                        40.5004
        24.2504
  -1968441.41847  -1511624.45744
                  23828638.7344                                   23828635.6954
                                                                        42.2504
        25.5004
 -10566700.07848  -8189218.22345
                  21783687.1484                                   21783680.5354
                                                                        49.5004
        34.7504
  -7444552.84047  -5767134.58244
                  22855431.3524                                   22855427.4024
                                                                        44.2504
        28.5004
  -7892748.50846  -6117139.94944
                  23898009.5634                                   23898005.2934
                                                                        40.7504
        27.5004
 09 10  6  0  2  0.0000000  0  9G02G04G12G13G29G10G23G30G31
 -16602489.98048 -12879928.64147
                  20504839.6334                                   20504833.1174
                                                                        52.5004
        42.7504
  -8010661.36348  -6207461.05946
                  20760779.1414                                   20760775.3834
                                                                        53.0004
        41.5004
  -2221468.82447  -1718557.46544
                  24155858.3364                                   24155854.4654
                                                                        43.0004
        28.0004
 -18983010.30548 -14721514.91445
                  21542251.6024                                   21542247.0234
                                                                        49.2504
        35.5004
  -4145374.96146  -3182863.79344
                  23876405.7424                                   23876403.0664
                                                                        39.5004
        25.0004
  -2180800.40247  -1677098.91443
                  23788228.4144                                   23788224.8554
                                                                        42.2504
        22.7504
 -10633240.92648  -8241068.23045
                  21771024.3054                                   21771018.2114
                                                                        49.2504
        34.7504
  -7481373.59847  -5795826.05944
                  22848424.3364                                   22848421.1254
                                                                        44.5004
        28.5004
  -7937271.94147  -6151833.49244
                  23889537.4224                                   23889532.9384
                                                                        43.7504
        27.7504
 09 10  6  0  2 30.0000000  0  9G02G04G12G13G29G10G23G30G31
 -15157146.18748 -11753686.73447
                  20779879.4144                                   20779872.9844
                                                                        51.7504
        42.0004
  -6481135.93748  -5015623.03147
                  21051838.0234                                   21051834.1804
                                                                        52.5004
        42.0004
   -646110.34447   -491005.41444
                  24455639.1174                                   24455635.2424
                                                                        44.0004
        28.0004
 -17558803.32448 -13611743.24645
                  21813269.2814                                   21813264.4574
                                                                        50.0004
        35.7504
  -2762101.73046  -2104988.44144
                  24139634.3834                                   24139631.0634
                                                                        40.5004
        24.0004
   -817559.87547   -614833.59844
                  24047644.5314                                   24047640.6604
                                                                        42.0004
        25.7504
  -9123733.85248  -7064828.94945
                  22058274.1024                                   22058267.4384
                                                                        49.5004
        34.0004
  -5942192.05547  -4596463.84444
                  23141320.9064                                   23141317.9884
                                                                        43.7504
        28.5004
  -6405841.58646  -4958511.10544
                  24180958.3674                                   24180953.8524
                                                                        40.2504
        25.5004
 09 10  6  0  3  0.0000000  0  9G02G04G12G13G29G10G23G30G31
 -15286677.62548 -11854620.32847
                  20755230.3134                                   20755224.1884
                                                                        52.2504
        42.2504
  -6526511.48048  -5050980.61746
                  21043203.4064                                   21043199.6254
                                                                        53.0004
        41.5004
   -645875.65647   -490822.50044
                  24455684.0944                                   24455679.5124
                                                                        44.5004
        28.2504
 -17709418.62148 -13729105.80945
                  21784608.2114                                   21784603.4224
                                                                        49.5004
        35.5004
  -2953957.59446  -2254486.50044
                  24103125.5634                                   24103122.5634
                                                                        41.0004
        27.7504
  -1029570.04747   -780036.17244
                  24007300.6414                                   24007296.8674
                                                                        42.2504
        28.2504
  -9189023.17648  -7115703.73445
                  22045849.9304                                   22045843.6484
                                                                        49.2504
        34.5004
  -5977851.94547  -4624250.78544
                  23134535.4064                                   23134532.0664
                                                                        44.7504
        28.5004
  -6449301.55546  -4992376.00844
                  24172688.2194                                   24172684.0664
                                                                        41.5004
        26.0004
 09 10  6  0  3 30.0000000  0  9G02G04G12G13G29G10G23G30G31
 -15415659.84448 -11955125.96547
                  20730685.8984                                   20730679.9654
                                                                        52.0004
        42.5004
  -6571369.18748  -5085934.69946
                  21034667.3134                                   21034663.3364
                                                                        52.0004
        41.5004
   -645349.46947   -490412.55144
                  24455784.0634                                   24455780.1414
                                                                        43.5004
        26.7504
 -17859430.68448 -13845998.31645
                  21756062.0004                                   21756056.8554
                                                                        49.5004
        35.7504
  -3145514.80146  -2403751.80144
                  24066673.8444                                   24066670.1524
                                                                        41.2504
        29.5004
  -1241403.62947   -945101.26244
                  23966989.7194                                   23966986.5084
                                                                        42.2504
        29.0004
  -9253689.18748  -7166092.82445
                  22033544.5784                                   22033538.3484
                                                                        49.2504
        34.2504
  -6012936.18747  -4651589.16844
                  23127859.2894                                   23127855.8984
                                                                        44.2504
        28.5004
  -6492234.10546  -5025829.94944
                  24164518.1884                                   24164514.1334
                                                                        39.5004
        25.0004
 09 10  6  0  4  0.0000000  0  9G02G04G12G13G29G10G23G30G31
 -15544091.13748 -12055202.29347
                  20706246.4144                                   20706239.8794
                                                                        52.5004
        42.7504
  -6615709.42648  -5120485.52346
                  21026229.8594                                   21026225.6254
                                                                        53.7504
        41.5004
   -644533.69947   -489776.87944
                  24455939.6564                                   24455935.1604
                                                                        43.0004
        26.2504
 -18008836.70348 -13962418.56645
                  21727630.8134                                   21727626.3284
                                                                        49.5004
        35.2504
  -3336770.24246  -2552781.99244
                  24030278.4304                                   24030275.6134
                                                                        40.5004
        28.0004
  -1453057.52747  -1110026.30944
                  23926712.6414                                   23926709.5824
                                                                        42.0004
        27.7504
  -9317732.39148  -7215996.60545
                  22021357.3984                                   22021350.7974
                                                                        48.5004
        35.0004
  -6047446.15647  -4678480.07844
                  23121291.7734                                   23121288.6804
                                                                        45.0004
        29.2504
  -6534639.49246  -5058873.11344
                  24156448.9924                                   24156444.5044
                                                                        40.5004
        25.7504
 09 10  6  0  4 30.0000000  0  9G02G04G12G13G29G10G23G30G31
 -15671967.72748 -12154846.37947
                  20681912.3674                                   20681905.7424
                                                                        53.0004
        42.5004
  -6659531.19948  -5154632.35246
                  21017890.5314                                   21017886.4184
                                                                        53.2504
        41.0004
   -643428.84447   -488915.83644
                  24456149.2504                                   24456144.9494
                                                                        43.2504
        26.7504
 -18157632.19548 -14078363.09445
                  21699316.0634                                   21699310.9224
                                                                        49.5004
        35.5004
  -3527718.65646  -2701572.96544
                  23993942.5784                                   23993938.9414
                                                                        40.7504
        27.5004
  -1664527.08246  -1274807.70344
                  23886471.5084                                   23886467.5634
                                                                        41.5004
        25.5004
  -9381151.70748  -7265414.25445
                  22009289.1484                                   22009282.4964
                                                                        49.0004
        34.0004
  -6081381.98847  -4704923.66444
                  23114834.3594                                   23114830.9344
                                                                        45.2504
        29.7504
  -6576517.38746  -5091505.26643
                  24148479.9534                                   24148475.4614
                                                                        40.2504
        23.2504
 09 10  6  0  5  0.0000000  0  9G02G04G12G13G29G10G23G30G31
 -15799290.78948 -12254059.13747
                  20657683.3444                                   20657677.1644
                                                                        52.2504
        43.2504
  -6702838.58248  -5188378.37147
                  21009649.4304                                   21009645.5044
                                                                        51.7504
        42.0004
   -642040.64847   -487834.12944
                  24456413.5394                                   24456409.1844
                                                                        43.0004
        25.5004
 -18305817.80948 -14193832.42645
                  21671117.0704                                   21671112.7464
                                                                        49.7504
        35.7504
  -3718360.32846  -2850124.94144
                  23957664.5784                                   23957660.9734
                                                                        40.5004
        26.5004
  -1875812.39847  -1439445.57444
                  23846265.1024                                   23846261.7814
                                                                        42.2504
        25.7504
  -9443950.39148  -7314348.28545
                  21997338.9614                                   21997332.1644
                                                                        49.2504
        34.5004
  -6114748.68747  -4730923.71944
                  23108485.4774                                   23108481.5044
                                                                        45.7504
        29.5004
  -6617872.29346  -5123729.88743
                  24140610.0314                                   24140605.7074
                                                                        39.5004
        23.0004
 09 10  6  0  5 30.0000000  0  9G02G04G12G13G29G10G23G30G31
 -15926059.45348 -12352839.91047
                  20633560.2034                                   20633554.3204
                                                                        53.0004
        42.7504
  -6745632.90648  -5221724.60546
                  21001506.0004                                   21001502.2814
                                                                        52.0004
        41.0004
   -640371.64547   -486533.59844
                  24456731.1024                                   24456727.2624
                                                                        42.5004
        28.0004
 -18453391.81248 -14308825.14546
                  21643034.6804                                   21643030.6724
                                                                        49.2504
        36.0004
  -3908692.41446  -2998435.64844
                  23921445.5554                                   23921442.0274
                                                                        41.2504
        26.7504
  -2086911.60247  -1603938.33644
                  23806094.2194                                   23806090.6174
                                                                        42.5004
        26.2504
  -9506129.75448  -7362799.74245
                  21985506.5004                                   21985499.5084
                                                                        49.0004
        33.7504
  -6147548.73047  -4756482.20744
                  23102243.6484                                   23102239.9654
                                                                        45.5004
        29.7504
  -6658706.02347  -5155548.32844
                  24132839.7584                                   24132834.9884
                                                                        42.7504
        24.2504
 09 10  6  0  6  0.0000000  0  9G02G04G12G13G29G10G23G30G31
 -16052276.41848 -12451190.79747
                  20609541.5944                                   20609535.5514
                                                                        52.0004
        43.2504
  -6787919.56648  -5254675.26646
                  20993459.1884                                   20993455.3554
                                                                        53.2504
        41.2504
   -638429.02346   -485019.81244
                  24457100.9304                                   24457096.5234
                                                                        41.2504
        27.5004
 -18600356.37148 -14423342.97746
                  21615068.1884                                   21615063.7854
                                                                        49.5004
        36.0004
  -4098716.54746  -3146506.40244
                  23885284.9614                                   23885281.5704
                                                                        41.0004
        26.0004
  -2297826.41847  -1768287.50044
                  23765958.3674                                   23765955.1764
                                                                        43.5004
        29.0004
  -9567695.26648  -7410772.84045
                  21973790.7584                                   21973784.3794
                                                                        48.2504
        34.0004
  -6179788.48047  -4781604.12544
                  23096108.7194                                   23096105.0554
                                                                        45.5004
        29.7504
  -6699024.82447  -5186965.61744
                  24125168.0314                                   24125163.2194
                                                                        42.5004
        25.5004
 09 10  6  0  6 30.0000000  0  9G02G04G12G13G29G10G23G30G31
 -16177936.26248 -12549107.55147
                  20585629.6884                                   20585623.6294
                                                                        52.2504
        43.0004
  -6829695.75048  -5287228.14846
                  20985509.1724                                   20985505.6914
                                                                        52.2504
        40.7504
   -636211.47746   -483291.87544
                  24457522.6254                                   24457518.5984
                                                                        40.5004
        27.2504
 -18746705.40248 -14537381.17246
                  21587219.2194                                   21587214.8094
                                                                        50.0004
        36.0004
  -4288425.75047  -3294331.78944
                  23849185.2114                                   23849181.3484
                                                                        42.5004
        28.0004
  -2508550.21547  -1932487.84844
                  23725859.5634                                   23725855.9414
                                                                        43.5004
        28.0004
  -9628643.78548  -7458265.18045
                  21962192.6564                                   21962185.8284
                                                                        49.2504
        34.0004
  -6211465.94547  -4806287.90244
                  23090080.8284                                   23090077.2664
                                                                        46.5004
        28.7504
  -6738826.21547  -5217979.72344
                  24117594.4844                                   24117589.1054
                                                                        43.7504
        28.5004
 09 10  6  0  7  0.0000000  0  9G02G04G12G13G29G10G23G30G31
 -16303040.59448 -12646591.44147
                  20561822.8284                                   20561817.0824
                                                                        52.5004
        42.5004
  -6870965.83248  -5319386.60946
                  20977655.9224                                   20977651.7624
                                                                        50.5004
        41.2504
   -633724.86746   -481354.31244
                  24457995.7194                                   24457992.3554
                                                                        40.5004
        26.7504
 -18892440.09048 -14650940.66045
                  21559486.4304                                   21559482.2584
                                                                        50.5004
        35.7504
  -4477820.54346  -3441912.14144
                  23813143.8754                                   23813140.8164
                                                                        41.2504
        28.0004
  -2719083.79347  -2096539.89844
                  23685796.4454                                   23685792.4454
                                                                        42.7504
        28.0004
  -9688979.25448  -7505279.84445
                  21950711.5004                                   21950704.5664
                                                                        48.2504
        34.0004
  -6242586.75847  -4830537.86344
                  23084158.1484                                   23084154.7034
                                                                        45.0004
        27.5004
  -6778115.18446  -5248594.52344
                  24110117.7734                                   24110113.1094
                                                                        41.5004
        28.5004
 09 10  6  0  7 30.0000000  0  9G02G04G12G13G29G10G23G30G31
 -16427589.29748 -12743642.37147
                  20538122.0554                                   20538115.9184
                                                                        52.5004
        43.2504
  -6911732.02748  -5351152.46546
                  20969898.2344                                   20969894.3524
                                                                        52.7504
        41.2504
   -630973.02047   -479210.05944
                  24458520.2194                                   24458516.2034
                                                                        42.2504
        27.2504
 -19037559.28948 -14764020.52046
                  21531871.7274                                   21531866.8954
                                                                        50.2504
        36.0004
  -4666899.42646  -3589246.31644
                  23777163.2194                                   23777160.6844
                                                                        41.0004
        27.7504
  -2929426.22347  -2260443.05144
                  23645768.6254                                   23645765.9104
                                                                        43.2504
        28.5004
  -9748704.07048  -7551818.66445
                  21939346.6804                                   21939339.5314
                                                                        49.5004
        34.0004
  -6273154.41447  -4854356.79744
                  23078341.5234                                   23078337.9884
                                                                        43.7504
        26.5004
  -6816894.25047  -5278811.97744
                  24102738.3444                                   24102734.1374
                                                                        43.7504
        28.5004
 09 10  6  0  8  0.0000000  0  9G02G04G12G13G29G10G23G30G31
 -16551580.36348 -12840258.77347
                  20514527.3284                                   20514521.3594
                                                                        52.7504
        42.7504
  -6951995.11748  -5382526.29746
                  20962236.6954                                   20962232.7384
                                                                        52.7504
        41.5004
   -627958.04346   -476860.81244
                  24459093.3134                                   24459089.4144
                                                                        41.5004
        28.7504
 -19182060.34048 -14876618.76245
                  21504373.5474                                   21504369.5004
                                                                        50.0004
        35.7504
  -4855658.70347  -3736331.44944
                  23741243.8524                                   23741240.4304
                                                                        42.2504
        27.5004
  -3139574.35547  -2424194.80544
                  23605779.2814                                   23605776.1254
                                                                        43.5004
        28.2504
  -9807818.68048  -7597881.96945
                  21928097.0704                                   21928090.6724
                                                                        49.5004
        34.5004
  -6303170.61347  -4877746.06244
                  23072629.6174                                   23072625.9384
                                                                        44.7504
        27.2504
  -6855165.02747  -5308633.39844
                  24095455.2344                                   24095451.0594
                                                                        43.7504
        27.5004
 09 10  6  0  8 30.0000000  0  8G02G04G13G29G10G23G30G31
 -16675010.55948 -12936438.13747
                  20491039.5474                                   20491033.4064
                                                                        52.7504
        43.2504
  -6991754.44948  -5413507.58246
                  20954670.5554                                   20954667.1094
                                                                        52.2504
        41.5004
 -19325939.78148 -14988732.65246
                  21476994.5004                                   21476989.7704
                                                                        50.2504
        36.2504
  -5044094.00047  -3883164.16044
                  23705386.3054                                   23705382.8364
                                                                        43.5004
        27.5004
  -3349523.98847  -2587791.85544
                  23565827.1644                                   23565823.6174
                                                                        42.2504
        28.0004
  -9866322.48048  -7643469.35245
                  21916963.8754                                   21916957.6524
                                                                        48.5004
        34.2504
  -6332635.87147  -4900706.02044
                  23067022.1564                                   23067019.3954
                                                                        43.7504
        27.5004
  -6892927.13346  -5338058.40244
                  24088268.9534                                   24088265.0634
                                                                        41.7504
        26.7504
 09 10  6  0  9  0.0000000  0  8G02G04G13G29G10G23G30G31
 -16797878.48048 -13032179.36747
                  20467658.6414                                   20467652.2154
                                                                        51.7504
        42.7504
  -7031011.18748  -5444097.25046
                  20947200.4224                                   20947196.2504
                                                                        52.2504
        41.0004
 -19469194.93048 -15100360.05146
                  21449733.7034                                   21449729.1604
                                                                        50.0004
        36.0004
  -5232202.20347  -4029741.98844
                  23669590.1024                                   23669586.4964
                                                                        44.5004
        29.2504
  -3559271.64846  -2751231.52044
                  23525913.5394                                   23525909.7304
                                                                        41.5004
        26.5004
  -9924216.09848  -7688581.24245
                  21905947.8594                                   21905941.0204
                                                                        48.2504
        34.2504
  -6361552.14147  -4923238.19144
                  23061520.1254                                   23061516.6214
                                                                        43.0004
        26.5004
  -6930182.46146  -5367088.54744
                  24081179.1484                                   24081175.8324
                                                                        41.5004
        25.7504
 09 10  6  0  9 30.0000000  0  8G02G04G13G29G10G23G30G31
 -16920178.66848 -13127478.21547
                  20444385.5234                                   20444379.1564
                                                                        51.5004
        43.0004
  -7069762.48448  -5474293.07046
                  20939826.1644                                   20939822.3164
                                                                        53.2504
        41.2504
 -19611820.29348 -15211496.66846
                  21422593.1174                                   21422588.3014
                                                                        50.5004
        36.2504
  -5419976.89147  -4176059.98444
                  23633857.7664                                   23633854.2544
                                                                        44.5004
        27.0004
  -3768811.39146  -2914509.23044
                  23486039.2974                                   23486035.5474
                                                                        41.0004
        28.2504
  -9981496.71548  -7733215.46945
                  21895047.3594                                   21895040.6684
                                                                        48.5004
        34.5004
  -6389917.66447  -4945341.19944
                  23056122.1884                                   23056118.5824
                                                                        43.0004
        27.7504
  -6966928.61346  -5395721.93044
                  24074187.8134                                   24074183.5164
                                                                        41.5004
        25.2504
 09 10  6  0 10  0.0000000  0  8G02G04G13G29G10G23G30G31
 -17041903.18048 -13222328.47347
                  20421221.9454                                   20421215.9024
                                                                        52.2504
        42.5004
  -7108002.88348  -5504090.77046
                  20932549.2734                                   20932545.1954
                                                                        53.0004
        40.7504
 -19753807.34448 -15322135.94546
                  21395573.7114                                   21395569.0664
                                                                        50.7504
        36.5004
  -5607408.32847  -4322110.44144
                  23598190.6564                                   23598187.4224
                                                                        44.0004
        28.5004
  -3978134.27747  -3077617.97744
                  23446206.4304                                   23446202.3714
                                                                        42.2504
        27.7504
 -10038159.00048  -7777367.89145
                  21884264.8524                                   21884258.2504
                                                                        49.0004
        35.0004
  -6417728.54747  -4967012.02344
                  23050829.5314                                   23050826.4804
                                                                        43.7504
        27.0004
  -7003160.82046  -5423954.82044
                  24067292.5314                                   24067288.4844
                                                                        41.7504
        24.5004
 09 10  6  0 10 30.0000000  0  8G02G04G13G29G10G23G30G31
 -15587628.01248 -12089127.04347
                  20697961.5784                                   20697955.3014
                                                                        52.0004
        42.5004
  -5570313.88348  -4305891.53946
                  21225161.7504                                   21225157.9574
                                                                        53.0004
        41.0004
 -18319730.93448 -14204673.84846
                  21668469.5864                                   21668464.6914
                                                                        51.2504
        36.2504
  -4219069.09447  -3240287.62144
                  23862383.0944                                   23862379.3094
                                                                        44.5004
        28.5004
  -2611812.39547  -2012951.56644
                  23706208.5394                                   23706205.2974
                                                                        42.2504
        28.2504
  -8518783.55548  -6593439.00845
                  22173392.3834                                   22173385.5354
                                                                        49.7504
        34.5004
  -4869566.98847  -3760652.36744
                  23345434.7584                                   23345431.9184
                                                                        44.5004
        28.5004
  -5463461.07847  -4224188.82444
                  24360287.8364                                   24360283.5514
                                                                        42.5004
        24.5004
 09 10  6  0 11  0.0000000  0  8G02G04G13G29G10G23G30G31
 -15708202.18748 -12183080.94547
                  20675017.2034                                   20675010.7384
                                                                        52.7504
        43.0004
  -5607541.18048  -4334899.81646
                  21218077.6644                                   21218073.8244
                                                                        53.5004
        40.5004
 -18460440.14148 -14314317.38746
                  21641693.3524                                   21641689.0474
                                                                        50.7504
        36.2504
  -4405810.62947  -3385800.48044
                  23826846.9454                                   23826843.9224
                                                                        43.7504
        27.7504
  -2820698.84847  -2175720.28544
                  23666458.9844                                   23666455.4064
                                                                        42.5004
        29.0004
  -8574217.21948  -6636634.06645
                  22162843.6024                                   22162837.1214
                                                                        49.5004
        34.0004
  -4896279.68747  -3781467.44544
                  23340351.9774                                   23340348.6884
                                                                        43.5004
        28.2504
  -5498675.51646  -4251628.68744
                  24353587.5784                                   24353582.0164
                                                                        41.0004
        26.2504
 09 10  6  0 11 30.0000000  0  9G02G04G05G13G29G10G23G30G31
 -15828205.84448 -12276590.29747
                  20652180.9924                                   20652174.4774
                                                                        53.0004
        42.7504
  -5644270.62948  -4363520.18046
                  21211088.0164                                   21211084.4614
                                                                        52.7504
        40.5004
   2892234.86757   2275487.08654
                  24438958.7114                                   24438954.9494
                                                                        43.0004
        28.7504
 -18600514.06248 -14423465.88346
                  21615038.1724                                   21615033.6024
                                                                        51.0004
        36.2504
  -4592209.62147  -3531046.40244
                  23791375.9694                                   23791373.0474
                                                                        43.0004
        27.7504
  -3029370.23047  -2338321.34844
                  23626750.7424                                   23626747.2504
                                                                        42.5004
        29.2504
  -8629045.03148  -6679357.00445
                  22152410.1724                                   22152404.0204
                                                                        49.5004
        34.7504
  -4922453.99247  -3801863.01245
                  23335371.2814                                   23335367.8444
                                                                        43.5004
        30.2504
  -5533390.53146  -4278679.33244
                  24346980.9774                                   24346975.7894
                                                                        40.5004
        25.7504
 09 10  6  0 12  0.0000000  0  9G02G04G05G13G29G10G23G30G31
 -15947646.14548 -12369660.66847
                  20629452.1644                                   20629446.0594
                                                                        52.2504
        43.0004
  -5680511.61348  -4391759.90646
                  21204191.9384                                   21204188.0634
                                                                        53.5004
        40.2504
   2682685.54747   2112202.02744
                  24399083.1564                                   24399078.8524
                                                                        43.2504
        28.2504
 -18739959.50048 -14532124.63346
                  21588502.5314                                   21588498.1054
                                                                        50.7504
        36.2504
  -4778271.62547  -3676029.76244
                  23755969.9924                                   23755966.8914
                                                                        43.7504
        28.7504
  -3237832.41847  -2500759.32445
                  23587081.3444                                   23587077.6254
                                                                        42.7504
        30.2504
  -8683276.55148  -6721615.32445
                  22142090.3364                                   22142083.9534
                                                                        49.0004
        34.0004
  -4948100.40647  -3821847.23445
                  23330490.8674                                   23330488.1174
                                                                        44.0004
        30.7504
  -5567616.32447  -4305348.75044
                  24340467.9694                                   24340462.7894
                                                                        42.5004
        25.5004
 09 10  6  0 12 30.0000000  0  9G02G04G05G13G29G10G23G30G31
 -16066531.02048 -12462298.21947
                  20606829.1644                                   20606822.8444
                                                                        52.0004
        43.0004
  -5716274.87148  -4419627.35246
                  21197386.5004                                   21197382.2424
                                                                        52.7504
        41.2504
   2473259.47347   1949012.98844
                  24359230.1024                                   24359226.1804
                                                                        43.2504
        28.5004
 -18878783.85548 -14640299.46146
                  21562085.4614                                   21562080.9844
                                                                        51.0004
        36.2504
  -4964003.32047  -3820755.70345
                  23720625.9224                                   23720623.3324
                                                                        44.7504
        30.0004
  -3446092.20347  -2663039.62544
                  23547450.4844                                   23547447.1024
                                                                        43.7504
        28.5004
  -8736922.19548  -6763417.10545
                  22131881.8284                                   22131874.8164
                                                                        48.2504
        33.5004
  -4973230.36347  -3841429.06244
                  23325708.8834                                   23325705.4574
                                                                        42.7504
        28.2504
  -5601364.27047  -4331645.85244
                  24334046.0704                                   24334041.2974
                                                                        42.5004
        26.0004
 09 10  6  0 13  0.0000000  0  9G02G04G05G13G29G10G23G30G31
 -16184857.39548 -12554500.57847
                  20584312.2034                                   20584306.1724
                                                                        52.5004
        43.2504
  -5751559.37948  -4447121.75846
                  21190672.0164                                   21190667.6024
                                                                        53.2504
        40.7504
   2263961.78947   1785923.94544
                  24319401.9144                                   24319398.1054
                                                                        43.0004
        28.2504
 -19016982.89548 -14747986.98046
                  21535786.6884                                   21535782.2854
                                                                        51.2504
        36.5004
  -5149399.44947  -3965220.19545
                  23685346.7974                                   23685343.4224
                                                                        46.0004
        30.5004
  -3654144.80947  -2825158.52044
                  23507859.7194                                   23507855.3834
                                                                        45.2504
        28.7504
  -8789980.95348  -6804761.58245
                  22121784.9694                                   22121777.9224
                                                                        49.2504
        34.2504
  -4997844.37147  -3860608.81244
                  23321025.2034                                   23321021.9224
                                                                        43.2504
        28.0004
  -5634633.53947  -4357569.95344
                  24327714.8524                                   24327710.0394
                                                                        42.0004
        26.5004
 09 10  6  0 13 30.0000000  0  9G02G04G05G13G29G10G23G30G31
 -16302620.66448 -12646264.15247
                  20561902.8984                                   20561896.5124
                                                                        52.0004
        43.0004
  -5786363.79348  -4474242.08646
                  21184048.9144                                   21184045.2194
                                                                        51.5004
        40.7504
   2054797.13746   1622938.49644
                  24279599.2734                                   24279595.6214
                                                                        41.0004
        27.2504
 -19154552.23448 -14855183.85546
                  21509608.1414                                   21509603.8204
                                                                        51.5004
        36.5004
  -5334454.85247  -4109419.21144
                  23650131.8284                                   23650128.0984
                                                                        45.2504
        29.0004
  -3861985.00047  -2987111.93044
                  23468308.9064                                   23468304.5004
                                                                        46.0004
        28.0004
  -8842451.26648  -6845647.52345
                  22111800.5474                                   22111793.5904
                                                                        49.5004
        34.2504
  -5021942.10247  -3879386.28144
                  23316439.5234                                   23316436.0084
                                                                        43.5004
        27.2504
  -5667423.70346  -4383120.74244
                  24321475.3984                                   24321470.6334
                                                                        40.0004
        26.0004
 09 10  6  0 14  0.0000000  0  9G02G04G05G13G29G10G23G30G31
 -16419812.68448 -12737582.61747
                  20539601.7894                                   20539595.7974
                                                                        52.5004
        43.0004
  -5820682.52748  -4500983.97746
                  21177518.3524                                   21177514.5004
                                                                        51.7504
        41.0004
   1845774.88347   1460063.96144
                  24239824.1724                                   24239820.1454
                                                                        43.2504
        28.5004
 -19291482.96548 -14961883.11346
                  21483551.4224                                   21483546.9454
                                                                        51.5004
        36.7504
  -5519159.27347  -4253344.72745
                  23614983.9844                                   23614980.3364
                                                                        45.2504
        30.0004
  -4069602.98047  -3148892.19544
                  23428800.8444                                   23428796.0984
                                                                        45.0004
        27.0004
  -8894327.73048  -6886070.72745
                  22101928.6254                                   22101921.7074
                                                                        49.7504
        33.5004
  -5045519.19147  -3897758.02744
                  23311952.5704                                   23311949.3014
                                                                        43.2504
        26.7504
  -5699729.62546  -4408294.19944
                  24315327.7114                                   24315323.1484
                                                                        39.7504
        26.0004
 09 10  6  0 14 30.0000000  0  9G02G04G05G13G29G10G23G30G31
 -16536432.67248 -12828455.32447
                  20517409.9064                                   20517403.4574
                                                                        52.0004
        43.0004
  -5854516.84848  -4527348.37546
                  21171080.0944                                   21171076.1724
                                                                        53.0004
        40.5004
   1636897.50847   1297302.39544
                  24200076.3054                                   24200072.3134
                                                                        44.5004
        29.0004
 -19427773.87148 -15068083.82046
                  21457615.7814                                   21457611.2154
                                                                        51.5004
        36.0004
  -5703510.62947  -4396995.14544
                  23579903.0784                                   23579899.1604
                                                                        44.7504
        29.5004
  -4276996.74647  -3310497.73045
                  23389334.5004                                   23389331.0124
                                                                        44.2504
        30.0004
  -8945611.47348  -6926032.08245
                  22092169.7194                                   22092162.9734
                                                                        49.5004
        33.5004
  -5068577.88347  -3915725.83244
                  23307564.5864                                   23307561.3554
                                                                        42.5004
        25.0004
  -5731553.09046  -4433091.70743
                  24309271.6414                                   24309266.9494
                                                                        41.0004
        22.7504
 09 10  6  0 15  0.0000000  0  9G02G04G05G13G29G10G23G30G31
 -16652480.43448 -12918882.14147
                  20495326.9454                                   20495320.3554
                                                                        52.5004
        43.0004
  -5887869.30148  -4553337.31646
                  21164732.8204                                   21164729.3364
                                                                        53.2504
        41.0004
   1428165.93447   1134654.41844
                  24160355.3444                                   24160351.5084
                                                                        42.5004
        27.7504
 -19563423.91448 -15173785.15246
                  21431802.4064                                   21431797.9414
                                                                        51.2504
        36.7504
  -5887506.82047  -4540368.78544
                  23544889.6484                                   23544885.8094
                                                                        44.2504
        28.2504
  -4484164.82147  -3471927.35845
                  23349912.2734                                   23349908.6994
                                                                        44.2504
        30.0004
  -8996305.04748  -6965533.54345
                  22082522.6484                                   22082516.4344
                                                                        49.0004
        33.5004
  -5091121.94947  -3933292.64844
                  23303274.5944                                   23303271.3164
                                                                        43.0004
        27.7504
  -5762897.28946  -4457515.77744
                  24303306.6564                                   24303302.0514
                                                                        40.7504
        25.0004
 09 10  6  0 15 30.0000000  0  9G02G04G05G13G29G10G23G30G31
 -16767951.90648 -13008859.91447
                  20473353.1414                                   20473347.1804
                                                                        52.0004
        42.7504
  -5920738.38748  -4578949.58646
                  21158478.1884                                   21158474.4614
                                                                        51.0004
        41.0004
   1219584.92247    972123.75444
                  24120663.6804                                   24120660.3364
                                                                        42.0004
        27.5004
 -19698428.63748 -15278983.62546
                  21406112.1644                                   21406107.3204
                                                                        51.7504
        36.2504
  -6071142.42647  -4683461.41444
                  23509944.5634                                   23509941.5594
                                                                        43.5004
        29.7504
  -4691101.81247  -3633176.90245
                  23310533.2734                                   23310529.5824
                                                                        43.5004
        30.5004
  -9046406.98448  -7004574.00845
                  22072988.8134                                   22072981.9694
                                                                        49.0004
        33.0004
  -5113151.07447  -3950458.16444
                  23299083.1884                                   23299079.1884
                                                                        43.0004
        26.7504
  -5793761.43446  -4481565.77344
                  24297433.9534                                   24297428.9344
                                                                        39.2504
        24.5004
 09 10  6  0 16  0.0000000  0  9G02G04G05G13G29G10G23G30G31
 -16882845.78948 -13098387.60947
                  20451489.4064                                   20451483.6604
                                                                        52.2504
        43.0004
  -5953125.19948  -4604186.08646
                  21152315.1094                                   21152311.4224
                                                                        52.2504
        40.2504
   1011157.42646    809712.75044
                  24081001.2664                                   24080997.5274
                                                                        41.2504
        28.5004
 -19832786.10248 -15383677.72746
                  21380544.8054                                   21380540.2814
                                                                        51.5004
        37.0004
  -6254414.24247  -4826270.58245
                  23475069.5944                                   23475066.3014
                                                                        43.7504
        30.7504
  -4897805.18747  -3794244.43045
                  23271199.0314                                   23271194.9144
                                                                        43.0004
        31.0004
  -9095918.30948  -7043154.26245
                  22063567.2974                                   22063560.2544
                                                                        48.7504
        33.5004
  -5134667.48847  -3967224.20344
                  23294988.6334                                   23294984.5354
                                                                        43.5004
        27.7504
  -5824147.13746  -4505242.94544
                  24291652.2584                                   24291647.1374
                                                                        41.0004
        25.7504
 09 10  6  0 16 30.0000000  0  9G02G04G05G13G29G10G23G30G31
 -16997161.40648 -13187464.68047
                  20429736.1484                                   20429729.9184
                                                                        51.5004
        43.0004
  -5985031.55548  -4629048.20746
                  21146243.4454                                   21146240.0314
                                                                        52.5004
        40.5004
    802885.03947    647422.66444
                  24041368.5314                                   24041364.7704
                                                                        42.2504
        28.7504
 -19966495.20748 -15487866.62946
                  21355100.7424                                   21355095.8094
                                                                        51.7504
        36.5004
  -6437319.95347  -4968794.48445
                  23440263.7274                                   23440260.4574
                                                                        44.0004
        30.5004
  -5104272.75447  -3955128.25045
                  23231909.3284                                   23231905.9924
                                                                        42.7504
        30.0004
  -9144840.66848  -7081275.58645
                  22054257.5474                                   22054250.5514
                                                                        48.7504
        33.5004
  -5155674.00447  -3983592.87544
                  23290990.5704                                   23290987.8324
                                                                        42.2504
        28.2504
  -5854056.57447  -4528548.98844
                  24285960.5004                                   24285955.4734
                                                                        43.7504
        26.7504
 09 10  6  0 17  0.0000000  0  9G02G04G05G13G29G10G23G30G31
 -17110898.12948 -13276090.70347
                  20408092.7814                                   20408086.6564
                                                                        52.5004
        43.0004
  -6016459.39848  -4653537.52046
                  21140263.3134                                   21140259.5474
                                                                        51.0004
        41.0004
    594769.33647    485254.67244
                  24001765.0084                                   24001760.9344
                                                                        44.0004
        28.5004
 -20099554.78148 -15591549.39546
                  21329780.0394                                   21329775.7274
                                                                        51.5004
        36.5004
  -6619857.72747  -5111031.70745
                  23405528.0164                                   23405525.2584
                                                                        43.5004
        31.0004
  -5310502.84847  -4115826.99244
                  23192664.5704                                   23192660.9614
                                                                        44.5004
        29.7504
  -9193176.23848  -7118939.68445
                  22045059.8284                                   22045052.9104
                                                                        50.0004
        34.0004
  -5176174.31247  -3999567.16044
                  23287089.7194                                   23287086.5084
                                                                        43.7504
        28.7504
  -5883492.77046  -4551486.25844
                  24280358.4064                                   24280354.0634
                                                                        39.7504
        25.5004
 09 10  6  0 17 30.0000000  0  9G02G04G05G13G29G10G23G30G31
 -17224052.41448 -13364262.87947
                  20386559.7274                                   20386553.7974
                                                                        52.2504
        43.0004
  -6047407.56248  -4677653.05546
                  21134373.8914                                   21134370.4804
                                                                        51.7504
        40.2504
    386815.01647    323212.43045
                  23962193.3134                                   23962189.2424
                                                                        43.0004
        31.2504
 -20231960.55948 -15694722.68046
                  21304584.2424                                   21304579.7274
                                                                        51.2504
        36.2504
  -6802021.74647  -5252977.67244
                  23370862.5394                                   23370859.7234
                                                                        43.7504
        29.7504
  -5516490.12147  -4276336.57444
                  23153466.7584                                   23153463.0744
                                                                        42.7504
        29.0004
  -9240923.83648  -7156145.60545
                  22035973.4534                                   22035967.0434
                                                                        49.2504
        33.5004
  -5196167.70747  -4015146.38344
                  23283285.2504                                   23283282.1214
                                                                        43.7504
        28.2504
  -5912454.73846  -4574054.03544
                  24274847.5864                                   24274842.6644
                                                                        41.2504
        24.0004
 09 10  6  0 18  0.0000000  0  9G02G04G05G13G29G10G23G30G31
 -17336622.01248 -13451979.48847
                  20365139.0944                                   20365132.7424
                                                                        52.0004
        42.5004
  -6077876.60248  -4701395.21946
                  21128576.0394                                   21128572.4574
                                                                        51.7504
        40.5004
    179025.46547    161298.57844
                  23922651.3984                                   23922648.1294
                                                                        42.7504
        29.2504
 -20363710.41048 -15797384.89546
                  21279513.1484                                   21279508.1604
                                                                        51.5004
        37.0004
  -6983808.62947  -5394629.78144
                  23336269.8594                                   23336266.5204
                                                                        42.0004
        28.2504
  -5722231.27047  -4436654.34044
                  23114315.6954                                   23114311.8674
                                                                        43.7504
        29.5004
  -9288083.85248  -7192893.64845
                  22026999.1484                                   22026992.3794
                                                                        49.0004
        34.0004
  -5215656.38347  -4030332.41044
                  23279576.1884                                   23279573.3794
                                                                        43.0004
        27.0004
  -5940943.82846  -4596253.32044
                  24269425.9064                                   24269421.3164
                                                                        38.0004
        24.5004
 09 10  6  0 18 30.0000000  0  9G02G04G05G13G29G10G23G30G31
 -17448606.90648 -13539240.43747
                  20343828.5234                                   20343822.6374
                                                                        52.5004
        43.0004
  -6107868.26248  -4724765.30946
                  21122868.8594                                   21122865.1644
                                                                        52.0004
        40.0004
    -28598.18446      -486.05144
                  23883142.2034                                   23883138.1764
                                                                        41.5004
        28.7504
 -20494803.31648 -15899535.16046
                  21254566.9144                                   21254562.0044
                                                                        51.0004
        37.0004
  -7165216.18047  -5535986.29345
                  23301749.2584                                   23301745.8754
                                                                        43.5004
        30.0004
  -5927724.87547  -4596779.24245
                  23075211.5164                                   23075207.9884
                                                                        43.5004
        30.2504
  -9334658.51248  -7229185.58245
                  22018136.4774                                   22018129.8634
                                                                        49.5004
        34.0004
  -5234643.50447  -4045127.66044
                  23275963.7814                                   23275960.5664
                                                                        43.2504
        27.0004
  -5968962.55146  -4618086.11344
                  24264093.6564                                   24264089.4774
                                                                        40.0004
        24.2504
 09 10  6  0 19  0.0000000  0  9G02G04G05G13G29G10G23G30G31
 -15984581.97348 -12398441.80547
                  20622423.4924                                   20622417.2504
                                                                        52.5004
        43.0004
  -4561963.19548  -3520163.80946
                  21417044.7734                                   21417040.9804
                                                                        52.5004
        40.5004
   1339373.51646   1065466.00444
                  24143458.3054                                   24143453.9964
                                                                        41.5004
        28.5004
 -19049813.37948 -14773568.93746
                  21529539.3594                                   21529534.8634
                                                                        51.7504
        36.7504
  -5770815.74647  -4449440.47744
                  23567094.5234                                   23567091.5124
                                                                        43.2504
        29.7504
  -4557541.44147  -3529103.80945
                  23335949.0634                                   23335945.4344
                                                                        44.0004
        30.2504
  -7805227.62548  -6037421.25445
                  22309177.4384                                   22309170.9304
                                                                        48.7504
        33.7504
  -3677710.85247  -2831933.45344
                  23572238.2584                                   23572234.2974
                                                                        43.0004
        26.0004
  -4421092.22747  -3411953.38744
                  24558644.1414                                   24558639.7274
                                                                        42.0004
        25.2504
 09 10  6  0 19 30.0000000  0  9G02G04G05G13G29G10G23G30G31
 -16095387.71548 -12484783.92247
                  20601337.9534                                   20601331.8244
                                                                        52.0004
        42.7504
  -4590998.82448  -3542788.96946
                  21411519.3914                                   21411515.5474
                                                                        52.2504
        40.5004
   1132095.18847    903950.49245
                  24104014.5164                                   24104010.5944
                                                                        43.2504
        30.0004
 -19179581.55948 -14874686.96146
                  21504845.3984                                   21504840.7274
                                                                        51.5004
        37.0004
  -5951450.24647  -4590194.60245
                  23532721.6884                                   23532717.9104
                                                                        43.5004
        30.0004
  -4762525.59847  -3688831.76245
                  23296941.4694                                   23296938.0204
                                                                        45.2504
        31.0004
  -7850629.72348  -6072799.50445
                  22300537.4924                                   22300530.7894
                                                                        49.2504
        33.0004
  -3695695.93446  -2845947.82444
                  23568815.7584                                   23568811.7194
                                                                        41.5004
        26.0004
  -4448170.40247  -3433053.25444
                  24553491.6334                                   24553486.2774
                                                                        42.5004
        25.5004
 09 10  6  0 20  0.0000000  0  9G02G04G05G13G29G10G23G30G31
 -16205605.28548 -12570667.76247
                  20580364.3914                                   20580357.8164
                                                                        52.5004
        43.0004
  -4619561.60548  -3565045.71146
                  21406083.7034                                   21406080.6094
                                                                        51.0004
        40.7504
    924989.75447    742569.73445
                  24064604.0944                                   24064599.5984
                                                                        43.2504
        30.0004
 -19308688.26248 -14975289.56646
                  21480277.2344                                   21480272.2544
                                                                        51.5004
        37.0004
  -6131697.23447  -4730646.79745
                  23498421.6484                                   23498418.1914
                                                                        43.5004
        31.0004
  -4967254.41447  -3848360.70345
                  23257983.3914                                   23257979.9494
                                                                        44.5004
        31.5004
  -7895450.66048  -6107724.93445
                  22292008.6484                                   22292001.7854
                                                                        49.7504
        33.0004
  -3713186.68446  -2859576.86744
                  23565487.1954                                   23565484.2504
                                                                        41.7504
        26.0004
  -4474784.39847  -3453791.41444
                  24548427.1414                                   24548422.4064
                                                                        43.0004
        26.0004
 09 10  6  0 20 30.0000000  0  9G02G04G05G13G29G10G23G30G31
 -16315232.52048 -12656091.62147
                  20559502.7814                                   20559496.6024
                                                                        51.7504
        43.0004
  -4647651.82848  -3586934.18446
                  21400738.5634                                   21400734.6024
                                                                        52.5004
        40.2504
    718060.19547    581325.94945
                  24025226.2274                                   24025222.6884
                                                                        44.7504
        30.0004
 -19437130.87548 -15075374.70746
                  21455835.5944                                   21455830.5744
                                                                        51.5004
        37.0004
  -6311552.83647  -4870794.00845
                  23464196.5084                                   23464192.7194
                                                                        44.0004
        31.2504
  -5171724.49647  -4007688.05945
                  23219073.6724                                   23219070.2234
                                                                        46.2504
        30.7504
  -7939691.16848  -6142198.05545
                  22283589.7344                                   22283582.9734
                                                                        48.7504
        33.0004
  -3730185.19946  -2872822.42644
                  23562252.2504                                   23562249.0234
                                                                        41.5004
        26.7504
  -4500935.42247  -3474168.82044
                  24543450.3834                                   24543446.2274
                                                                        43.5004
        26.5004
 09 10  6  0 21  0.0000000  0  9G02G04G05G13G29G10G23G30G31
 -16424269.48048 -12741055.46547
                  20538753.7504                                   20538747.8594
                                                                        52.7504
        43.0004
  -4675271.92648  -3608456.33646
                  21395482.5474                                   21395478.8324
                                                                        51.7504
        40.2504
    511308.53146    420220.81645
                  23985882.2734                                   23985878.8794
                                                                        41.5004
        30.0004
 -19564908.64548 -15174941.79346
                  21431519.8594                                   21431515.1454
                                                                        51.2504
        37.0004
  -6491014.91847  -5010634.53545
                  23430045.7894                                   23430042.4384
                                                                        43.5004
        31.2504
  -5375933.65247  -4166812.05545
                  23180214.1174                                   23180210.3444
                                                                        44.0004
        31.2504
  -7983353.35248  -6176220.52045
                  22275281.0944                                   22275274.6254
                                                                        49.0004
        33.0004
  -3746694.77747  -2885686.99244
                  23559110.4064                                   23559107.6564
                                                                        43.0004
        27.0004
  -4526625.96147  -3494187.41444
                  24538561.6724                                   24538557.1214
                                                                        42.5004
        25.7504
 09 10  6  0 21 30.0000000  0  9G02G04G05G13G29G10G23G30G31
 -16532715.89848 -12825559.16847
                  20518117.2034                                   20518110.9344
                                                                        52.5004
        43.2504
  -4702423.95748  -3629613.74646
                  21390315.7734                                   21390311.4024
                                                                        51.7504
        40.0004
    304735.96147    259255.25045
                  23946573.2344                                   23946569.5124
                                                                        44.2504
        31.0004
 -19692021.32848 -15273990.62146
                  21407330.8054                                   21407326.8244
                                                                        51.5004
        36.5004
  -6670081.95347  -5150167.24245
                  23395969.9774                                   23395966.8634
                                                                        43.2504
        30.7504
  -5579880.85247  -4325731.91045
                  23141403.8204                                   23141400.4574
                                                                        45.0004
        30.5004
  -8026439.36748  -6209794.03145
                  22267081.8674                                   22267075.6914
                                                                        48.7504
        32.2504
  -3762718.96547  -2898173.35544
                  23556061.1804                                   23556057.4024
                                                                        43.0004
        26.2504
  -4551858.93046  -3513849.45344
                  24533759.6884                                   24533755.5984
                                                                        40.7504
        24.2504
 09 10  6  0 22  0.0000000  0  9G02G04G05G13G29G10G23G30G31
 -16640570.36748 -12909601.55147
                  20497593.1254                                   20497586.9224
                                                                        52.5004
        43.7504
  -4729109.09848  -3650407.34846
                  21385237.5314                                   21385234.3014
                                                                        51.5004
        40.0004
     98345.01247     98431.16044
                  23907298.2584                                   23907294.4534
                                                                        44.0004
        29.7504
 -19818466.80948 -15372519.55946
                  21383269.0704                                   21383264.7154
                                                                        51.5004
        36.7504
  -6848750.70347  -5289389.60945
                  23361970.6414                                   23361966.9264
                                                                        43.5004
        31.0004
  -5783562.81647  -4484445.10245
                  23102644.9844                                   23102641.1764
                                                                        45.5004
        31.5004
  -8068950.70348  -6242919.74245
                  22258992.5944                                   22258985.6054
                                                                        49.5004
        32.0004
  -3778259.67647  -2910282.89844
                  23553103.4924                                   23553100.6374
                                                                        42.2504
        26.5004
  -4576636.80946  -3533156.87543
                  24529044.4534                                   24529039.8324
                                                                        41.2504
        22.7504
 09 10  6  0 22 30.0000000  0  9G02G04G05G13G29G10G23G30G31
 -16747831.34848 -12993181.60947
                  20477182.1024                                   20477175.7774
                                                                        52.2504
        43.2504
  -4755327.82448  -3670837.50846
                  21380248.5394                                   21380244.8594
                                                                        51.5004
        39.7504
   -107861.15647    -62248.85545
                  23868058.3134                                   23868054.5124
                                                                        44.0004
        31.0004
 -19944243.00448 -15470526.97346
                  21359334.9534                                   21359330.0744
                                                                        51.2504
        37.2504
  -7027017.44147  -5428298.76644
                  23328047.3444                                   23328043.5824
                                                                        42.5004
        28.7504
  -5986976.45747  -4642949.22745
                  23063936.5634                                   23063932.5704
                                                                        46.0004
        31.0004
  -8110888.12948  -6275598.23045
                  22251011.9614                                   22251005.2774
                                                                        48.0004
        33.0004
  -3793319.14846  -2922017.53144
                  23550237.8914                                   23550235.0004
                                                                        41.5004
        27.5004
  -4600959.89846  -3552109.92243
                  24524416.4304                                   24524411.7114
                                                                        40.5004
        22.0004
 09 10  6  0 23  0.0000000  0  9G02G04G05G13G29G10G23G30G31
 -16854498.14148 -13076298.63747
                  20456883.8984                                   20456877.8404
                                                                        52.7504
        43.2504
  -4781082.44148  -3690906.07446
                  21375347.2424                                   21375343.3244
                                                                        51.5004
        40.0004
   -313880.96547   -222783.70745
                  23828854.1884                                   23828850.3674
                                                                        45.0004
        30.0004
 -20069349.26248 -15568012.39146
                  21335527.9614                                   21335523.5204
                                                                        51.0004
        37.0004
  -7204880.13747  -5566893.05544
                  23294201.4694                                   23294197.6954
                                                                        43.2504
        29.5004
  -6190119.96547  -4801242.87545
                  23025279.9304                                   23025275.3404
                                                                        45.0004
        31.2504
  -8152253.72748  -6307831.15645
                  22243140.4534                                   22243133.6054
                                                                        49.0004
        32.7504
  -3807900.75447  -2933379.84444
                  23547463.7274                                   23547460.5044
                                                                        42.5004
        26.7504
  -4624831.29746  -3570710.98443
                  24519873.8754                                   24519868.5354
                                                                        41.2504
        23.0004
 09 10  6  0 23 30.0000000  0  9G02G04G05G13G29G10G23G30G31
 -16960573.23448 -13158954.54747
                  20436698.5864                                   20436692.2154
                                                                        53.0004
        43.5004
  -4806377.13748  -3710616.23446
                  21370534.1724                                   21370530.4734
                                                                        51.2504
        40.0004
   -519715.05947   -383173.89845
                  23789685.0314                                   23789680.9534
                                                                        44.5004
        30.0004
 -20193787.09848 -15664976.93746
                  21311848.2734                                   21311843.6134
                                                                        51.0004
        36.5004
  -7382338.93447  -5705172.66045
                  23260431.9454                                   23260428.7304
                                                                        43.5004
        30.5004
  -6392993.77047  -4959326.34845
                  22986673.6954                                   22986669.7074
                                                                        45.7504
        31.7504
  -8193051.93048  -6339621.95345
                  22235377.0394                                   22235370.4264
                                                                        49.0004
        32.7504
  -3822009.57447  -2944373.77044
                  23544778.7344                                   23544775.8874
                                                                        44.0004
        27.5004
  -4648255.79346  -3588963.80944
                  24515416.4694                                   24515411.5204
                                                                        39.7504
        24.5004
 09 10  6  0 24  0.0000000  0  9G02G04G05G13G29G10G23G30G31
 -17066060.90648 -13241152.74247
                  20416624.9064                                   20416619.0904
                                                                        53.0004
        43.5004
  -4831219.38348  -3729973.82446
                  21365806.7664                                   21365803.3204
                                                                        51.0004
        39.7504
   -725366.83247   -543422.02744
                  23750550.5864                                   23750546.8054
                                                                        43.5004
        29.5004
 -20317560.93048 -15761424.07446
                  21288294.8204                                   21288290.2464
                                                                        50.5004
        36.5004
  -7559396.60947  -5843139.60945
                  23226738.9614                                   23226735.2304
                                                                        42.5004
        31.2504
  -6595600.70747  -5117201.81645
                  22948118.8364                                   22948115.6884
                                                                        45.2504
        32.0004
  -8233290.22348  -6370976.46145
                  22227719.8674                                   22227713.3164
                                                                        49.2504
        33.5004
  -3835654.21547  -2955005.95744
                  23542182.3284                                   23542179.4774
                                                                        44.7504
        28.0004
  -4671241.67246  -3606874.90643
                  24511042.0554                                   24511037.3874
                                                                        38.7504
        22.5004
 09 10  6  0 24 30.0000000  0  9G02G04G05G13G29G10G23G30G31
 -17170955.95348 -13322889.10947
                  20396664.3284                                   20396658.0354
                                                                        52.7504
        43.2504
  -4855605.79748  -3748976.24246
                  21361166.1564                                   21361162.6454
                                                                        50.2504
        40.0004
   -930829.50847   -703522.77045
                  23711452.9844                                   23711448.6564
                                                                        43.0004
        30.2504
 -20440664.68448 -15857349.08246
                  21264869.0634                                   21264864.3954
                                                                        51.0004
        36.5004
  -7736046.18047  -5980788.60245
                  23193123.6644                                   23193120.2664
                                                                        45.0004
        32.0004
  -6797934.26247  -5274864.32045
                  22909616.1024                                   22909612.6024
                                                                        44.7504
        31.7504
  -8272965.28948  -6401892.07445
                  22220169.7344                                   22220163.2384
                                                                        49.0004
        33.2504
  -3848832.68447  -2965274.86744
                  23539674.1414                                   23539671.0984
                                                                        44.5004
        26.5004
  -4693786.18746  -3624442.07043
                  24506752.0784                                   24506747.8524
                                                                        38.0004
        23.2504
 09 10  6  0 25  0.0000000  0  9G02G04G05G13G29G10G23G30G31
 -17275255.06248 -13404161.13747
                  20376816.7814                                   20376810.4844
                                                                        52.7504
        43.2504
  -4879535.77748  -3767622.98046
                  21356612.2424                                   21356608.8284
                                                                        50.5004
        40.0004
  -1136098.59047   -863472.69145
                  23672391.2274                                   23672387.6764
                                                                        42.7504
        31.2504
 -20563095.25448 -15952749.53146
                  21241571.4064                                   21241566.6724
                                                                        51.0004
        36.7504
  -7912282.53947  -6118115.56645
                  23159587.2894                                   23159583.8164
                                                                        44.5004
        31.5004
  -6999989.19947  -5432309.69545
                  22871166.5234                                   22871162.5124
                                                                        44.2504
        33.2504
  -8312076.81248  -6432368.58245
                  22212726.7344                                   22212720.1294
                                                                        48.7504
        32.2504
  -3861545.53947  -2975180.96944
                  23537255.5314                                   23537251.7974
                                                                        42.5004
        26.5004
  -4715889.41846  -3641665.38744
                  24502545.9384                                   24502541.5314
                                                                        40.7504
        24.2504
 09 10  6  0 25 30.0000000  0  9G02G04G05G13G29G10G23G30G31
 -17378958.89848 -13484969.29747
                  20357082.5394                                   20357076.5354
                                                                        53.5004
        43.0004
  -4903012.37148  -3785916.44546
                  21352144.8444                                   21352141.4384
                                                                        50.7504
        39.7504
  -1341173.13347  -1023270.98045
                  23633367.0394                                   23633363.2894
                                                                        44.7504
        32.2504
 -20684852.60248 -16047625.39146
                  21218401.4924                                   21218396.5474
                                                                        51.0004
        37.0004
  -8088104.54347  -6255119.68445
                  23126129.4774                                   23126125.7814
                                                                        43.7504
        32.0004
  -7201764.56647  -5589537.22345
                  22832770.1414                                   22832765.6454
                                                                        45.5004
        32.0004
  -8350628.59048  -6462408.93445
                  22205390.6254                                   22205384.3204
                                                                        49.0004
        32.2504
  -3873797.11747  -2984727.66844
                  23534923.6884                                   23534920.1604
                                                                        42.5004
        24.2504
  -4737555.14546  -3658547.78544
                  24498423.5474                                   24498418.5394
                                                                        41.7504
        24.2504
 09 10  6  0 26  0.0000000  0 10G02G04G05G13G29G10G23G30G31G25
 -17482068.31248 -13565314.27747
                  20337461.4844                                   20337455.3984
                                                                        53.0004
        43.5004
  -4926038.17248  -3803858.65246
                  21347763.5634                                   21347760.0984
                                                                        50.5004
        39.7504
  -1546052.03947  -1182916.81245
                  23594379.6174                                   23594375.6844
                                                                        44.0004
        31.2504
 -20805936.92648 -16141976.79346
                  21195359.9844                                   21195355.0474
                                                                        51.5004
        37.0004
  -8263510.77347  -6391799.83645
                  23092750.4384                                   23092746.8404
                                                                        44.5004
        30.7504
  -7403259.22347  -5746546.00445
                  22794426.5944                                   22794422.6294
                                                                        45.5004
        31.2504
  -8388622.15248  -6492014.30145
                  22198161.0004                                   22198153.7774
                                                                        48.2504
        32.2504
  -3885591.35247  -2993917.98443
                  23532679.9614                                   23532675.6254
                                                                        42.5004
        23.7504
  -4758786.19547  -3675091.46944
                  24494383.6804                                   24494378.7304
                                                                        42.7504
        25.7504
   4499034.19556   3549800.91453
                  24091389.4694                                   24091385.3954
                                                                        40.0004
        21.5004
 09 10  6  0 26 30.0000000  0 10G02G04G05G13G29G10G23G30G31G25
 -17584586.00848 -13645198.18447
                  20317952.8444                                   20317946.3164
                                                                        52.7504
        43.5004
  -4948618.57448  -3821453.74646
                  21343466.5394                                   21343462.8484
                                                                        51.0004
        40.0004
  -1750737.16447  -1342411.64145
                  23555429.0784                                   23555425.0984
                                                                        44.5004
        32.5004
 -20926350.69548 -16235805.68746
                  21172446.2974                                   21172440.9304
                                                                        51.7504
        37.0004
  -8438502.20347  -6528156.76645
                  23059450.8284                                   23059447.3324
                                                                        44.2504
        31.2504
  -7604474.65647  -5903337.21945
                  22756136.5554                                   22756132.9064
                                                                        44.5004
        31.5004
  -8426063.78148  -6521189.59845
                  22191036.1094                                   22191029.5434
                                                                        48.5004
        32.5004
  -3896934.70347  -3002756.98444
                  23530520.8134                                   23530517.3204
                                                                        42.0004
        25.7504
  -4779588.93047  -3691301.37144
                  24490424.1954                                   24490420.1764
                                                                        43.5004
        26.2504
   4315130.25846   3406499.18443
                  24056393.8364                                   24056389.6134
                                                                        39.0004
        21.5004
 09 10  6  0 27  0.0000000  0  9G02G04G05G13G29G10G23G30G25
 -17686517.59448 -13724625.42247
                  20298556.0234                                   20298549.9804
                                                                        53.5004
        43.0004
  -4970761.61348  -3838708.07846
                  21339252.8524                                   21339249.2544
                                                                        51.0004
        38.7504
  -1955233.03547  -1501759.03145
                  23516514.7584                                   23516510.7584
                                                                        44.5004
        30.2504
 -21046099.09448 -16329116.11346
                  21149658.7424                                   21149653.9574
                                                                        51.5004
        37.0004
  -8613082.50047  -6664193.27045
                  23026229.4534                                   23026225.4654
                                                                        44.5004
        31.7504
  -7805414.76247  -6059913.91445
                  22717898.6094                                   22717895.1604
                                                                        45.2504
        32.5004
  -8462961.27348  -6549940.87545
                  22184014.6254                                   22184008.0084
                                                                        48.2504
        32.7504
  -3907836.40647  -3011251.81244
                  23528445.8594                                   23528442.6684
                                                                        43.5004
        25.7504
   4131522.14146   3263427.93843
                  24021453.7814                                   24021450.4264
                                                                        38.5004
        20.5004
 09 10  6  0 27 30.0000000  0  9G02G04G05G13G29G10G23G30G25
 -16212438.48048 -12575992.34447
                  20579063.7424                                   20579057.6724
                                                                        53.5004
        43.5004
  -3417047.69148  -2628021.90646
                  21634914.7424                                   21634910.8524
                                                                        51.0004
        39.5004
   -584109.60247   -433351.11745
                  23777430.7344                                   23777426.5944
                                                                        44.5004
        30.2504
 -19589757.07848 -15194304.14546
                  21426791.2584                                   21426786.4804
                                                                        51.0004
        37.0004
  -7211823.10247  -5572302.79345
                  23292879.8444                                   23292876.1454
                                                                        44.0004
        31.0004
  -6430649.73047  -4988668.41445
                  22979507.9844                                   22979504.1054
                                                                        45.5004
        33.0004
  -6923895.22748  -5350668.64545
                  22476889.2344                                   22476882.7504
                                                                        48.5004
        32.2504
  -2342878.55547  -1791804.13344
                  23826248.0004                                   23826244.5864
                                                                        44.5004
        26.0004
   5523639.17246   4348194.50843
                  24286364.7194                                   24286361.1094
                                                                        41.2504
        20.7504
 09 10  6  0 28  0.0000000  0  9G02G04G05G13G29G10G23G30G25
 -16313185.39148 -12654496.42647
                  20559892.5084                                   20559886.2384
                                                                        53.0004
        43.5004
  -3438310.52748  -2644590.37546
                  21630868.5704                                   21630865.1724
                                                                        51.5004
        39.7504
   -788209.25847   -592389.80945
                  23738592.1414                                   23738588.0004
                                                                        44.2504
        31.0004
 -19708162.20748 -15286567.85946
                  21404259.5394                                   21404254.6334
                                                                        51.0004
        37.0004
  -7385563.75447  -5707685.10945
                  23259818.6174                                   23259814.5634
                                                                        44.7504
        32.2504
  -6631021.75447  -5144802.42645
                  22941378.1724                                   22941374.6254
                                                                        45.2504
        32.5004
  -6959700.34448  -5378568.74245
                  22470075.5944                                   22470069.4964
                                                                        48.0004
        33.5004
  -2352895.30547  -1799609.39844
                  23824341.6484                                   23824338.7234
                                                                        44.5004
        27.5004
   5340641.46147   4205598.87943
                  24251542.4224                                   24251538.1024
                                                                        42.5004
        22.2504
 09 10  6  0 28 30.0000000  0  9G02G04G05G13G29G10G23G30G25
 -16413323.63748 -12732526.23047
                  20540836.7504                                   20540830.6414
                                                                        53.2504
        43.0004
  -3459120.46548  -2660805.93446
                  21626908.7344                                   21626904.9144
                                                                        50.7504
        39.0004
   -992092.16847   -751259.64145
                  23699794.8054                                   23699790.5824
                                                                        43.5004
        31.5004
 -19825878.76248 -15378295.02046
                  21381858.7034                                   21381854.2504
                                                                        51.5004
        36.2504
  -7558864.97747  -5842725.01645
                  23226839.7734                                   23226836.4414
                                                                        44.5004
        31.7504
  -6831090.95347  -5300700.49645
                  22903306.5164                                   22903302.8054
                                                                        45.0004
        32.2504
  -6994946.43748  -5406033.23845
                  22463368.8134                                   22463362.0824
                                                                        48.0004
        32.5004
  -2362458.35547  -1807061.12944
                  23822521.8204                                   23822519.1334
                                                                        44.5004
        26.5004
   5157968.94947   4063256.64844
                  24216780.1644                                   24216776.4654
                                                                        42.7504
        24.2504
 09 10  6  0 29  0.0000000  0  9G02G04G05G13G29G10G23G30G25
 -16512850.80948 -12810079.86747
                  20521897.2974                                   20521891.1334
                                                                        53.2504
        43.5004
  -3479477.07048  -2676668.22746
                  21623034.7584                                   21623031.2934
                                                                        50.7504
        39.2504
  -1195754.15247   -909957.26245
                  23661039.0704                                   23661034.7664
                                                                        43.7504
        31.7504
 -19942903.73048 -15469483.30146
                  21359589.5704                                   21359584.8444
                                                                        50.5004
        36.7504
  -7731722.28547  -5977419.04345
                  23193946.4694                                   23193942.5084
                                                                        44.5004
        32.0004
  -7030852.73447  -5456359.05545
                  22865292.8444                                   22865289.3094
                                                                        46.0004
        32.7504
  -7029633.57848  -5433062.16045
                  22456768.0634                                   22456761.2304
                                                                        49.0004
        32.2504
  -2371568.88747  -1814160.27044
                  23820788.7344                                   23820785.8984
                                                                        44.2504
        26.7504
   4975626.52047   3921171.64543
                  24182081.8524                                   24182077.5204
                                                                        42.5004
        22.7504
 09 10  6  0 29 30.0000000  0  9G02G04G05G13G29G10G23G30G25
 -16611768.96548 -12887158.96547
                  20503073.8444                                   20503067.7664
                                                                        53.2504
        44.0004
  -3499384.79348  -2692180.75446
                  21619246.7194                                   21619242.8914
                                                                        51.5004
        39.0004
  -1399196.24647  -1068483.58245
                  23622325.5234                                   23622321.5434
                                                                        42.7504
        32.0004
 -20059239.30948 -15560134.39146
                  21337451.6094                                   21337447.1174
                                                                        50.2504
        37.2504
  -7904136.15647  -6111767.52345
                  23161137.4224                                   23161133.6094
                                                                        43.7504
        32.5004
  -7230307.61347  -5611778.48445
                  22827337.9454                                   22827334.1564
                                                                        45.5004
        33.0004
  -7063766.33248  -5459659.10545
                  22450272.6094                                   22450265.7504
                                                                        48.2504
        31.7504
  -2380232.33247  -1820911.02344
                  23819139.7974                                   23819136.9224
                                                                        44.7504
        25.0004
   4793613.93446   3779343.66043
                  24147445.9144                                   24147442.4884
                                                                        41.0004
        22.7504
 09 10  6  0 30  0.0000000  0  9G02G04G05G13G29G10G23G30G25
 -16710080.89548 -12963765.64147
                  20484365.7424                                   20484359.9184
                                                                        53.5004
        43.2504
  -3518849.07448  -2707347.78146
                  21615542.5474                                   21615539.3554
                                                                        51.5004
        39.7504
  -1602419.39147  -1226839.25045
                  23583653.2734                                   23583649.2894
                                                                        44.5004
        34.0004
 -20174887.72748 -15650250.04346
                  21315444.4534                                   21315439.9614
                                                                        50.5004
        37.0004
  -8076107.26647  -6245770.96945
                  23128412.4774                                   23128408.8714
                                                                        43.2504
        32.5004
  -7429456.66847  -5766959.59445
                  22789441.7734                                   22789437.6094
                                                                        46.0004
        33.5004
  -7097350.16448  -5485828.30945
                  22443881.8984                                   22443874.7894
                                                                        48.0004
        31.5004
  -2388455.30547  -1827318.55944
                  23817574.5784                                   23817572.0634
                                                                        44.5004
        25.5004
   4611931.12946   3637772.62944
                  24112872.7584                                   24112869.4574
                                                                        40.5004
        24.0004
 09 10  6  0 30 30.0000000  0  9G02G04G05G13G29G10G23G30G25
 -16807789.23848 -13039901.98447
                  20465772.2974                                   20465766.3134
                                                                        53.0004
        43.5004
  -3537874.32048  -2722172.63746
                  21611922.3134                                   21611918.5744
                                                                        51.7504
        39.2504
  -1805424.66847  -1385025.19945
                  23545022.3204                                   23545018.7974
                                                                        43.7504
        32.0004
 -20289851.11748 -15739831.91846
                  21293567.8524                                   21293563.0474
                                                                        50.5004
        37.0004
  -8247636.19947  -6379429.80145
                  23095770.8674                                   23095768.0354
                                                                        42.7504
        32.2504
  -7628300.64547  -5921903.00045
                  22751602.6954                                   22751598.5904
                                                                        45.5004
        33.0004
  -7130390.03547  -5511573.65645
                  22437594.5234                                   22437587.5784
                                                                        47.5004
        31.2504
  -2396243.60247  -1833387.33643
                  23816093.2894                                   23816089.6094
                                                                        43.7504
        22.7504
   4430577.73846   3496458.34443
                  24078362.2584                                   24078359.1724
                                                                        39.7504
        21.5004
 09 10  6  0 31  0.0000000  0  9G02G04G05G13G29G10G23G30G25
 -16904895.49648 -13115569.15647
                  20447293.8444                                   20447287.6524
                                                                        53.2504
        43.2504
  -3556464.37148  -2736658.35246
                  21608384.7344                                   21608381.2034
                                                                        51.5004
        39.0004
  -2008211.95347  -1543041.24245
                  23506433.1334                                   23506428.8754
                                                                        45.2504
        32.0004
 -20404130.71948 -15828880.96546
                  21271821.0704                                   21271816.7114
                                                                        50.2504
        38.0004
  -8418722.66447  -6512743.89145
                  23063214.5554                                   23063211.3794
                                                                        44.5004
        32.5004
  -7826839.11747  -6076608.34845
                  22713821.8284                                   22713817.7664
                                                                        46.0004
        31.5004
  -7162889.53147  -5536897.94945
                  22431410.2114                                   22431403.6564
                                                                        47.5004
        31.2504
  -2403602.37147  -1839121.41443
                  23814692.6024                                   23814688.7814
                                                                        44.5004
        22.5004
   4249554.73846   3355401.57843
                  24043913.9454                                   24043910.8524
                                                                        41.2504
        22.0004
 09 10  6  0 31 30.0000000  0  9G02G04G05G13G29G10G23G30G25
 -17001398.94948 -13190766.61347
                  20428929.6024                                   20428923.7194
                                                                        51.7504
        43.5004
  -3574620.95748  -2750806.30946
                  21604929.8754                                   21604925.9964
                                                                        52.0004
        39.0004
  -2210779.04747  -1700885.77345
                  23467886.3204                                   23467882.0554
                                                                        45.0004
        32.5004
 -20517726.09448 -15917396.83246
                  21250204.5234                                   21250199.9774
                                                                        50.5004
        37.5004
  -8589364.07447  -6645711.20345
                  23030742.8284                                   23030739.0944
                                                                        43.2504
        32.5004
  -8025069.99247  -6231073.99645
                  22676099.7584                                   22676096.0474
                                                                        45.5004
        32.5004
  -7194850.82047  -5561802.85245
                  22425327.9144                                   22425321.5434
                                                                        47.5004
        31.7504
  -2410534.25447  -1844522.87544
                  23813374.1644                                   23813369.7304
                                                                        45.0004
        24.2504
   4068865.10247   3214604.52343
                  24009530.7504                                   24009526.6094
                                                                        43.0004
        22.5004
 09 10  6  0 32  0.0000000  0  9G02G04G05G13G29G10G23G30G25
 -17097300.47348 -13265495.05147
                  20410680.3134                                   20410674.3094
                                                                        53.2504
        43.2504
  -3592346.97748  -2764618.76646
                  21601556.3284                                   21601552.8134
                                                                        51.7504
        39.2504
  -2413124.90247  -1858557.89545
                  23429381.0784                                   23429376.7274
                                                                        44.7504
        32.0004
 -20630637.47348 -16005379.73846
                  21228718.5314                                   21228713.6764
                                                                        51.0004
        37.2504
  -8759558.90647  -6778330.53545
                  22998355.3834                                   22998352.3014
                                                                        43.7504
        32.2504
  -8222991.55147  -6385298.59045
                  22638436.8914                                   22638433.1454
                                                                        47.0004
        33.0004
  -7226277.65248  -5586291.31645
                  22419347.8834                                   22419341.3914
                                                                        48.0004
        31.5004
  -2417043.62947  -1849595.04344
                  23812135.4144                                   23812131.3404
                                                                        45.5004
        27.7504
   3888510.47347   3074068.44543
                  23975210.2194                                   23975205.8914
                                                                        42.5004
        22.0004
 09 10  6  0 32 30.0000000  0  9G02G04G05G13G29G10G23G30G25
 -17192599.92248 -13339754.35547
                  20392545.2274                                   20392538.8714
                                                                        53.0004
        43.7504
  -3609644.67248  -2778097.49646
                  21598264.8754                                   21598261.1094
                                                                        51.0004
        38.7504
  -2615247.90647  -2016056.34045
                  23390918.1484                                   23390913.6684
                                                                        44.7504
        31.5004
 -20742864.39148 -16092829.30546
                  21207362.2194                                   21207357.3594
                                                                        50.0004
        37.5004
  -8929305.09847  -6910600.28945
                  22966054.0944                                   22966050.5514
                                                                        43.0004
        32.5004
  -8420602.32447  -6539281.02045
                  22600832.7114                                   22600828.7504
                                                                        46.0004
        33.7504
  -7257171.76648  -5610364.63745
                  22413468.6954                                   22413462.3364
                                                                        48.0004
        32.2504
  -2423134.07447  -1854340.80944
                  23810976.1484                                   23810972.7544
                                                                        44.0004
        26.7504
   3708493.22347   2933795.29743
                  23940954.2584                                   23940950.6374
                                                                        43.2504
        22.5004
 09 10  6  0 33  0.0000000  0  9G02G04G05G13G29G10G23G30G25
 -17287297.10548 -13413544.37147
                  20374525.1564                                   20374518.7664
                                                                        53.0004
        42.7504
  -3626515.66048  -2791243.73046
                  21595054.5314                                   21595050.8444
                                                                        51.0004
        38.2504
  -2817145.89547  -2173379.53545
                  23352498.3674                                   23352494.1214
                                                                        45.5004
        31.5004
 -20854406.37948 -16179745.10246
                  21186136.6094                                   21186131.8094
                                                                        49.7504
        37.5004
  -9098600.18447  -7042518.48045
                  22933837.9534                                   22933834.4494
                                                                        43.0004
        31.7504
  -8617900.05947  -6693019.48045
                  22563287.5634                                   22563284.5394
                                                                        45.7504
        32.5004
  -7287535.17248  -5634024.44545
                  22407690.9224                                   22407684.3364
                                                                        48.5004
        32.0004
  -2428808.18047  -1858762.19144
                  23809896.2274                                   23809893.0664
                                                                        42.5004
        26.0004
   3528816.24247   2793787.30944
                  23906762.8594                                   23906758.9884
                                                                        43.0004
        25.0004
 09 10  6  0 33 30.0000000  0  9G02G04G05G13G29G10G23G30G25
 -17381391.96548 -13486865.05547
                  20356619.4384                                   20356613.3054
                                                                        52.5004
        43.0004
  -3642962.54748  -2804059.49646
                  21591924.7664                                   21591920.9574
                                                                        51.0004
        38.0004
  -3018817.82847  -2330526.59045
                  23314121.5314                                   23314117.9804
                                                                        44.5004
        33.7504
 -20965263.30948 -16266127.11746
                  21165040.7424                                   21165036.4104
                                                                        49.5004
        36.7504
  -9267442.74647  -7174084.05545
                  22901708.2344                                   22901704.3914
                                                                        43.5004
        31.0004
  -8814883.05947  -6846512.68045
                  22525803.1024                                   22525799.3054
                                                                        46.5004
        33.5004
  -7317370.96548  -5657273.10545
                  22402013.7584                                   22402006.7814
                                                                        48.5004
        32.5004
  -2434069.90647  -1862862.21144
                  23808894.9224                                   23808891.6804
                                                                        42.2504
        26.0004
   3349481.73447   2654046.17644
                  23872636.2424                                   23872632.8634
                                                                        43.0004
        25.2504
 09 10  6  0 34  0.0000000  0  9G02G04G05G13G29G10G23G30G25
 -17474888.64148 -13559719.58647
                  20338827.2584                                   20338821.3834
                                                                        52.0004
        43.0004
  -3658991.63748  -2816549.69946
                  21588874.3594                                   21588870.4144
                                                                        50.5004
        38.5004
  -3220265.75447  -2487499.00445
                  23275787.4844                                   23275783.7424
                                                                        45.7504
        34.0004
 -21075439.41048 -16351978.59046
                  21144075.2504                                   21144071.2894
                                                                        49.0004
        37.0004
  -9435834.79347  -7305298.57045
                  22869664.5784                                   22869660.4304
                                                                        43.7504
        31.5004
  -9011553.64847  -6999762.48445
                  22488378.1564                                   22488374.4734
                                                                        46.2504
        33.2504
  -7346685.64847  -5680115.70345
                  22396434.8984                                   22396428.3134
                                                                        47.2504
        31.7504
  -2438926.57046  -1866646.61343
                  23807970.2194                                   23807967.1804
                                                                        40.5004
        23.5004
   3170487.96546   2514570.52044
                  23838574.8284                                   23838571.3134
                                                                        40.7504
        24.0004
 09 10  6  0 34 30.0000000  0  9G02G04G05G13G29G10G23G30G25
 -17567780.02048 -13632102.45747
                  20321150.9144                                   20321144.7814
                                                                        51.7504
        43.2504
  -3674597.80148  -2828710.33646
                  21585904.9844                                   21585901.2274
                                                                        48.5004
        38.2504
  -3421480.59047  -2644289.80145
                  23237497.8754                                   23237493.6374
                                                                        45.5004
        34.0004
 -21184926.82848 -16437293.44146
                  21123240.1174                                   21123235.8364
                                                                        49.2504
        37.0004
  -9603766.66847  -7436154.51245
                  22837707.7974                                   22837704.4694
                                                                        44.0004
        32.2504
  -9207902.19147  -7152761.32445
                  22451014.1884                                   22451010.4734
                                                                        45.7504
        33.0004
  -7375473.71947  -5702547.97345
                  22390956.8594                                   22390949.8754
                                                                        47.5004
        31.0004
  -2443374.09046  -1870112.16043
                  23807123.8834                                   23807120.8554
                                                                        41.0004
        23.0004
   2991844.60946   2375367.94143
                  23804579.8284                                   23804576.8754
                                                                        40.7504
        22.5004
 09 10  6  0 35  0.0000000  0  9G02G04G05G13G29G10G23G30G25
 -17660067.13348 -13704014.48047
                  20303589.0164                                   20303582.7664
                                                                        51.5004
        43.0004
  -3689784.06648  -2840543.80946
                  21583014.9774                                   21583011.4264
                                                                        49.5004
        38.0004
  -3622461.68047  -2800898.44545
                  23199251.7894                                   23199248.2584
                                                                        44.7504
        33.2504
 -21293726.63348 -16522072.44946
                  21102536.2894                                   21102531.9694
                                                                        48.5004
        37.2504
  -9771237.48847  -7566651.23445
                  22805839.7034                                   22805835.7074
                                                                        44.5004
        33.0004
  -9403928.25847  -7305508.98045
                  22413712.0634                                   22413708.1254
                                                                        46.5004
        33.5004
  -7403739.38347  -5724573.16845
                  22385577.7344                                   22385571.5554
                                                                        47.5004
        31.0004
  -2447417.25446  -1873262.63744
                  23806354.1724                                   23806351.2584
                                                                        41.0004
        24.2504
   2813553.33646   2236439.75043
                  23770652.2194                                   23770648.5984
                                                                        41.0004
        23.5004
 09 10  6  0 35 30.0000000  0  9G02G04G05G13G29G10G23G30G25
 -16176329.08248 -12547854.85947
                  20585935.1564                                   20585928.5824
                                                                        52.0004
        42.5004
  -2129134.57048  -1624453.28146
                  21879996.5084                                   21879992.7274
                                                                        49.2504
        38.0004
  -2247782.76647  -1729720.02345
                  23460844.8134                                   23460840.7894
                                                                        44.7504
        33.2504
 -19826417.37548 -15378714.58646
                  21381756.1094                                   21381751.8404
                                                                        48.5004
        37.5004
  -8362822.27347  -6469184.87145
                  23073852.2114                                   23073848.7584
                                                                        43.7504
        33.7504
  -8024205.51647  -6230400.37945
                  22676264.1954                                   22676260.3284
                                                                        46.2504
        34.0004
  -5856066.54747  -4518594.32445
                  22680090.2274                                   22680083.2384
                                                                        47.5004
        30.2504
   -875641.88347   -648502.60544
                  24105453.7974                                   24105449.7774
                                                                        42.5004
        24.0004
   4211040.12146   3325390.53943
                  24036585.2504                                   24036581.2464
                                                                        41.7504
        23.0004
 09 10  6  0 36  0.0000000  0  9G02G04G05G13G29G10G23G30G25
 -16267415.29348 -12618831.17247
                  20568601.8914                                   20568595.4734
                                                                        51.7504
        43.0004
  -2143495.27748  -1635643.43446
                  21877263.5394                                   21877259.6764
                                                                        49.7504
        39.0004
  -2448298.55947  -1885966.06245
                  23422688.3594                                   23422683.5634
                                                                        46.5004
        33.0004
 -19933848.63348 -15462427.24246
                  21361312.7664                                   21361307.9614
                                                                        49.0004
        37.2504
  -8529372.37547  -6598964.14145
                  23042158.7504                                   23042155.1764
                                                                        44.5004
        33.5004
  -8219587.77047  -6382646.24645
                  22639084.3524                                   22639080.7504
                                                                        46.0004
        34.2504
  -5883301.72347  -4539816.53145
                  22674907.8054                                   22674900.8404
                                                                        47.0004
        31.0004
   -878893.99247   -651036.64844
                  24104835.2424                                   24104830.7664
                                                                        43.5004
        24.7504
   4033452.78947   3187010.87144
                  24002792.0084                                   24002787.8484
                                                                        42.0004
        24.2504
 09 10  6  0 36 30.0000000  0  9G02G04G05G13G29G10G23G30G25
 -16357898.20748 -12689337.34447
                  20551383.7814                                   20551377.5474
                                                                        51.7504
        43.0004
  -2157443.94548  -1646512.51646
                  21874609.2894                                   21874605.6684
                                                                        50.0004
        38.5004
  -2648576.65247  -2042026.89145
                  23384576.4384                                   23384572.2274
                                                                        47.0004
        33.5004
 -20040592.63348 -15545604.34446
                  21340999.8754                                   21340995.1484
                                                                        49.5004
        37.0004
  -8695456.45747  -6728380.30145
                  23010553.6884                                   23010550.2584
                                                                        44.5004
        33.0004
  -8414642.59047  -6534636.96145
                  22601966.6954                                   22601963.0204
                                                                        46.0004
        34.2504
  -5910022.79347  -4560638.14545
                  22669822.5634                                   22669816.1564
                                                                        47.0004
        31.7504
   -881753.12147   -653264.48044
                  24104290.7664                                   24104286.7664
                                                                        44.2504
        24.2504
   3856223.58246   3048910.23844
                  23969065.9454                                   23969062.3914
                                                                        41.2504
        24.7504
 09 10  6  0 37  0.0000000  0  9G02G04G05G13G29G10G23G30G25
 -16447778.62148 -12759374.03947
                  20534279.8284                                   20534273.5004
                                                                        51.5004
        42.7504
  -2170983.00848  -1657062.42646
                  21872033.1484                                   21872029.3634
                                                                        48.5004
        38.5004
  -2848615.50447  -2197901.28145
                  23346510.1804                                   23346505.8914
                                                                        46.5004
        33.7504
 -20146650.01648 -15628246.43046
                  21320817.9304                                   21320813.2344
                                                                        49.0004
        37.0004
  -8861072.68747  -6857431.79745
                  22979037.5314                                   22979034.2624
                                                                        44.5004
        33.0004
  -8609368.98447  -6686371.76245
                  22564911.5004                                   22564907.8914
                                                                        46.2504
        34.7504
  -5936232.80147  -4581061.53945
                  22664835.1884                                   22664828.8324
                                                                        46.5004
        31.7504
   -884223.09846   -655189.12544
                  24103820.6954                                   24103817.1214
                                                                        41.7504
        26.5004
   3679354.62146   2911090.31644
                  23935408.8754                                   23935405.1134
                                                                        40.5004
        26.7504
 09 10  6  0 37 30.0000000  0  9G02G04G05G13G29G10G23G30G25
 -16537058.18048 -12828942.52347
                  20517290.6954                                   20517284.3674
                                                                        51.0004
        43.2504
  -2184115.94148  -1667295.87546
                  21869533.8834                                   21869530.1454
                                                                        48.2504
        37.7504
  -3048414.73047  -2353588.93045
                  23308489.3914                                   23308485.6134
                                                                        46.7504
        33.5004
 -20252022.31248 -15710354.70346
                  21300766.1484                                   21300761.6954
                                                                        48.7504
        37.5004
  -9026220.67647  -6986118.50845
                  22947610.4534                                   22947607.2424
                                                                        44.7504
        33.0004
  -8803765.94547  -6837849.85245
                  22527918.6024                                   22527915.2274
                                                                        46.5004
        34.0004
  -5961935.66847  -4601089.73445
                  22659944.1484                                   22659937.6524
                                                                        47.0004
        31.7504
   -886308.80147   -656814.28544
                  24103424.0164                                   24103420.1054
                                                                        42.0004
        24.7504
   3502847.04746   2773552.01244
                  23901820.2274                                   23901816.7154
                                                                        41.5004
        24.7504
 09 10  6  0 38  0.0000000  0  9G02G04G05G13G29G10G23G30G25
 -16625738.19948 -12898043.88347
                  20500415.6334                                   20500409.2584
                                                                        51.5004
        43.5004
  -2196846.55148  -1677215.82046
                  21867111.3364                                   21867107.8444
                                                                        49.2504
        37.7504
  -3247974.23047  -2509089.80145
                  23270514.1094                                   23270510.1134
                                                                        47.0004
        34.0004
 -20356710.58248 -15791929.97746
                  21280844.6174                                   21280839.9304
                                                                        49.2504
        37.5004
  -9190899.72347  -7114439.83645
                  22916273.8204                                   22916269.9344
                                                                        45.7504
        34.0004
  -8997832.85947  -6989070.77045
                  22490989.0864                                   22490985.5984
                                                                        47.0004
        34.5004
  -5987134.82847  -4620725.45745
                  22655148.9304                                   22655141.9774
                                                                        46.2504
        32.2504
   -888014.92646   -658143.71944
                  24103098.7664                                   24103096.1604
                                                                        40.0004
        24.7504
   3326701.64546   2636295.90643
                  23868301.5234                                   23868297.3714
                                                                        41.2504
        23.5004
 09 10  6  0 38 30.0000000  0  9G02G04G05G13G29G10G23G30G25
 -16713816.79748 -12966676.55147
                  20483654.6644                                   20483648.5744
                                                                        51.0004
        43.2504
  -2209175.14848  -1686822.52346
                  21864765.3754                                   21864761.2854
                                                                        48.5004
        37.7504
  -3447290.64547  -2664401.34845
                  23232586.1254                                   23232581.7154
                                                                        47.7504
        34.2504
 -20460712.31248 -15872970.25846
                  21261053.7504                                   21261048.5314
                                                                        49.2504
        37.2504
  -9355106.01247  -7242392.76645
                  22885026.2974                                   22885022.4184
                                                                        46.0004
        33.5004
  -9191566.05147  -7140031.68445
                  22454123.1724                                   22454119.0394
                                                                        46.5004
        34.2504
  -6011831.18447  -4639969.37145
                  22650449.4224                                   22650442.3404
                                                                        47.0004
        30.5004
   -889342.93046   -659178.52744
                  24102845.8444                                   24102843.3554
                                                                        41.5004
        24.2504
   3150922.88746   2499325.49644
                  23834851.2034                                   23834847.6564
                                                                        40.0004
        24.2504
 09 10  6  0 39  0.0000000  0  9G02G04G05G13G29G10G23G30G25
 -16801293.83648 -13034840.50847
                  20467008.3364                                   20467002.0124
                                                                        51.2504
        42.7504
  -2221103.24248  -1696117.14146
                  21862495.3754                                   21862491.6524
                                                                        49.5004
        38.2504
  -3646361.05948  -2819521.21945
                  23194704.1334                                   23194700.1604
                                                                        48.0004
        34.0004
 -20564027.12948 -15953475.30146
                  21241393.7114                                   21241388.6454
                                                                        49.7504
        37.5004
  -9518836.97747  -7369975.33245
                  22853869.0784                                   22853865.6414
                                                                        45.2504
        32.5004
  -9384963.00847  -7290730.58245
                  22417320.7814                                   22417316.8014
                                                                        46.2504
        34.0004
  -6036026.71547  -4658823.00845
                  22645845.4774                                   22645838.6994
                                                                        47.0004
        31.2504
   -890295.62147   -659920.88744
                  24102664.8524                                   24102662.3634
                                                                        42.2504
        24.0004
   2975513.76646   2362643.10543
                  23801472.2114                                   23801468.1294
                                                                        39.7504
        22.7504
 09 10  6  0 39 30.0000000  0  9G02G04G05G13G29G10G23G30G25
 -16888171.46548 -13102537.38347
                  20450476.1564                                   20450469.5664
                                                                        51.7504
        43.2504
  -2232635.38348  -1705103.21546
                  21860301.0784                                   21860297.1024
                                                                        50.7504
        38.2504
  -3845186.38748  -2974450.07045
                  23156868.9224                                   23156864.8164
                                                                        48.0004
        34.0004
 -20666658.63748 -16033447.93446
                  21221863.6414                                   21221858.5984
                                                                        50.0004
        37.5004
  -9682092.77747  -7497187.67245
                  22822802.8054                                   22822799.0124
                                                                        45.2504
        34.0004
  -9578024.15247  -7441167.78545
                  22380582.4534                                   22380578.4144
                                                                        46.0004
        34.5004
  -6059726.14547  -4677290.08645
                  22641335.6174                                   22641328.7344
                                                                        46.2504
        30.7504
   -890878.89147   -660375.34443
                  24102553.9924                                   24102550.3324
                                                                        42.5004
        22.5004
   2800474.35247   2226248.77344
                  23768163.3594                                   23768159.1054
                                                                        43.0004
        25.0004
 09 10  6  0 40  0.0000000  0  9G02G04G05G13G29G10G23G30G25
 -16974449.60548 -13169767.10947
                  20434057.7194                                   20434051.4104
                                                                        51.5004
        43.0004
  -2243773.18748  -1713782.04746
                  21858181.6174                                   21858177.3874
                                                                        50.0004
        38.2504
  -4043763.97747  -3129185.81245
                  23119080.7504                                   23119076.7934
                                                                        47.0004
        33.7504
 -20768604.74248 -16112886.43046
                  21202463.5784                                   21202458.8594
                                                                        50.0004
        37.5004
  -9844871.06647  -7624027.94545
                  22791826.8754                                   22791823.2114
                                                                        44.5004
        33.0004
  -9770747.23447  -7591341.53945
                  22343908.3364                                   22343904.7034
                                                                        45.7504
        34.7504
  -6082931.60247  -4695372.26245
                  22636919.7034                                   22636912.6094
                                                                        44.7504
        31.0004
   -891095.80947   -660544.34043
                  24102512.5004                                   24102508.7894
                                                                        43.0004
        23.0004
   2625807.52047   2090144.75044
                  23734925.2974                                   23734921.7814
                                                                        42.7504
        25.0004
 09 10  6  0 40 30.0000000  0  9G02G04G05G13G29G10G23G30G25
 -17060130.12148 -13236531.13747
                  20417753.3284                                   20417747.1914
                                                                        52.2504
        42.7504
  -2254520.95348  -1722156.91846
                  21856136.2974                                   21856132.5474
                                                                        49.7504
        37.5004
  -4242094.14147  -3283728.73445
                  23081339.9774                                   23081335.6684
                                                                        47.2504
        33.7504
 -20869868.58248 -16191793.27046
                  21183193.7584                                   21183189.3364
                                                                        50.2504
        36.7504
 -10007171.58247  -7750495.83645
                  22760942.6724                                   22760938.2854
                                                                        46.0004
        33.0004
  -9963132.22747  -7741251.89545
                  22307298.4454                                   22307295.0044
                                                                        46.5004
        35.0004
  -6105647.90247  -4713073.27345
                  22632596.4454                                   22632589.6564
                                                                        45.2504
        30.0004
   -890951.30947   -660431.73844
                  24102540.0634                                   24102536.0784
                                                                        43.5004
        25.0004
   2451513.79746   1954331.51243
                  23701758.1884                                   23701754.5234
                                                                        41.7504
        23.2504
 09 10  6  0 41  0.0000000  0  9G02G04G05G13G29G10G23G30G25
 -17145211.71948 -13302828.46947
                  20401562.9614                                   20401556.5664
                                                                        52.2504
        43.2504
  -2264879.14148  -1730228.25446
                  21854164.8594                                   21854160.9964
                                                                        50.0004
        37.0004
  -4440173.73447  -3438076.40245
                  23043646.4144                                   23043642.3284
                                                                        47.5004
        34.0004
 -20970447.80148 -16270166.65646
                  21164054.3594                                   21164049.9494
                                                                        49.7504
        37.0004
 -10168991.25847  -7876589.09445
                  22730149.1884                                   22730144.9694
                                                                        45.0004
        33.0004
 -10155175.29347  -7890895.80945
                  22270754.2274                                   22270750.6024
                                                                        47.0004
        35.0004
  -6127875.46947  -4730393.45345
                  22628366.5314                                   22628359.6054
                                                                        45.7504
        30.5004
   -890447.55547   -660039.16444
                  24102636.3754                                   24102632.3134
                                                                        44.0004
        24.5004
   2277597.21947   1818812.10944
                  23668662.9144                                   23668659.3094
                                                                        42.5004
        25.0004
 09 10  6  0 41 30.0000000  0  9G02G04G05G13G29G10G23G30G25
 -17229692.73848 -13368657.82847
                  20385486.8444                                   20385480.6764
                                                                        51.7504
        43.0004
  -2274848.26248  -1737996.41046
                  21852268.0554                                   21852264.1844
                                                                        50.5004
        37.2504
  -4637998.98048  -3592225.88745
                  23006001.3754                                   23005997.2464
                                                                        48.0004
        34.7504
 -21070341.20748 -16348005.64846
                  21145044.9774                                   21145039.9224
                                                                        49.5004
        37.0004
 -10330325.76247  -8002304.27745
                  22699448.0944                                   22699444.5664
                                                                        46.0004
        33.2504
 -10346872.94947  -8040270.57045
                  22234275.2424                                   22234271.1214
                                                                        45.7504
        34.5004
  -6149614.94547  -4747333.28945
                  22624230.3914                                   22624223.0704
                                                                        46.0004
        30.7504
   -889586.05547   -659367.86343
                  24102800.4144                                   24102796.4144
                                                                        43.5004
        23.0004
   2104061.96946   1683589.86743
                  23635640.2734                                   23635636.8874
                                                                        41.2504
        22.7504
 09 10  6  0 42  0.0000000  0  9G02G04G05G13G29G10G23G30G25
 -17313573.94148 -13434019.78147
                  20369524.7344                                   20369518.6644
                                                                        52.2504
        43.5004
  -2284430.66848  -1745463.19946
                  21850444.6724                                   21850440.9774
                                                                        49.0004
        37.0004
  -4835568.76647  -3746176.32445
                  22968405.2894                                   22968401.3054
                                                                        47.5004
        34.7504
 -21169549.09048 -16425310.49646
                  21126166.3594                                   21126161.7074
                                                                        49.2504
        37.2504
 -10491173.32047  -8127639.89545
                  22668839.9614                                   22668836.3404
                                                                        45.7504
        34.0004
 -10538223.75847  -8189375.07045
                  22197862.2734                                   22197858.3914
                                                                        47.7504
        35.0004
  -6170869.63747  -4763895.36744
                  22620185.0004                                   22620178.1254
                                                                        46.0004
        29.5004
   -888370.51647   -658420.69543
                  24103030.9144                                   24103027.3554
                                                                        43.5004
        22.5004
   1930910.07847   1548666.30943
                  23602691.1334                                   23602687.0084
                                                                        42.7504
        23.7504
 09 10  6  0 42 30.0000000  0  8G02G04G05G13G29G10G23G25
 -17396853.73048 -13498913.12147
                  20353677.1024                                   20353670.5634
                                                                        52.2504
        43.2504
  -2293626.82448  -1752629.03546
                  21848694.6884                                   21848690.9494
                                                                        49.0004
        37.0004
  -5032879.24647  -3899924.71145
                  22930858.0164                                   22930853.8794
                                                                        47.5004
        34.5004
 -21268070.18448 -16502080.23846
                  21107418.8364                                   21107413.7934
                                                                        50.0004
        37.0004
 -10651530.60547  -8252593.57445
                  22638324.9694                                   22638321.3874
                                                                        47.2504
        34.0004
 -10729223.41847  -8338205.95745
                  22161515.8204                                   22161512.2544
                                                                        47.0004
        35.2504
  -6191640.15647  -4780080.18745
                  22616233.0554                                   22616226.2074
                                                                        45.0004
        30.7504
   1758145.95347   1414044.92244
                  23569815.1414                                   23569811.1524
                                                                        43.5004
        25.5004
 09 10  6  0 43  0.0000000  0  8G02G04G05G13G29G10G23G25
 -17479534.01248 -13563339.32447
                  20337943.6024                                   20337937.4654
                                                                        51.7504
        43.5004
  -2302440.48848  -1759496.84046
                  21847017.3444                                   21847013.6804
                                                                        49.0004
        37.2504
  -5229930.07047  -4053470.78545
                  22893360.6954                                   22893356.7114
                                                                        47.5004
        35.0004
 -21365905.96548 -16578315.94946
                  21088800.9384                                   21088796.1764
                                                                        50.0004
        37.2504
 -10811397.17247  -8377164.91045
                  22607903.3834                                   22607899.6604
                                                                        45.5004
        34.7504
 -10919871.96147  -8486763.25445
                  22125237.1174                                   22125232.9614
                                                                        45.7504
        35.5004
  -6211930.63347  -4795890.93745
                  22612371.5314                                   22612364.7504
                                                                        44.5004
        30.0004
   1585770.22747   1279726.15244
                  23537013.0474                                   23537008.7384
                                                                        43.5004
        24.0004
 09 10  6  0 43 30.0000000  0  8G02G04G05G13G29G10G23G25
 -17561610.75448 -13627295.23847
                  20322324.7504                                   20322318.5984
                                                                        52.5004
        43.2504
  -2310869.73848  -1766065.11346
                  21845413.7664                                   21845409.9574
                                                                        49.0004
        37.0004
  -5426715.41447  -4206809.97745
                  22855913.9534                                   22855909.8094
                                                                        47.7504
        34.2504
 -21463052.26648 -16654014.37946
                  21070314.6804                                   21070310.1804
                                                                        49.5004
        37.0004
 -10970767.14547  -8501349.42645
                  22577576.4064                                   22577572.5984
                                                                        46.2504
        34.7504
 -11110163.20347  -8635042.13745
                  22089025.2034                                   22089021.5124
                                                                        46.5004
        34.5004
  -6231739.57447  -4811326.48045
                  22608601.9844                                   22608595.3754
                                                                        44.5004
        30.2504
   1413789.53147   1145715.20344
                  23504285.2344                                   23504281.6134
                                                                        43.5004
        25.0004
 09 10  6  0 44  0.0000000  0  8G02G04G05G13G29G10G23G25
 -16067653.18748 -12463172.45347
                  20606615.4454                                   20606609.1094
                                                                        52.5004
        42.5004
   -743488.37148   -544729.05146
                  22143676.1724                                   22143672.6524
                                                                        48.7504
        36.5004
  -4047798.71147  -3132329.38345
                  23118312.6954                                   23118308.3524
                                                                        46.7504
        34.7504
 -19984077.80548 -15501566.73446
                  21351754.3204                                   21351749.3244
                                                                        48.7504
        37.5004
  -9554204.33247  -7397534.16445
                  22847139.2974                                   22847135.4264
                                                                        44.5004
        34.0004
  -9724661.10547  -7555430.08245
                  22352677.8204                                   22352674.2344
                                                                        47.0004
        35.5004
  -4675640.48047  -3598781.71544
                  22904717.9064                                   22904711.1954
                                                                        45.2504
        29.5004
   2817640.16047   2239624.82844
                  23771430.0084                                   23771425.5554
                                                                        43.2504
        25.7504
 09 10  6  0 44 30.0000000  0  8G02G04G05G13G29G10G23G25
 -16148507.54748 -12526175.81647
                  20591229.5164                                   20591223.3054
                                                                        52.2504
        42.5004
   -751139.14548   -550690.68746
                  22142220.2734                                   22142216.7154
                                                                        48.5004
        36.7504
  -4244031.66447  -3285238.14545
                  23080970.8674                                   23080966.6644
                                                                        46.5004
        34.5004
 -20079830.43748 -15576179.18746
                  21333533.1334                                   21333528.6884
                                                                        49.7504
        37.5004
  -9712558.05947  -7520926.65245
                  22817005.3054                                   22817001.5784
                                                                        46.7504
        34.0004
  -9914216.11748  -7703135.25846
                  22316607.0944                                   22316603.1294
                                                                        48.0004
        36.0004
  -4694477.78547  -3613460.14144
                  22901132.4774                                   22901126.3284
                                                                        44.2504
        28.5004
   2646472.60947   2106247.50844
                  23738858.0234                                   23738853.8364
                                                                        42.7504
        27.0004
 09 10  6  0 45  0.0000000  0  8G02G04G05G13G29G10G23G25
 -16228756.87148 -12588707.76647
                  20575958.4144                                   20575952.0164
                                                                        52.2504
        43.0004
   -758410.10548   -556356.40646
                  22140836.8674                                   22140833.2504
                                                                        48.5004
        37.2504
  -4439991.64147  -3437934.20745
                  23043681.1334                                   23043677.0824
                                                                        46.0004
        35.2504
 -20174891.47748 -15650252.72746
                  21315443.6644                                   21315439.2974
                                                                        49.0004
        36.7504
  -9870406.95747  -7643925.73845
                  22786967.6334                                   22786963.4884
                                                                        47.0004
        34.0004
 -10103405.73447  -7850555.74246
                  22280605.2664                                   22280601.5984
                                                                        47.7504
        36.0004
  -4712838.93747  -3627767.55544
                  22897639.3914                                   22897632.6174
                                                                        43.7504
        29.7504
   2475709.50447   1973185.41044
                  23706362.6804                                   23706358.5434
                                                                        42.5004
        24.5004
 09 10  6  0 45 30.0000000  0  8G02G04G05G13G29G10G23G25
 -16308407.17248 -12650772.89147
                  20560801.7664                                   20560795.0744
                                                                        52.7504
        43.0004
   -765308.39548   -561731.70346
                  22139524.0004                                   22139520.5124
                                                                        49.2504
        37.0004
  -4635681.93747  -3590420.13746
                  23006442.6174                                   23006438.6214
                                                                        47.5004
        36.0004
 -20269267.21948 -15723792.26646
                  21297484.7664                                   21297480.0004
                                                                        49.2504
        37.2504
 -10027754.19547  -7766533.89145
                  22757025.2034                                   22757021.1764
                                                                        45.7504
        34.0004
 -10292233.33247  -7997694.10546
                  22244672.5944                                   22244668.7584
                                                                        46.5004
        36.0004
  -4730731.90247  -3641710.12145
                  22894234.3834                                   22894227.7504
                                                                        45.0004
        30.0004
   2305347.92247   1840436.18044
                  23673943.7814                                   23673939.7074
                                                                        42.2504
        24.5004
 09 10  6  0 46  0.0000000  0  8G02G04G05G13G29G10G23G25
 -16387461.28948 -12712373.48847
                  20545757.7584                                   20545751.4734
                                                                        52.0004
        42.7504
   -771838.84448   -566820.39146
                  22138281.2034                                   22138277.5984
                                                                        49.2504
        37.0004
  -4831103.50047  -3742696.64145
                  22969254.6094                                   22969250.8444
                                                                        47.5004
        35.7504
 -20362960.93748 -15796800.36346
                  21279655.5004                                   21279650.3404
                                                                        49.5004
        37.0004
 -10184600.57447  -7888751.81645
                  22727178.9454                                   22727174.1884
                                                                        45.5004
        34.0004
 -10480699.77347  -8144551.04345
                  22208808.9924                                   22208804.6294
                                                                        47.2504
        35.0004
  -4748161.78147  -3655291.85944
                  22890917.6174                                   22890910.9414
                                                                        45.7504
        28.5004
   2135387.67647   1707999.74244
                  23641601.1024                                   23641598.1484
                                                                        42.5004
        26.0004
 09 10  6  0 46 30.0000000  0  8G02G04G05G13G29G10G23G25
 -16465921.17648 -12773511.05947
                  20530827.7034                                   20530821.2274
                                                                        51.5004
        42.2504
   -778005.59048   -571625.64846
                  22137108.0944                                   22137104.1804
                                                                        48.5004
        36.5004
  -5026256.42247  -3894763.82846
                  22932118.3204                                   22932114.4494
                                                                        46.7504
        36.0004
 -20455974.75448 -15869278.66046
                  21261955.2034                                   21261950.6724
                                                                        49.7504
        37.0004
 -10340946.00047  -8010579.44145
                  22697427.1024                                   22697422.9184
                                                                        46.0004
        34.0004
 -10668804.83647  -8291126.39145
                  22173013.2114                                   22173009.4414
                                                                        46.5004
        35.2504
  -4765133.07047  -3668516.23845
                  22887687.7664                                   22887681.5234
                                                                        44.7504
        30.0004
   1965829.21547   1575876.43844
                  23609334.9614                                   23609331.4064
                                                                        43.0004
        26.7504
 09 10  6  0 47  0.0000000  0  8G02G04G05G13G29G10G23G25
 -16543789.27748 -12834187.53547
                  20516009.3674                                   20516003.4104
                                                                        52.2504
        43.0004
   -783812.61348   -576150.63346
                  22136002.7034                                   22135999.2544
                                                                        49.0004
        37.0004
  -5221140.70747  -4046621.65645
                  22895033.0554                                   22895028.7114
                                                                        46.5004
        35.5004
 -20548310.02348 -15941228.26246
                  21244384.5784                                   21244380.3014
                                                                        50.2504
        37.2504
 -10496790.75847  -8132016.98845
                  22667770.7424                                   22667766.7584
                                                                        46.0004
        34.5004
 -10856548.38747  -8437420.05945
                  22137286.5944                                   22137282.9844
                                                                        47.2504
        35.0004
  -4781650.40247  -3681386.88744
                  22884545.1254                                   22884537.8874
                                                                        45.5004
        29.2504
   1796672.80147   1444066.32444
                  23577145.8364                                   23577141.7234
                                                                        42.5004
        26.0004
 09 10  6  0 47 30.0000000  0  8G02G04G05G13G29G10G23G25
 -16621068.89548 -12894405.43047
                  20501303.5394                                   20501297.4104
                                                                        51.0004
        42.5004
   -789264.98448   -580399.21946
                  22134965.4694                                   22134961.6804
                                                                        49.2504
        36.7504
  -5415757.33247  -4198270.94145
                  22857998.9144                                   22857994.4064
                                                                        45.7504
        34.7504
 -20639971.34048 -16012652.68446
                  21226941.7974                                   21226937.1254
                                                                        49.7504
        37.2504
 -10652135.16847  -8253064.59445
                  22638209.5634                                   22638206.2624
                                                                        46.7504
        35.0004
 -11043931.40647  -8583432.81645
                  22101629.1804                                   22101624.7734
                                                                        47.7504
        35.7504
  -4797718.90647  -3693907.80944
                  22881486.9844                                   22881480.7894
                                                                        44.2504
        28.7504
   1627918.11746   1312569.20744
                  23545032.6644                                   23545028.6764
                                                                        41.0004
        25.0004
 09 10  6  0 48  0.0000000  0  8G02G04G05G13G29G10G23G25
 -16697756.76648 -12954162.20747
                  20486710.6954                                   20486704.5434
                                                                        50.7504
        42.5004
   -794361.33648   -584370.40646
                  22133995.4384                                   22133991.8204
                                                                        50.2504
        36.5004
  -5610101.23047  -4349707.75845
                  22821016.1174                                   22821011.7034
                                                                        46.5004
        35.0004
 -20730954.96148 -16083549.06646
                  21209628.5234                                   21209623.4574
                                                                        50.7504
        37.0004
 -10806974.34847  -8373718.52045
                  22608744.8914                                   22608741.4064
                                                                        47.7504
        35.5004
 -11230948.52047  -8729160.45346
                  22066040.8984                                   22066037.0514
                                                                        47.5004
        36.2504
  -4813337.87947  -3706078.44544
                  22878514.5944                                   22878508.3754
                                                                        45.0004
        29.2504
   1459570.89146   1181389.59044
                  23512997.4534                                   23512993.1884
                                                                        41.7504
        24.5004
 09 10  6  0 48 30.0000000  0  8G02G04G05G13G29G10G23G25
 -16773853.19948 -13013458.11747
                  20472230.2034                                   20472223.5864
                                                                        51.5004
        43.2504
   -799103.82448   -588065.86745
                  22133093.1334                                   22133089.3014
                                                                        48.7504
        35.5004
  -5804169.95347  -4500930.17646
                  22784086.4534                                   22784082.4924
                                                                        46.5004
        36.0004
 -20821259.99248 -16153916.56646
                  21192444.0004                                   21192438.9344
                                                                        50.7504
        37.0004
 -10961305.64547  -8493976.61745
                  22579376.5634                                   22579372.8914
                                                                        47.5004
        34.7504
 -11417597.39847  -8874601.10545
                  22030522.8984                                   22030519.0864
                                                                        47.5004
        35.7504
  -4828509.55147  -3717900.52044
                  22875627.4774                                   22875621.0744
                                                                        45.2504
        29.5004
   1291633.88346   1050529.61744
                  23481039.8444                                   23481035.5744
                                                                        40.5004
        25.5004
 09 10  6  0 49  0.0000000  0  8G02G04G05G13G29G10G23G25
 -16849359.42648 -13072294.12147
                  20457861.6804                                   20457855.3794
                                                                        52.0004
        42.7504
   -803495.24648   -591487.76245
                  22132257.2894                                   22132253.6134
                                                                        49.0004
        35.5004
  -5997962.73447  -4651937.56246
                  22747208.6174                                   22747204.3954
                                                                        47.2504
        36.2504
 -20910888.78948 -16223757.15646
                  21175387.7814                                   21175383.1174
                                                                        51.5004
        37.0004
 -11115128.44947  -8613838.46545
                  22550105.3754                                   22550101.5704
                                                                        47.2504
        35.5004
 -11603877.47747  -9019754.43746
                  21995074.9614                                   21995071.3204
                                                                        47.2504
        36.0004
  -4843237.94547  -3729377.19944
                  22872825.0864                                   22872818.6724
                                                                        45.7504
        27.7504
   1124108.28546    919990.21944
                  23449160.5394                                   23449156.7114
                                                                        40.5004
        25.5004
 09 10  6  0 49 30.0000000  0  8G02G04G05G13G29G10G23G25
 -16924277.03548 -13130671.47747
                  20443605.4534                                   20443599.0204
                                                                        52.2504
        43.0004
   -807539.41848   -594639.09445
                  22131487.9774                                   22131484.2624
                                                                        49.2504
        35.7504
  -6191479.02047  -4802729.46946
                  22710383.5474                                   22710380.1174
                                                                        47.0004
        36.5004
 -20999843.96948 -16293072.87146
                  21158460.5634                                   21158455.7664
                                                                        51.0004
        37.5004
 -11268442.25847  -8733303.77045
                  22520930.0394                                   22520926.4734
                                                                        47.5004
        35.2504
 -11789787.41447  -9164619.30146
                  21959697.7734                                   21959693.8164
                                                                        47.5004
        36.0004
  -4857526.61747  -3740511.25844
                  22870106.0864                                   22870099.6254
                                                                        46.0004
        28.5004
    956995.46146    789772.48044
                  23417359.8204                                   23417356.2734
                                                                        41.5004
        26.0004
 09 10  6  0 50  0.0000000  0  8G02G04G05G13G29G10G23G25
 -16998607.46148 -13188591.30147
                  20429460.9614                                   20429454.7774
                                                                        52.5004
        42.7504
   -811238.77048   -597521.71546
                  22130783.8984                                   22130780.3014
                                                                        48.7504
        36.2504
  -6384717.71948  -4953305.04746
                  22673611.8834                                   22673607.3244
                                                                        48.0004
        36.0004
 -21088125.20348 -16361863.38746
                  21141661.0784                                   21141655.9884
                                                                        51.2504
        37.0004
 -11421245.83647  -8852371.48845
                  22491852.7274                                   22491848.6414
                                                                        45.7504
        34.7504
 -11975326.27047  -9309195.04746
                  21924390.5634                                   21924386.4574
                                                                        47.7504
        36.0004
  -4871378.51647  -3751304.93444
                  22867470.4144                                   22867463.2814
                                                                        46.5004
        29.2504
    790296.99247    659877.60244
                  23385638.6884                                   23385634.8794
                                                                        42.2504
        27.0004
 09 10  6  0 50 30.0000000  0  8G02G04G05G13G29G10G23G25
 -17072351.40648 -13246054.12147
                  20415427.7584                                   20415421.6994
                                                                        52.5004
        43.0004
   -814595.96148   -600137.73446
                  22130145.2664                                   22130141.6684
                                                                        49.5004
        36.2504
  -6577676.80948  -5103662.74645
                  22636892.7034                                   22636888.5044
                                                                        48.0004
        35.5004
 -21175733.99248 -16430129.96946
                  21124989.2814                                   21124984.6844
                                                                        51.2504
        37.5004
 -11573537.28147  -8971040.13345
                  22462872.5554                                   22462868.6684
                                                                        46.7504
        34.7504
 -12160491.93747  -9453479.94546
                  21889154.7114                                   21889150.2234
                                                                        47.7504
        36.0004
  -4884796.58247  -3761760.57044
                  22864916.8204                                   22864910.1454
                                                                        46.0004
        28.7504
    624014.85546    530307.15644
                  23353996.2584                                   23353992.5864
                                                                        41.7504
        26.5004
 09 10  6  0 51  0.0000000  0  8G02G04G05G13G29G10G23G25
 -17145509.80948 -13303060.72347
                  20401506.0084                                   20401500.3754
                                                                        52.7504
        42.5004
   -817613.96548   -602489.43445
                  22129570.7974                                   22129566.9654
                                                                        48.7504
        35.5004
  -6770355.55548  -5253801.99246
                  22600227.3134                                   22600222.6334
                                                                        48.5004
        36.5004
 -21262671.12548 -16497873.17646
                  21108445.9694                                   21108441.4924
                                                                        51.5004
        36.7504
 -11725315.66447  -9089309.02745
                  22433990.3444                                   22433986.5664
                                                                        45.7504
        34.2504
 -12345283.77048  -9597473.55145
                  21853990.1724                                   21853986.0234
                                                                        48.0004
        35.7504
  -4897784.58247  -3771881.09444
                  22862445.4774                                   22862438.5984
                                                                        45.7504
        29.2504
    458150.78547    401062.44544
                  23322433.2114                                   23322429.3954
                                                                        42.2504
        25.0004
 09 10  6  0 51 30.0000000  0  8G02G04G05G13G29G10G23G25
 -17218083.28548 -13359611.49247
                  20387695.9694                                   20387689.8164
                                                                        52.7504
        43.0004
   -820295.00448   -604578.55945
                  22129060.8754                                   22129056.6604
                                                                        48.5004
        35.7504
  -6962752.37948  -5403721.57446
                  22563615.5864                                   22563611.0474
                                                                        49.2504
        36.0004
 -21348937.14148 -16565093.45346
                  21092030.3204                                   21092025.5744
                                                                        50.7504
        36.7504
 -11876579.40647  -9207176.87545
                  22405205.9384                                   22405202.2344
                                                                        46.2504
        35.0004
 -12529700.00847  -9741174.48045
                  21818896.6954                                   21818892.7894
                                                                        47.7504
        35.2504
  -4910345.21547  -3781668.59844
                  22860054.7664                                   22860048.3484
                                                                        45.7504
        29.0004
    292706.90647    272145.21944
                  23290950.3054                                   23290946.2774
                                                                        42.5004
        27.2504
 09 10  6  0 52  0.0000000  0  8G02G04G05G13G29G10G23G25
 -17290070.91048 -13415705.75047
                  20373997.1334                                   20373990.8204
                                                                        53.5004
        43.2504
   -822639.90648   -606405.76245
                  22128614.4614                                   22128611.1804
                                                                        48.7504
        35.2504
  -7154863.87147  -5553418.78146
                  22527058.0234                                   22527053.7234
                                                                        47.5004
        36.2504
 -21434532.36748 -16631791.05946
                  21075742.1094                                   21075737.3244
                                                                        51.2504
        37.2504
 -12027325.14847  -9324641.07445
                  22376519.6724                                   22376516.4024
                                                                        46.5004
        35.5004
 -12713736.94547  -9884579.88346
                  21783875.4384                                   21783871.5434
                                                                        47.5004
        36.5004
  -4922479.63747  -3791123.99245
                  22857745.9224                                   22857739.2194
                                                                        46.5004
        30.0004
    127686.68847    143558.04744
                  23259548.3524                                   23259543.9494
                                                                        42.7504
        26.2504
 09 10  6  0 52 30.0000000  0  8G02G04G05G13G29G10G23G25
 -15786049.47748 -12243740.98847
                  20660202.8984                                   20660196.8834
                                                                        52.7504
        43.0004
    750770.74248    619628.48045
                  22428024.4534                                   22428021.2664
                                                                        48.0004
        35.5004
  -5771260.18048  -4475285.96146
                  22790348.7974                                   22790344.5434
                                                                        48.7504
        36.5004
 -19944032.16848 -15470362.34846
                  21359374.5634                                   21359369.8244
                                                                        51.2504
        36.5004
 -10602124.41447  -8214095.03145
                  22647725.7734                                   22647722.5084
                                                                        46.5004
        35.7504
 -11321965.14848  -8800082.35246
                  22048720.8834                                   22048717.2624
                                                                        48.7504
        36.7504
  -3358768.56247  -2572647.84844
                  23155310.7344                                   23155304.1054
                                                                        46.5004
        29.2504
   1538519.72346   1242908.45344
                  23528020.5004                                   23528016.3554
                                                                        41.5004
        27.2504
 09 10  6  0 53  0.0000000  0  8G02G04G05G13G29G10G23G25
 -15856864.18748 -12298921.27347
                  20646727.4454                                   20646720.8714
                                                                        52.5004
        42.7504
    749094.76248    618322.50045
                  22427705.8134                                   22427701.4654
                                                                        48.2504
        35.5004
  -5962792.18048  -4624531.62946
                  22753901.3594                                   22753896.9574
                                                                        48.5004
        36.5004
 -20028282.80148 -15536012.18746
                  21343342.3674                                   21343337.2734
                                                                        51.5004
        36.7504
 -10751825.56647  -8330745.25045
                  22619239.3594                                   22619235.6024
                                                                        46.5004
        34.7504
 -11505234.90248  -8942889.96146
                  22013846.1644                                   22013842.2584
                                                                        48.0004
        37.2504
  -3370055.25447  -2581442.68044
                  23153162.4694                                   23153155.8364
                                                                        46.2504
        28.2504
   1374357.30147   1114989.75044
                  23496781.7894                                   23496777.5824
                                                                        42.0004
        26.0004
 09 10  6  0 53 30.0000000  0  8G02G04G05G13G29G10G23G25
 -15927092.42248 -12353644.55147
                  20633363.3984                                   20633357.0004
                                                                        52.7504
        42.7504
    747751.00447    617275.42646
                  22427449.9064                                   22427446.0004
                                                                        47.0004
        36.0004
  -6154031.02048  -4773548.89546
                  22717510.0474                                   22717505.6954
                                                                        48.7504
        36.7504
 -20111861.08248 -15601138.10246
                  21327437.8834                                   21327433.0124
                                                                        51.0004
        36.7504
 -10901001.00447  -8446985.87545
                  22590852.1254                                   22590848.2814
                                                                        45.5004
        35.2504
 -11688117.35948  -9085395.78946
                  21979044.6954                                   21979040.5314
                                                                        48.0004
        36.7504
  -3380920.97347  -2589909.48044
                  23151095.0164                                   23151088.5594
                                                                        46.0004
        29.2504
   1210628.15646    987408.66844
                  23465624.8594                                   23465620.1334
                                                                        41.7504
        26.5004
 09 10  6  0 54  0.0000000  0  8G02G04G05G13G29G10G23G25
 -15996737.25048 -12407913.24247
                  20620110.1174                                   20620103.9924
                                                                        52.7504
        43.0004
    746734.78547    616483.55945
                  22427256.4384                                   22427252.9494
                                                                        47.7504
        35.2504
  -6344977.16448  -4922338.11346
                  22681174.0474                                   22681169.4654
                                                                        48.0004
        37.0004
 -20194770.18048 -15665742.59846
                  21311660.6484                                   21311655.9694
                                                                        51.2504
        37.0004
 -11049651.08247  -8562817.09045
                  22562564.6724                                   22562561.2584
                                                                        46.7504
        35.5004
 -11870612.77048  -9227600.00046
                  21944316.9844                                   21944313.0394
                                                                        49.0004
        36.7504
  -3391370.86747  -2598052.23444
                  23149106.1254                                   23149099.3014
                                                                        45.5004
        27.5004
   1047331.92647    860164.85244
                  23434550.7344                                   23434546.2934
                                                                        42.5004
        25.2504
 09 10  6  0 54 30.0000000  0  8G02G04G05G13G29G10G23G25
 -16065798.49648 -12461727.18747
                  20606968.3054                                   20606962.1684
                                                                        51.7504
        43.0004
    746044.42248    615945.61345
                  22427124.9924                                   22427121.3364
                                                                        48.5004
        35.2504
  -6535628.19947  -5070897.36746
                  22644894.1724                                   22644889.9494
                                                                        46.5004
        36.7504
 -20277010.45748 -15729825.93446
                  21296010.9924                                   21296006.2664
                                                                        51.0004
        36.7504
 -11197773.74647  -8678237.37146
                  22534378.1024                                   22534374.1024
                                                                        47.0004
        36.0004
 -12052719.14548  -9369501.05946
                  21909663.0234                                   21909659.1094
                                                                        49.5004
        37.2504
  -3401407.20347  -2605872.78944
                  23147196.3524                                   23147189.7114
                                                                        43.5004
        26.5004
    884471.44547    733260.57844
                  23403559.1094                                   23403554.7304
                                                                        42.7504
        27.0004
 09 10  6  0 55  0.0000000  0  8G02G04G05G13G29G10G23G25
 -16134276.96548 -12515086.99647
                  20593937.5704                                   20593931.3444
                                                                        51.2504
        42.2504
    745677.58248    615659.77345
                  22427055.2894                                   22427051.2814
                                                                        48.2504
        35.7504
  -6725982.32447  -5219225.24646
                  22608670.6254                                   22608666.8524
                                                                        45.5004
        37.0004
 -20358582.61348 -15793388.66046
                  21280488.4384                                   21280483.7114
                                                                        51.5004
        36.7504
 -11345367.10547  -8793245.20346
                  22506291.9844                                   22506288.4264
                                                                        47.7504
        36.2504
 -12234433.90248  -9511096.97346
                  21875084.0474                                   21875079.9494
                                                                        49.5004
        36.7504
  -3411032.52347  -2613373.03144
                  23145364.8674                                   23145358.0554
                                                                        44.7504
        27.0004
    722049.06347    606697.73444
                  23372651.8524                                   23372647.0824
                                                                        44.0004
        28.2504
 09 10  6  0 55 30.0000000  0  8G02G04G05G13G29G10G23G25
 -16202172.18448 -12567992.35947
                  20581017.2504                                   20581010.8284
                                                                        52.5004
        43.2504
    745633.16047    615625.14845
                  22427046.7814                                   22427043.0514
                                                                        47.5004
        35.5004
  -6916036.39547  -5367319.32846
                  22572505.1024                                   22572500.6484
                                                                        47.5004
        37.0004
 -20439486.32048 -15856430.50846
                  21265093.0234                                   21265088.3714
                                                                        51.0004
        36.7504
 -11492428.37547  -8907838.36345
                  22478306.7814                                   22478303.6644
                                                                        47.7504
        35.5004
 -12415754.17248  -9652385.48846
                  21840579.8754                                   21840575.8404
                                                                        49.7504
        37.0004
  -3420248.77747  -2620554.53144
                  23143611.1024                                   23143604.3444
                                                                        44.2504
        27.5004
    560067.84447    480478.59044
                  23341827.7814                                   23341823.3404
                                                                        43.5004
        28.5004
 09 10  6  0 56  0.0000000  0  8G02G04G05G13G29G10G23G25
 -16269485.73048 -12620444.47747
                  20568208.0784                                   20568201.9064
                                                                        52.0004
        42.7504
    745908.05948    615839.29745
                  22427099.3674                                   22427095.6414
                                                                        48.2504
        35.2504
  -7105789.98847  -5515179.29346
                  22536396.0704                                   22536391.8794
                                                                        47.5004
        37.5004
 -20519723.06248 -15918952.63346
                  21249824.2034                                   21249819.5124
                                                                        51.0004
        37.0004
 -11638956.91447  -9022016.46145
                  22450423.6724                                   22450419.5784
                                                                        47.0004
        35.7504
 -12596679.24648  -9793366.05146
                  21806150.9454                                   21806147.0904
                                                                        49.0004
        37.5004
  -3429059.22747  -2627419.82044
                  23141934.2734                                   23141927.5044
                                                                        45.0004
        28.2504
    398529.41847    354604.47344
                  23311088.0634                                   23311083.6134
                                                                        42.7504
        27.2504
 09 10  6  0 56 30.0000000  0  8G02G04G05G13G29G10G23G25
 -16336213.92248 -12672440.46547
                  20555509.9064                                   20555503.6024
                                                                        52.2504
        42.0004
    746504.68048    616304.24245
                  22427212.6804                                   22427209.3874
                                                                        48.0004
        35.5004
  -7295236.19948  -5662799.68046
                  22500345.9534                                   22500341.3444
                                                                        48.2504
        37.5004
 -20599289.79348 -15980952.68046
                  21234683.5234                                   21234678.6294
                                                                        51.0004
        36.7504
 -11784946.62547  -9135774.76245
                  22422642.7894                                   22422639.2894
                                                                        47.0004
        35.0004
 -12777203.02048  -9934033.92246
                  21771798.2194                                   21771794.5474
                                                                        50.0004
        37.7504
  -3437462.34047  -2633967.71144
                  23140336.2504                                   23140328.8524
                                                                        44.7504
        28.7504
    237440.12947    229080.39144
                  23280433.2194                                   23280429.2624
                                                                        43.5004
        27.0004
 09 10  6  0 57  0.0000000  0  8G02G04G05G13G29G10G23G25
 -16402365.94548 -12723987.49247
                  20542921.7584                                   20542915.4414
                                                                        51.5004
        42.5004
    747411.85248    617011.12545
                  22427384.8984                                   22427381.6334
                                                                        49.0004
        34.2504
  -7484382.60248  -5810186.44146
                  22464351.9694                                   22464347.8444
                                                                        48.2504
        36.2504
 -20678195.40648 -16042437.56646
                  21219667.9694                                   21219663.2424
                                                                        50.2504
        37.0004
 -11930404.54348  -9249118.62946
                  22394962.9064                                   22394959.2074
                                                                        48.0004
        36.0004
 -12957332.05948 -10074394.17246
                  21737521.0394                                   21737517.0664
                                                                        49.5004
        37.5004
  -3445469.26647  -2640206.86744
                  23138811.5944                                   23138805.6884
                                                                        43.2504
        27.5004
     76793.42247    103901.16044
                  23249862.8364                                   23249859.1294
                                                                        43.0004
        27.5004
 09 10  6  0 57 30.0000000  0  8G02G04G05G13G29G10G23G25
 -16467938.71948 -12775083.15647
                  20530443.5944                                   20530437.1644
                                                                        52.2504
        42.2504
    748631.58248    617961.55145
                  22427617.1884                                   22427613.9184
                                                                        49.0004
        34.5004
  -7673223.03947  -5957334.81646
                  22428417.0784                                   22428412.5274
                                                                        47.5004
        37.0004
 -20756436.82848 -16103404.89546
                  21204779.4534                                   21204774.4264
                                                                        50.7504
        36.7504
 -12075324.72348  -9362043.46146
                  22367385.6954                                   22367382.0904
                                                                        49.0004
        36.0004
 -13137060.34448 -10214442.12546
                  21703320.0554                                   21703316.1374
                                                                        50.0004
        37.0004
  -3453078.63747  -2646136.28144
                  23137363.4774                                   23137357.1374
                                                                        42.2504
        27.2504
    -83404.21147    -20928.12544
                  23219378.1884                                   23219374.2504
                                                                        43.0004
        26.0004
 09 10  6  0 58  0.0000000  0  8G02G04G05G13G29G10G23G25
 -16532929.25448 -12825725.12547
                  20518076.3914                                   20518070.0004
                                                                        52.2504
        42.0004
    750165.30548    619156.64145
                  22427909.3524                                   22427906.1294
                                                                        49.5004
        34.7504
  -7861751.83648  -6104240.37946
                  22392540.7424                                   22392536.6054
                                                                        48.2504
        36.7504
 -20834011.50048 -16163852.67646
                  21190017.0944                                   21190012.6844
                                                                        50.7504
        36.0004
 -12219701.75048  -9474545.02345
                  22339911.8364                                   22339908.2424
                                                                        49.0004
        35.2504
 -13316382.38748 -10354173.57046
                  21669196.2114                                   21669191.8484
                                                                        50.0004
        37.7504
  -3460289.55947  -2651755.16844
                  23135991.4534                                   23135985.2384
                                                                        43.0004
        26.5004
   -243147.03947   -145403.03544
                  23188980.3054                                   23188976.1764
                                                                        43.2504
        26.2504
 09 10  6  0 58 30.0000000  0  8G02G04G05G13G29G10G23G25
 -16597339.25048 -12875914.75447
                  20505819.6804                                   20505813.5434
                                                                        52.5004
        42.0004
    752009.70748    620593.79345
                  22428260.5234                                   22428256.7544
                                                                        49.5004
        35.2504
  -8049968.40648  -6250902.62546
                  22356724.8524                                   22356720.4344
                                                                        48.2504
        37.5004
 -20910921.13348 -16223782.26246
                  21175382.0944                                   21175377.5474
                                                                        51.2504
        37.0004
 -12363535.02748  -9586622.87546
                  22312541.4304                                   22312536.9654
                                                                        48.7504
        36.2504
 -13495297.60248 -10493588.00446
                  21635149.5394                                   21635145.3404
                                                                        49.7504
        37.2504
  -3467105.75847  -2657066.50444
                  23134694.5704                                   23134688.0664
                                                                        43.2504
        27.5004
   -402434.09847   -269522.81244
                  23158668.8594                                   23158664.8204
                                                                        43.5004
        27.2504
 09 10  6  0 59  0.0000000  0  8G02G04G05G13G29G10G23G25
 -16661171.11348 -12925653.87147
                  20493673.0634                                   20493666.3014
                                                                        51.7504
        42.2504
    754160.85248    622270.01245
                  22428670.0704                                   22428666.1174
                                                                        49.2504
        34.7504
  -8237872.55148  -6397321.43746
                  22320967.4534                                   22320963.3164
                                                                        49.5004
        38.0004
 -20987168.44148 -16283195.75446
                  21160872.5634                                   21160867.3364
                                                                        50.5004
        37.0004
 -12506825.08248  -9698277.48445
                  22285274.1254                                   22285269.8634
                                                                        49.7504
        35.5004
 -13673805.61748 -10632685.14546
                  21601180.4924                                   21601176.2584
                                                                        50.2504
        37.0004
  -3473531.86347  -2662073.84444
                  23133471.9304                                   23133464.8954
                                                                        42.5004
        27.0004
   -561264.82447   -393287.00044
                  23128444.5944                                   23128440.3714
                                                                        44.0004
        27.0004
 09 10  6  0 59 30.0000000  0  8G02G04G05G13G29G10G23G25
 -16724426.30948 -12974943.63347
                  20481635.7974                                   20481629.7274
                                                                        51.5004
        42.7504
    756616.10948    624183.19145
                  22429137.2424                                   22429133.8954
                                                                        49.5004
        34.7504
  -8425463.22748  -6543496.00846
                  22285270.0634                                   22285266.4534
                                                                        48.7504
        37.5004
 -21062755.08248 -16342094.43046
                  21146488.8444                                   21146484.2424
                                                                        51.0004
        36.7504
 -12649570.66448  -9809507.81646
                  22258110.3594                                   22258106.5664
                                                                        49.0004
        36.0004
 -13851905.36348 -10771464.16846
                  21567289.2584                                   21567284.9574
                                                                        50.2504
        37.2504
  -3479570.94547  -2666779.62544
                  23132322.4924                                   23132316.0164
                                                                        43.0004
        27.0004
   -719637.76247   -516694.48044
                  23098307.4924                                   23098303.6054
                                                                        44.5004
        29.5004
 09 10  6  1  0  0.0000000  0  8G02G04G05G13G29G10G23G25
 -16787104.79748 -13023784.02747
                  20469708.2974                                   20469702.2424
                                                                        52.5004
        42.7504
    759374.07448    626332.22745
                  22429661.7734                                   22429657.9064
                                                                        49.2504
        34.5004
  -8612737.57048  -6689424.06246
                  22249633.5474                                   22249629.4144
                                                                        49.0004
        38.0004
 -21137680.58248 -16400477.93046
                  21132231.1254                                   21132225.7584
                                                                        51.2504
        37.0004
 -12791769.07848  -9920311.76245
                  22231050.9144                                   22231046.9924
                                                                        49.2504
        35.5004
 -14029593.85548 -10909922.74246
                  21533476.3204                                   21533472.1374
                                                                        50.0004
        37.5004
  -3485224.89547  -2671185.30544
                  23131246.5234                                   23131239.9024
                                                                        43.7504
        27.7504
   -877549.80547   -639742.79744
                  23068257.8054                                   23068253.6994
                                                                        44.5004
        28.5004
 09 10  6  1  0 30.0000000  0  9G02G04G05G13G29G10G23G16G25
 -16849207.32048 -13072175.60547
                  20457890.7424                                   20457884.2344
                                                                        52.0004
        42.2504
    762432.81648    628715.64845
                  22430243.8834                                   22430240.5164
                                                                        49.0004
        34.0004
  -8799693.49248  -6835104.05146
                  22214056.5944                                   22214052.5514
                                                                        48.7504
        37.5004
 -21211946.55148 -16458347.50846
                  21118098.6094                                   21118093.6684
                                                                        51.0004
        36.5004
 -12933418.84448 -10030688.22346
                  22204095.8284                                   22204091.7934
                                                                        49.7504
        36.5004
 -14206869.19148 -11048059.38746
                  21499741.9694                                   21499737.7114
                                                                        50.7504
        37.7504
  -3490496.30147  -2675292.87944
                  23130243.5944                                   23130236.8874
                                                                        43.5004
        27.0004
  10826785.37156   8475488.25053
                  24194769.1414                                   24194763.8754
                                                                        41.5004
        22.0004
  -1034998.75047   -762430.23844
                  23038296.1884                                   23038292.0164
                                                                        44.5004
        28.0004
 09 10  6  1  1  0.0000000  0  9G02G04G05G13G29G10G23G16G25
 -15335316.42248 -11892520.35947
                  20745974.3674                                   20745968.3794
                                                                        52.5004
        42.2504
   2341205.93448   1858928.48045
                  22730674.5084                                   22730670.5594
                                                                        49.0004
        33.7504
  -7410906.99248  -5752932.73846
                  22478333.9534                                   22478329.7664
                                                                        49.0004
        37.5004
 -19710135.34848 -15288105.00846
                  21403883.7034                                   21403878.7734
                                                                        50.0004
        37.0004
 -11499097.37948  -8913035.15646
                  22477038.4064                                   22477034.3284
                                                                        49.5004
        36.0004
 -12808307.60248  -9958271.14546
                  21765879.3204                                   21765875.3014
                                                                        50.5004
        38.0004
  -1919971.41847  -1451507.27344
                  23429103.7974                                   23429098.2704
                                                                        42.2504
        26.7504
  12239620.34447   9576398.61743
                  24463622.6174                                   24463617.0594
                                                                        42.0004
        21.0004
    383438.80547    342845.81344
                  23308215.4304                                   23308211.6134
                                                                        44.5004
        27.7504
 09 10  6  1  1 30.0000000  0  9G02G04G05G13G29G10G23G16G25
 -15396290.43448 -11940032.57847
                  20734371.5474                                   20734365.1644
                                                                        51.7504
        42.2504
   2344837.73048   1861758.46145
                  22731365.9454                                   22731361.8634
                                                                        48.5004
        34.0004
  -7597242.37548  -5898129.10946
                  22442875.8914                                   22442871.2304
                                                                        50.2504
        37.7504
 -19783105.96948 -15344965.23446
                  21389997.9694                                   21389993.0124
                                                                        51.0004
        36.2504
 -11639666.13748  -9022569.25445
                  22450288.7344                                   22450285.2234
                                                                        48.7504
        35.5004
 -12984772.42648 -10095776.23046
                  21732299.2114                                   21732295.1374
                                                                        50.2504
        38.0004
  -1924506.94947  -1455041.47744
                  23428240.9384                                   23428234.4844
                                                                        43.2504
        27.7504
  12077478.67647   9450054.44143
                  24432767.6484                                   24432762.6884
                                                                        42.5004
        22.0004
    226900.87947    220868.21144
                  23278426.9534                                   23278423.1644
                                                                        43.7504
        26.7504
 09 10  6  1  2  0.0000000  0  9G02G04G05G13G29G10G23G16G25
 -15456707.01248 -11987110.42247
                  20722874.7344                                   20722868.4224
                                                                        52.0004
        42.2504
   2348748.07848   1864805.48045
                  22732109.6644                                   22732106.0314
                                                                        48.7504
        33.7504
  -7783269.60548  -6043085.39146
                  22407476.2194                                   22407471.5864
                                                                        50.0004
        37.7504
 -19855435.55148 -15401325.94546
                  21376234.0004                                   21376229.1334
                                                                        50.5004
        36.5004
 -11779697.18048  -9131684.32845
                  22423641.8594                                   22423638.0664
                                                                        49.0004
        35.7504
 -13160833.92648 -10232967.02346
                  21698795.6954                                   21698791.5944
                                                                        49.7504
        38.0004
  -1928683.88747  -1458296.23844
                  23427446.6334                                   23427439.8164
                                                                        44.0004
        27.5004
  11915789.80547   9324063.09843
                  24401999.3914                                   24401993.4804
                                                                        42.0004
        20.7504
     70816.67247     99244.18444
                  23248725.2344                                   23248721.3954
                                                                        43.7504
        27.0004
 09 10  6  1  2 30.0000000  0  9G02G04G05G13G29G10G23G16G25
 -15516562.11748 -12033750.77047
                  20711484.2664                                   20711478.3054
                                                                        51.7504
        42.0004
   2352938.67248   1868070.88745
                  22732907.0164                                   22732903.4494
                                                                        48.2504
        34.0004
  -7968982.82048  -6187796.99646
                  22372135.6724                                   22372131.7704
                                                                        49.7504
        38.2504
 -19927120.69948 -15457184.49646
                  21362592.5944                                   21362587.9454
                                                                        51.2504
        37.0004
 -11919184.96148  -9240376.06646
                  22397098.0704                                   22397094.3014
                                                                        48.2504
        36.0004
 -13336486.27748 -10369838.98046
                  21665370.4384                                   21665366.4414
                                                                        49.7504
        38.5004
  -1932500.59847  -1461270.24244
                  23426720.3444                                   23426712.8794
                                                                        43.0004
        27.7504
  11754560.34046   9198429.75843
                  24371318.6564                                   24371313.4344
                                                                        41.2504
        22.0004
    -84807.68047    -22021.52044
                  23219110.9924                                   23219107.2584
                                                                        44.5004
        27.5004
 09 10  6  1  3  0.0000000  0  9G02G04G05G13G29G10G23G16G25
 -15575851.27748 -12079950.09847
                  20700202.3204                                   20700195.8204
                                                                        52.0004
        42.0004
   2357412.87147   1871557.25045
                  22733758.4694                                   22733755.1454
                                                                        47.5004
        34.0004
  -8154374.48848  -6332258.05146
                  22336856.9774                                   22336852.5004
                                                                        49.7504
        38.5004
 -19998157.37948 -15512537.75446
                  21349074.6484                                   21349070.0274
                                                                        51.0004
        36.5004
 -12058122.22748  -9348638.81246
                  22370659.1174                                   22370655.1844
                                                                        49.0004
        36.5004
 -13511722.08648 -10506386.33646
                  21632024.3284                                   21632019.9024
                                                                        49.7504
        38.7504
  -1935954.18447  -1463961.34044
                  23426062.8834                                   23426056.2934
                                                                        43.0004
        26.7504
  11593798.33646   9073160.68443
                  24340725.9224                                   24340721.2464
                                                                        41.0004
        22.5004
   -239964.50847   -142922.92644
                  23189586.0004                                   23189581.8444
                                                                        45.0004
        28.0004
 09 10  6  1  3 30.0000000  0  9G02G04G05G13G29G10G23G16G25
 -15634572.35948 -12125706.77347
                  20689027.7034                                   20689021.0904
                                                                        51.0004
        42.5004
   2362171.58647   1875265.28945
                  22734664.3674                                   22734660.2424
                                                                        47.5004
        33.7504
  -8339439.91448  -6476464.90246
                  22301640.3284                                   22301636.1764
                                                                        50.0004
        38.2504
 -20068544.35248 -15567384.73846
                  21335680.7664                                   21335675.8054
                                                                        51.0004
        36.2504
 -12196504.49648  -9456469.17646
                  22344325.8914                                   22344322.0164
                                                                        49.2504
        36.0004
 -13686536.80148 -10642605.57846
                  21598757.6024                                   21598753.7664
                                                                        49.5004
        39.0004
  -1939044.43047  -1466369.31644
                  23425474.7424                                   23425468.4224
                                                                        44.0004
        27.0004
  11433508.98046   8948259.89843
                  24310224.2974                                   24310218.9734
                                                                        40.7504
        21.7504
   -394648.63347   -263455.99644
                  23160150.9304                                   23160146.9344
                                                                        45.0004
        28.5004
 09 10  6  1  4  0.0000000  0  9G02G04G05G13G29G10G23G16G25
 -15692724.68048 -12171020.25047
                  20677961.8524                                   20677955.5314
                                                                        51.2504
        42.2504
   2367214.39147   1879194.72345
                  22735623.5704                                   22735619.7074
                                                                        46.7504
        34.7504
  -8524175.50448  -6620414.77746
                  22266486.2814                                   22266482.3984
                                                                        50.0004
        38.5004
 -20138279.50848 -15621723.83246
                  21322410.6644                                   21322405.4494
                                                                        50.7504
        37.0004
 -12334328.23448  -9563864.30546
                  22318099.0474                                   22318095.0744
                                                                        48.5004
        36.0004
 -13860926.28148 -10778493.51246
                  21565572.8054                                   21565569.2074
                                                                        49.7504
        38.5004
  -1941772.19947  -1468494.84044
                  23424955.9064                                   23424949.1564
                                                                        43.0004
        26.5004
  11273696.05946   8823730.36343
                  24279812.8284                                   24279807.3594
                                                                        39.7504
        19.7504
   -548856.46147   -383617.93044
                  23130805.8834                                   23130801.7034
                                                                        45.7504
        28.5004
 09 10  6  1  4 30.0000000  0  9G02G04G05G13G29G10G23G16G25
 -15750307.34048 -12215889.83647
                  20667004.2274                                   20666997.8404
                                                                        51.0004
        42.5004
   2372540.77347   1883345.11745
                  22736637.1804                                   22736633.9064
                                                                        46.0004
        33.2504
  -8708577.36348  -6764104.53546
                  22231395.7894                                   22231391.4224
                                                                        49.5004
        38.5004
 -20207362.50048 -15675554.73046
                  21309264.6644                                   21309259.6644
                                                                        50.5004
        36.7504
 -12471590.38348  -9670821.80946
                  22291979.0634                                   22291975.1094
                                                                        50.0004
        36.5004
 -14034887.42648 -10914047.64146
                  21532469.1484                                   21532465.2234
                                                                        49.0004
        39.0004
  -1944138.36747  -1470338.61744
                  23424505.5634                                   23424498.7154
                                                                        43.2504
        26.0004
  11114364.03146   8699575.55143
                  24249492.7034                                   24249487.4734
                                                                        40.2504
        19.5004
   -702584.00847   -503405.61744
                  23101552.8674                                   23101548.2624
                                                                        45.0004
        28.2504
 09 10  6  1  5  0.0000000  0  9G02G04G05G13G29G10G23G16G25
 -15807320.89148 -12260315.98046
                  20656154.9924                                   20656148.5474
                                                                        51.5004
        41.2504
   2378149.05147   1887715.18845
                  22737704.6724                                   22737701.1454
                                                                        46.7504
        33.0004
  -8892643.81248  -6907532.94546
                  22196369.2584                                   22196364.8014
                                                                        49.7504
        38.2504
 -20275794.44548 -15728878.32446
                  21296242.4614                                   21296237.2464
                                                                        50.2504
        37.0004
 -12608289.26248  -9777340.36746
                  22265966.0944                                   22265961.9844
                                                                        49.5004
        36.5004
 -14208418.08648 -11049266.33246
                  21499447.0944                                   21499443.0234
                                                                        49.7504
        38.0004
  -1946145.53147  -1471902.63344
                  23424123.5704                                   23424117.1054
                                                                        43.0004
        25.7504
  10955514.91046   8575797.02843
                  24219264.6094                                   24219259.3054
                                                                        41.0004
        20.2504
   -855829.10947   -622817.38744
                  23072391.0554                                   23072386.1604
                                                                        45.7504
        28.5004
 09 10  6  1  5 30.0000000  0 10G02G04G05G13G29G10G23G16G07G25
 -15863765.07448 -12304298.43747
                  20645413.9384                                   20645407.5004
                                                                        51.7504
        42.0004
   2384038.12147   1892304.02345
                  22738825.2814                                   22738821.8484
                                                                        47.0004
        33.0004
  -9076371.53548  -7050697.40646
                  22161406.9224                                   22161402.8794
                                                                        50.0004
        38.2504
 -20343575.23848 -15781694.52045
                  21283344.3134                                   21283339.3834
                                                                        50.5004
        35.7504
 -12744421.98848  -9883417.79346
                  22240060.5004                                   22240057.1684
                                                                        50.0004
        37.2504
 -14381514.93748 -11184146.99246
                  21466507.8834                                   21466503.7074
                                                                        50.0004
        38.2504
  -1947795.00047  -1473187.94544
                  23423809.3754                                   23423802.9844
                                                                        43.7504
        25.5004
  10797152.41447   8452397.64543
                  24189129.8204                                   24189124.6994
                                                                        42.2504
        19.7504
  12364238.16857   9654620.97753
                  24395993.6334                                   24395988.8014
                                                                        42.0004
        23.0004
  -1008588.40247   -741850.59444
                  23043321.8284                                   23043317.7704
                                                                        45.2504
        28.7504
 09 10  6  1  6  0.0000000  0 10G02G04G05G13G29G10G23G16G07G25
 -15919644.51648 -12347840.85947
                  20634780.6414                                   20634774.3834
                                                                        51.5004
        42.0004
   2390202.03947   1897107.03145
                  22739998.1644                                   22739994.8094
                                                                        47.0004
        33.0004
  -9259762.39548  -7193599.34046
                  22126508.7274                                   22126504.4304
                                                                        49.2504
        38.7504
 -20410710.73448 -15834007.89546
                  21270568.7734                                   21270563.6994
                                                                        50.0004
        36.2504
 -12879990.89548  -9989055.85546
                  22214262.7504                                   22214259.2424
                                                                        49.0004
        36.7504
 -14554180.28148 -11318691.39846
                  21433650.8444                                   21433646.4844
                                                                        49.2504
        38.0004
  -1949093.43047  -1474199.71544
                  23423562.4384                                   23423556.0314
                                                                        43.7504
        24.5004
  10639275.14546   8329376.39143
                  24159086.2274                                   24159081.7664
                                                                        41.2504
        22.0004
  12170750.27346   9503851.14143
                  24359173.5004                                   24359169.1804
                                                                        38.7504
        21.7504
  -1160863.77347   -860506.71144
                  23014344.2194                                   23014340.0554
                                                                        44.7504
        27.5004
 09 10  6  1  6 30.0000000  0 10G02G04G05G13G29G10G23G16G07G25
 -15974968.12948 -12390950.16047
                  20624252.9694                                   20624246.6414
                                                                        50.7504
        42.0004
   2396630.93447   1902116.57045
                  22741221.5004                                   22741218.1724
                                                                        46.2504
        33.0004
  -9442822.56648  -7336243.56246
                  22091673.4924                                   22091669.4384
                                                                        48.2504
        38.7504
 -20477208.91448 -15885824.64845
                  21257914.7034                                   21257909.5044
                                                                        50.2504
        35.7504
 -13015002.66848 -10094259.82846
                  22188571.1174                                   22188566.9454
                                                                        49.2504
        37.0004
 -14726419.83648 -11452904.04746
                  21400875.0704                                   21400870.6174
                                                                        48.2504
        39.0004
  -1950051.06247  -1474945.93444
                  23423380.7894                                   23423373.5044
                                                                        44.2504
        25.0004
  10481877.28946   8206728.73043
                  24129134.8054                                   24129129.6024
                                                                        40.7504
        22.5004
  11977508.19546   9353272.86343
                  24322400.8134                                   24322396.0044
                                                                        39.7504
        22.5004
  -1312661.06647   -978790.30544
                  22985458.0004                                   22985454.2664
                                                                        44.5004
        27.5004
 09 10  6  1  7  0.0000000  0 10G02G04G05G13G29G10G23G16G07G25
 -16029736.42248 -12433626.72746
                  20613830.4454                                   20613824.4494
                                                                        50.5004
        41.7504
   2403323.27047   1907331.34045
                  22742494.9454                                   22742491.5664
                                                                        46.5004
        32.5004
  -9625548.94948  -7478627.74246
                  22056901.8364                                   22056897.4654
                                                                        49.0004
        38.5004
 -20543070.37548 -15937145.26646
                  21245381.4304                                   21245376.5204
                                                                        50.0004
        36.7504
 -13149454.77048 -10199027.67646
                  22162985.2344                                   22162981.5124
                                                                        48.7504
        36.7504
 -14898231.02748 -11586782.87146
                  21368180.4614                                   21368176.3634
                                                                        48.0004
        38.7504
  -1950670.12947  -1475428.28544
                  23423262.4614                                   23423255.8914
                                                                        43.7504
        25.2504
  10324961.93446   8084457.06343
                  24099275.1484                                   24099269.6644
                                                                        41.2504
        22.5004
  11784515.86747   9202889.25844
                  24285675.5234                                   24285671.4384
                                                                        42.0004
        25.0004
  -1463977.55547  -1096699.23844
                  22956663.7584                                   22956659.9734
                                                                        44.2504
        27.0004
 09 10  6  1  7 30.0000000  0 10G02G04G05G13G29G10G23G16G07G25
 -16083944.72748 -12475866.95746
                  20603515.1564                                   20603508.4844
                                                                        51.0004
        41.7504
   2410282.38747   1912754.08645
                  22743819.5004                                   22743815.7704
                                                                        45.7504
        32.7504
  -9807935.30547  -7620746.98446
                  22022194.9144                                   22022190.6954
                                                                        47.7504
        39.5004
 -20608291.36748 -15987966.82446
                  21232970.1724                                   21232965.9184
                                                                        48.5004
        36.5004
 -13283340.71548 -10303354.35246
                  22137507.7734                                   22137503.6174
                                                                        48.5004
        36.5004
 -15069606.82848 -11720322.43746
                  21335568.4614                                   21335564.3014
                                                                        48.7504
        39.0004
  -1950947.84047  -1475644.69944
                  23423209.5394                                   23423203.2974
                                                                        44.0004
        27.0004
  10168536.58646   7962567.15643
                  24069508.9694                                   24069502.8754
                                                                        40.7504
        22.7504
  11591781.23847   9052706.33644
                  24248999.5004                                   24248995.4344
                                                                        43.0004
        26.7504
  -1614805.75847  -1214227.69944
                  22927962.4304                                   22927957.6134
                                                                        44.2504
        28.5004
 09 10  6  1  8  0.0000000  0 10G02G04G05G13G29G10G23G16G07G25
 -16137590.66848 -12517668.95346
                  20593306.6024                                   20593300.1724
                                                                        51.2504
        41.5004
   2417509.44547   1918385.56645
                  22745194.6094                                   22745191.0554
                                                                        46.7504
        33.2504
  -9989975.60248  -7762596.51246
                  21987553.8054                                   21987549.2304
                                                                        48.2504
        39.5004
 -20672869.90648 -16038287.76245
                  21220681.5234                                   21220676.5164
                                                                        50.0004
        35.2504
 -13416655.80148 -10407236.26246
                  22112138.7894                                   22112134.9924
                                                                        49.2504
        36.2504
 -15240542.00848 -11853518.68446
                  21303040.7194                                   21303036.6724
                                                                        48.7504
        39.5004
  -1950883.48447  -1475594.56644
                  23423222.4614                                   23423215.4964
                                                                        44.0004
        25.7504
  10012606.48846   7841063.18843
                  24039835.0084                                   24039830.3094
                                                                        40.7504
        20.7504
  11399310.70347   8902729.23844
                  24212373.7734                                   24212369.7384
                                                                        43.5004
        27.0004
  -1765140.39847  -1331371.57044
                  22899354.6804                                   22899350.2734
                                                                        44.2504
        28.5004
 09 10  6  1  8 30.0000000  0 10G02G04G05G13G29G10G23G16G07G25
 -16190671.54348 -12559030.65647
                  20583205.4614                                   20583199.3984
                                                                        50.5004
        42.0004
   2425005.69547   1924226.78145
                  22746621.0234                                   22746617.5234
                                                                        46.2504
        33.5004
 -10171664.84848  -7904172.46946
                  21952978.9694                                   21952974.7624
                                                                        49.0004
        39.2504
 -20736803.42248 -16088106.08246
                  21208515.4844                                   21208510.6804
                                                                        49.2504
        36.0004
 -13549394.76648 -10510669.27046
                  22086879.2194                                   22086875.4414
                                                                        49.5004
        36.7504
 -15411031.24648 -11986367.41846
                  21270597.7814                                   21270593.7934
                                                                        49.2504
        39.2504
  -1950476.20347  -1475277.23044
                  23423299.5554                                   23423292.9654
                                                                        42.5004
        24.0004
   9857177.70746   7719949.84043
                  24010258.3444                                   24010253.0234
                                                                        40.7504
        21.7504
  11207110.83247   8752963.09044
                  24175799.4304                                   24175795.2894
                                                                        43.5004
        26.0004
  -1914976.02347  -1448126.58244
                  22870841.3134                                   22870837.4024
                                                                        44.5004
        28.0004
 09 10  6  1  9  0.0000000  0 10G02G04G05G13G29G10G23G16G07G25
 -14667766.91048 -11372351.72746
                  20873004.8364                                   20872998.3204
                                                                        51.5004
        41.5004
   4008188.90647   3157876.02045
                  23047891.1804                                   23047887.5234
                                                                        46.0004
        32.7504
  -8777575.06248  -6817868.73846
                  22218265.8204                                   22218261.5474
                                                                        49.5004
        38.7504
 -19224671.03948 -14909821.10546
                  21496264.8054                                   21496259.8134
                                                                        49.7504
        36.0004
 -12106131.61348  -9386048.57046
                  22361523.4224                                   22361519.5984
                                                                        49.0004
        36.2504
 -14005647.24248 -10891262.96946
                  21538033.1484                                   21538029.2304
                                                                        50.0004
        39.2504
   -374308.50847   -247094.60244
                  23723234.2664                                   23723227.8134
                                                                        43.2504
        25.5004
  11277677.62146   8826832.89843
                  24280570.3914                                   24280565.6054
                                                                        39.7504
        22.0004
  12590611.23447   9831015.41444
                  24439070.9694                                   24439066.3364
                                                                        44.0004
        26.2504
   -488885.54747   -336887.20744
                  23142217.3134                                   23142213.4574
                                                                        44.5004
        28.7504
 09 10  6  1  9 30.0000000  0 10G02G04G05G13G29G10G23G16G07G25
 -14719717.49248 -11412832.68447
                  20863119.0234                                   20863112.6174
                                                                        51.5004
        42.0004
   4016220.99647   3164134.76645
                  23049419.2034                                   23049416.1454
                                                                        46.2504
        32.0004
  -8958552.67248  -6958890.24246
                  22183826.9924                                   22183822.8674
                                                                        49.7504
        38.7504
 -19287314.84448 -14958634.45746
                  21484343.8914                                   21484338.9654
                                                                        49.7504
        36.0004
 -12237710.36348  -9488577.35946
                  22336484.6024                                   22336480.3754
                                                                        48.7504
        36.0004
 -14175235.33248 -11023409.51646
                  21505761.4224                                   21505757.3874
                                                                        49.5004
        38.7504
   -373219.43447   -246245.98844
                  23723441.4534                                   23723434.9064
                                                                        43.0004
        25.7504
  11123261.79746   8706508.90643
                  24251185.6644                                   24251181.1414
                                                                        39.2504
        21.5004
  12398965.35247   9681681.00444
                  24402601.5314                                   24402597.4774
                                                                        42.5004
        25.2504
   -637713.44547   -452856.94544
                  23113896.8834                                   23113892.4804
                                                                        45.7504
        29.7504
 09 10  6  1 10  0.0000000  0 10G02G04G05G13G29G10G23G16G07G25
 -14771101.68448 -11452872.30547
                  20853340.7194                                   20853334.4694
                                                                        51.5004
        42.2504
   4024520.64147   3170601.99245
                  23050998.8914                                   23050994.8674
                                                                        47.0004
        32.2504
  -9139168.80548  -7099630.07446
                  22149456.9534                                   22149452.1844
                                                                        49.5004
        38.7504
 -19349313.07048 -15006944.75846
                  21472545.9534                                   21472540.7734
                                                                        50.5004
        36.2504
 -12368704.39548  -9590650.56646
                  22311557.3204                                   22311553.0664
                                                                        49.7504
        37.0004
 -14344367.10548 -11155200.50446
                  21473576.6954                                   21473573.0394
                                                                        49.2504
        39.0004
   -371790.59446   -245132.61743
                  23723712.8984                                   23723707.6134
                                                                        41.0004
        23.2504
  10969358.26246   8586584.09843
                  24221898.9534                                   24221894.1644
                                                                        39.2504
        21.5004
  12207603.49246   9532567.88344
                  24366186.5234                                   24366182.3324
                                                                        41.7504
        24.2504
   -786031.92247   -568429.76244
                  23085672.8674                                   23085668.5354
                                                                        45.0004
        29.7504
 09 10  6  1 10 30.0000000  0 10G02G04G05G13G29G10G23G16G07G25
 -14821920.57048 -11492471.44146
                  20843670.4224                                   20843664.0554
                                                                        51.5004
        41.7504
   4033085.85947   3177276.19145
                  23052628.9224                                   23052624.8914
                                                                        46.5004
        32.2504
  -9319421.93048  -7240087.05946
                  22115155.9064                                   22115151.2234
                                                                        49.7504
        40.0004
 -19410667.02748 -15054753.05546
                  21460870.5474                                   21460866.1024
                                                                        50.0004
        36.0004
 -12499112.15248  -9692266.96946
                  22286741.3524                                   22286737.3324
                                                                        49.0004
        36.5004
 -14513041.19548 -11286634.88346
                  21441479.0704                                   21441474.8984
                                                                        49.5004
        39.0004
   -370025.07847   -243756.89143
                  23724049.6884                                   23724042.0904
                                                                        42.0004
        22.7504
  10815969.42246   8467060.35543
                  24192710.0474                                   24192705.5164
                                                                        39.2504
        21.2504
  12016528.67646   9383678.44944
                  24329826.1024                                   24329821.9264
                                                                        41.0004
        24.0004
   -933838.97347   -683604.06644
                  23057545.9534                                   23057541.0744
                                                                        45.0004
        29.5004
 09 10  6  1 11  0.0000000  0 10G02G04G05G13G29G10G23G16G07G25
 -14872175.77048 -11531631.33647
                  20834107.2734                                   20834100.3324
                                                                        51.5004
        42.2504
   4041913.65247   3184155.00045
                  23054308.5004                                   23054305.4414
                                                                        46.7504
        32.2504
  -9499310.27748  -7380259.77346
                  22080924.3834                                   22080919.9144
                                                                        49.5004
        39.5004
 -19471378.63748 -15102060.78946
                  21449317.3914                                   21449312.7194
                                                                        49.7504
        36.2504
 -12628933.25848  -9793426.29346
                  22262037.0474                                   22262033.2894
                                                                        48.7504
        36.7504
 -14681256.21548 -11417711.50046
                  21409469.1254                                   21409464.4414
                                                                        50.0004
        39.5004
   -367925.73447   -242120.98043
                  23724449.0164                                   23724441.6884
                                                                        42.2504
        22.7504
  10663096.60246   8347938.71143
                  24163619.9614                                   24163614.5164
                                                                        39.7504
        21.5004
  11825743.16846   9235014.44943
                  24293520.4304                                   24293516.3874
                                                                        41.7504
        23.0004
  -1081133.41447   -798378.94944
                  23029516.6804                                   23029512.3094
                                                                        43.7504
        29.7504
 09 10  6  1 11 30.0000000  0 10G02G04G05G13G29G10G23G16G07G25
 -14921868.42648 -11570352.88347
                  20824650.9144                                   20824644.6254
                                                                        51.5004
        42.0004
   4051001.75047   3191236.63745
                  23056037.9304                                   23056034.3874
                                                                        45.7504
        32.2504
  -9678832.65248  -7520147.32046
                  22046762.5084                                   22046757.9574
                                                                        49.7504
        39.2504
 -19531449.39848 -15148869.16446
                  21437886.6564                                   21437881.9224
                                                                        50.0004
        36.0004
 -12758166.57848  -9894127.55546
                  22237445.0474                                   22237441.3364
                                                                        49.2504
        37.2504
 -14849010.55948 -11548429.16046
                  21377546.5944                                   21377542.1764
                                                                        50.2504
        39.7504
   -365495.71947   -240227.44143
                  23724910.8524                                   23724903.6914
                                                                        42.5004
        22.7504
  10510741.71146   8229220.62543
                  24134627.4694                                   24134622.2704
                                                                        40.0004
        22.0004
  11635250.06647   9086578.26244
                  24257271.8054                                   24257266.6884
                                                                        43.2504
        25.0004
  -1227913.45347   -912752.97344
                  23001585.4304                                   23001580.9614
                                                                        43.7504
        29.5004
 09 10  6  1 12  0.0000000  0 10G02G04G05G13G29G10G23G16G07G25
 -14971001.45348 -11608638.35946
                  20815301.2504                                   20815295.1684
                                                                        51.0004
        41.5004
   4060346.44947   3198518.23445
                  23057816.1174                                   23057812.3554
                                                                        44.5004
        31.5004
  -9857988.41848  -7659749.18746
                  22012669.7504                                   22012665.0634
                                                                        50.2504
        39.2504
 -19590882.38748 -15195180.57845
                  21426576.4774                                   21426571.8014
                                                                        49.7504
        35.5004
 -12886812.22348  -9994370.88346
                  22212964.1884                                   22212960.7664
                                                                        49.7504
        37.5004
 -15016304.05948 -11678787.68446
                  21345711.3364                                   21345707.3954
                                                                        50.2504
        39.2504
   -362739.25046   -238079.54744
                  23725435.7584                                   23725429.2464
                                                                        41.2504
        25.7504
  10358905.51246   8110906.67643
                  24105734.1174                                   24105728.6374
                                                                        41.2504
        22.7504
  11445050.59047   8938370.85544
                  24221078.0634                                   24221072.6484
                                                                        43.7504
        25.2504
  -1374178.74647  -1026725.89844
                  22973751.7894                                   22973747.6334
                                                                        45.0004
        28.5004
 09 10  6  1 12 30.0000000  0 10G02G04G05G13G29G10G23G16G07G25
 -15019577.07448 -11646489.49246
                  20806057.3364                                   20806051.3674
                                                                        51.2504
        41.5004
   4069944.58647   3205997.27745
                  23059642.3834                                   23059638.8444
                                                                        45.2504
        31.2504
 -10036777.05948  -7799065.00846
                  21978647.2584                                   21978643.0354
                                                                        50.2504
        39.2504
 -19649680.24648 -15240997.08646
                  21415388.2034                                   21415383.1454
                                                                        49.7504
        36.5004
 -13014870.12548 -10094156.26646
                  22188595.6024                                   22188591.7504
                                                                        48.0004
        37.2504
 -15183136.30948 -11808786.80546
                  21313964.4064                                   21313960.6564
                                                                        49.5004
        39.5004
   -359659.89847   -235680.09444
                  23726021.4384                                   23726015.3794
                                                                        42.5004
        26.7504
  10207588.81346   7992997.55143
                  24076939.6414                                   24076933.7194
                                                                        40.7504
        21.2504
  11255146.63747   8790393.75444
                  24184940.0164                                   24184935.7424
                                                                        42.5004
        25.7504
  -1519928.65247  -1140297.24244
                  22946016.5084                                   22946012.4534
                                                                        44.0004
        29.2504
 09 10  6  1 13  0.0000000  0 10G02G04G05G13G29G10G23G16G07G25
 -15067594.44148 -11683905.62146
                  20796920.5164                                   20796914.0704
                                                                        50.7504
        41.7504
   4079795.99647   3213673.69145
                  23061517.4694                                   23061513.7934
                                                                        46.0004
        32.2504
 -10215195.11748  -7938092.07046
                  21944695.7894                                   21944691.2234
                                                                        49.7504
        39.5004
 -19707842.54348 -15286318.35245
                  21404319.9064                                   21404315.2664
                                                                        50.0004
        35.7504
 -13142337.08648 -10193481.15646
                  22164339.7974                                   22164335.9144
                                                                        49.7504
        37.0004
 -15349503.14848 -11938423.26646
                  21282305.7114                                   21282301.5204
                                                                        50.5004
        40.0004
   -356258.42247   -233029.59444
                  23726669.3754                                   23726662.6604
                                                                        42.7504
        26.7504
  10056795.43046   7875496.18443
                  24048244.4384                                   24048239.1094
                                                                        40.5004
        22.0004
  11065542.84447   8642650.57444
                  24148860.0474                                   24148855.6134
                                                                        42.7504
        26.0004
  -1665159.55947  -1253464.17244
                  22918379.7734                                   22918375.8554
                                                                        43.5004
        28.5004
 09 10  6  1 13 30.0000000  0 10G02G04G05G13G29G10G23G16G07G25
 -15115056.58648 -11720889.11346
                  20787888.4614                                   20787881.9104
                                                                        51.0004
        41.7504
   4089896.63347   3221544.30145
                  23063439.4144                                   23063435.8794
                                                                        46.2504
        32.0004
 -10393242.15648  -8076830.02746
                  21910814.2584                                   21910810.2624
                                                                        50.2504
        39.0004
 -19765372.62148 -15331146.97746
                  21393372.6414                                   21393367.8714
                                                                        50.0004
        36.2504
 -13269213.68048 -10292346.03146
                  22140196.2194                                   22140191.9414
                                                                        49.2504
        37.2504
 -15515404.84848 -12067697.27746
                  21250735.4064                                   21250731.9144
                                                                        49.2504
        39.7504
   -352539.52346   -230131.74644
                  23727376.9224                                   23727370.1334
                                                                        41.5004
        25.5004
   9906525.79346   7758402.98043
                  24019648.6884                                   24019643.8094
                                                                        38.7504
        21.0004
  10876240.54346   8495142.32444
                  24112836.5234                                   24112832.5984
                                                                        41.7504
        25.5004
  -1809871.28147  -1366226.53144
                  22890842.3284                                   22890838.3714
                                                                        44.2504
        28.5004
 09 10  6  1 14  0.0000000  0 10G02G04G05G13G29G10G23G16G07G25
 -15161964.10548 -11757440.42246
                  20778962.0164                                   20778955.6684
                                                                        51.5004
        41.5004
   4100244.66847   3229607.65245
                  23065408.5554                                   23065405.4344
                                                                        45.7504
        32.2504
 -10570915.94148  -8215277.10546
                  21877004.2584                                   21877000.2504
                                                                        50.0004
        39.5004
 -19822271.58248 -15375483.83245
                  21382544.7974                                   21382540.2114
                                                                        49.7504
        35.5004
 -13395498.30948 -10390749.59846
                  22116164.6644                                   22116160.6564
                                                                        49.0004
        37.5004
 -15680839.44148 -12196607.34046
                  21219254.2034                                   21219249.9144
                                                                        50.5004
        39.5004
   -348505.22346   -226988.20743
                  23728143.8594                                   23728137.8444
                                                                        40.5004
        22.0004
   9756782.19146   7641719.67243
                  23991153.2814                                   23991148.6604
                                                                        39.0004
        21.5004
  10687242.94546   8347871.48044
                  24076871.5314                                   24076867.3444
                                                                        40.5004
        26.2504
  -1954061.71547  -1478582.69944
                  22863403.7114                                   22863399.3284
                                                                        44.7504
        29.5004
 09 10  6  1 14 30.0000000  0 10G02G04G05G13G29G10G23G16G07G25
 -15208317.40248 -11793559.86746
                  20770141.2664                                   20770134.9344
                                                                        50.5004
        41.7504
   4110839.45347   3237863.37945
                  23067424.6724                                   23067421.5204
                                                                        44.7504
        31.7504
 -10748213.84848  -8353431.29346
                  21843265.3914                                   21843261.1724
                                                                        50.2504
        39.2504
 -19878539.93448 -15419329.28946
                  21371837.4224                                   21371832.3204
                                                                        48.5004
        36.0004
 -13521188.92248 -10488690.35946
                  22092246.8524                                   22092242.9264
                                                                        49.7504
        37.0004
 -15845804.03148 -12325151.17246
                  21187862.7664                                   21187858.2814
                                                                        49.2504
        39.2504
   -344157.38747   -223600.30943
                  23728971.8674                                   23728965.2894
                                                                        42.5004
        22.2504
   9607567.74646   7525448.69543
                  23962759.0234                                   23962754.0864
                                                                        38.5004
        20.7504
  10498553.99647   8200841.14544
                  24040964.7424                                   24040960.7504
                                                                        42.0004
        25.5004
  -2097727.99247  -1590530.44545
                  22836065.0314                                   22836060.9224
                                                                        44.7504
        30.2504
 09 10  6  1 15  0.0000000  0 10G02G04G05G13G29G10G23G16G07G25
 -15254117.58648 -11829248.33646
                  20761425.7894                                   20761419.7704
                                                                        52.0004
        41.2504
   4121678.32447   3246309.19145
                  23069487.1644                                   23069483.6524
                                                                        45.7504
        30.5004
 -10925133.87148  -8491291.04346
                  21809598.6024                                   21809594.2154
                                                                        50.5004
        39.7504
 -19934179.19948 -15462684.55546
                  21361249.6954                                   21361244.8954
                                                                        49.2504
        36.2504
 -13646283.50848 -10586166.61746
                  22068442.1334                                   22068438.2234
                                                                        49.2504
        37.2504
 -16010296.62148 -12453327.21146
                  21156561.0004                                   21156556.6604
                                                                        51.2504
        39.0004
   -339498.58247   -219970.02743
                  23729858.6644                                   23729851.3094
                                                                        44.0004
        22.2504
   9458884.57046   7409591.69543
                  23934465.7034                                   23934460.8594
                                                                        39.7504
        22.7504
  10310176.85947   8054053.79344
                  24005118.5474                                   24005114.0124
                                                                        42.7504
        26.7504
  -2240868.28547  -1702068.30944
                  22808826.1884                                   22808821.8324
                                                                        44.0004
        29.7504
 09 10  6  1 15 30.0000000  0 10G02G04G05G13G29G10G23G16G07G25
 -15299366.21548 -11864507.01646
                  20752815.3594                                   20752809.3594
                                                                        50.5004
        41.7504
   4132759.07047   3254943.53545
                  23071595.7274                                   23071592.0514
                                                                        46.5004
        30.7504
 -11101674.53148  -8628855.17246
                  21776004.2894                                   21776000.0824
                                                                        50.0004
        39.7504
 -19989190.75048 -15505550.69545
                  21350781.5784                                   21350776.2114
                                                                        49.5004
        35.5004
 -13770782.35948 -10683178.70346
                  22044750.6484                                   22044746.9494
                                                                        48.5004
        37.2504
 -16174315.85248 -12581134.39846
                  21125349.0944                                   21125344.7584
                                                                        51.5004
        39.2504
   -334531.77747   -216099.70743
                  23730803.8834                                   23730796.3284
                                                                        43.5004
        22.7504
   9310734.21546   7294149.87543
                  23906272.9534                                   23906268.3954
                                                                        40.5004
        22.5004
  10122114.00447   7907511.34444
                  23969331.5474                                   23969326.5944
                                                                        43.2504
        26.5004
  -2383481.25447  -1813195.25845
                  22781688.0944                                   22781684.1844
                                                                        44.0004
        30.0004
 09 10  6  1 16  0.0000000  0 10G02G04G05G13G29G10G23G16G07G25
 -15344065.68048 -11899337.79746
                  20744309.4454                                   20744302.8524
                                                                        51.5004
        41.2504
   4144078.25847   3263763.67645
                  23073750.0394                                   23073746.4734
                                                                        47.0004
        31.2504
 -11277835.38348  -8766123.36346
                  21742481.8834                                   21742477.4024
                                                                        49.5004
        40.0004
 -20043577.95748 -15547930.32845
                  21340431.9774                                   21340427.0824
                                                                        48.0004
        35.2504
 -13894685.25048 -10779726.39846
                  22021172.4844                                   22021168.8204
                                                                        49.5004
        37.0004
 -16337861.87148 -12708572.84446
                  21094227.2114                                   21094223.3984
                                                                        51.5004
        39.5004
   -329260.93447   -211992.52344
                  23731806.4694                                   23731799.9384
                                                                        42.2504
        24.5004
   9163117.47347   7179123.87543
                  23878182.9454                                   23878178.0394
                                                                        42.5004
        22.2504
   9934367.09447   7761215.06344
                  23933604.5394                                   23933599.0314
                                                                        43.0004
        25.2504
  -2525566.59447  -1923911.11345
                  22754650.2274                                   22754645.6374
                                                                        44.5004
        30.0004
 09 10  6  1 16 30.0000000  0 10G02G04G05G13G29G10G23G16G07G25
 -15388215.59048 -11933740.32446
                  20735908.0474                                   20735902.0234
                                                                        52.0004
        41.7504
   4155635.72747   3272769.50845
                  23075949.1414                                   23075945.3244
                                                                        46.2504
        31.0004
 -11453612.78948  -8903092.78546
                  21709032.8054                                   21709028.1844
                                                                        50.5004
        40.0004
 -20097340.72347 -15589823.38745
                  21330201.1804                                   21330195.9224
                                                                        47.7504
        35.5004
 -14017989.28948 -10875807.46546
                  21997708.5084                                   21997704.6994
                                                                        49.5004
        37.0004
 -16500930.88348 -12835639.59846
                  21063196.2114                                   21063192.3714
                                                                        50.7504
        39.5004
   -323686.55946   -207648.87144
                  23732867.2504                                   23732860.9064
                                                                        41.0004
        24.2504
   9016038.09446   7064516.54343
                  23850194.5704                                   23850188.9694
                                                                        40.7504
        22.5004
   9746940.72747   7615168.52744
                  23897938.0004                                   23897933.0634
                                                                        44.2504
        25.2504
  -2667120.53547  -2034212.87944
                  22727713.1954                                   22727708.5434
                                                                        43.5004
        29.5004
 09 10  6  1 17  0.0000000  0 10G02G04G05G13G29G10G23G16G07G25
 -15431815.34848 -11967714.16446
                  20727611.2114                                   20727604.8834
                                                                        52.5004
        41.5004
   4167430.80147   3281960.48844
                  23078194.2344                                   23078189.9844
                                                                        46.5004
        29.7504
 -11629003.33248  -9039760.74646
                  21675656.7194                                   21675652.4454
                                                                        49.5004
        39.5004
 -20150479.12948 -15631229.92245
                  21320089.2114                                   21320084.3874
                                                                        48.0004
        35.5004
 -14140691.49248 -10971419.55146
                  21974358.8754                                   21974355.3324
                                                                        49.5004
        37.5004
 -16663519.48448 -12962332.02746
                  21032256.5234                                   21032252.5314
                                                                        51.5004
        39.7504
   -317809.99646   -203069.78143
                  23733985.9304                                   23733979.3324
                                                                        40.0004
        22.7504
   8869499.46946   6950330.61343
                  23822308.8674                                   23822303.9694
                                                                        40.7504
        21.7504
   9559839.60547   7469375.44544
                  23862333.7274                                   23862329.3094
                                                                        43.5004
        26.7504
  -2808139.86347  -2144098.05144
                  22700877.6334                                   22700873.4924
                                                                        43.7504
        29.0004
