     2.11           OBSERVATION DATA    G (GPS)             RINEX VERSION / TYPE
teqc  2019Feb25                         20221121 12:28:14UTCPGM / RUN BY / DATE
OSX ker:10.11.6|Core i5|gcc 4.3 -m64|OSX ker:10.10+|=+      COMMENT
BIT 2 OF LLI FLAGS DATA COLLECTED UNDER A/S CONDITION       COMMENT
04712841                                                    MARKER NAME
2841                                                        MARKER NUMBER
-Unknown-           -Unknown-                               OBSERVER / AGENCY
0220400471          TRIMBLE R7          2.30                REC # / TYPE / VERS
-Unknown-           TRM39105.00     NONE                    ANT # / TYPE
  1449459.8451 -1709240.7754  5952443.9432                  APPROX POSITION XYZ
        0.0000        0.0000        0.0000                  ANTENNA: DELTA H/E/N
     1     1                                                WAVELENGTH FACT L1/2
    20    L1    L2    L5    L6    L7    L8    C1    P1    C2# / TYPES OF OBSERV
          P2    C5    C6    C7    C8    S1    S2    S5    S6# / TYPES OF OBSERV
          S7    S8                                          # / TYPES OF OBSERV
    30.0000                                                 INTERVAL
    15                                                      LEAP SECONDS
Forced Modulo Decimation to 30 seconds                      COMMENT
 SNR is mapped to RINEX snr flag value [0-9]                COMMENT
  L1 & L2: min(max(int(snr_dBHz/6), 0), 9)                  COMMENT
teqc edited: Beidou # 1 - 37 excluded                       COMMENT
  2009    10    11    23    10    0.0000000     GPS         TIME OF FIRST OBS
                                                            END OF HEADER
 09 10 11 23 10  0.0000000  0  8G02G04G12G13G20G23G30G31
   -189379.10558    -83380.34857
                  21319397.0314                                   21319391.3714
                                                                        50.5004
        42.0004
    -89826.87558    -40080.84057
                  20702483.6174                                   20702479.7114
                                                                        52.0004
        42.5004
    -24063.90257    -11201.37155
                  23565211.5864                                   23565208.1764
                                                                        46.7504
        33.0004
   -216291.23457    -95257.84455
                  22580260.1174                                   22580256.3014
                                                                        47.2504
        32.0004
     12978.52757      3988.65254
                  23854705.7734                                   23854701.5124
                                                                        42.5004
        24.2504
   -122248.29757    -53955.37555
                  21942025.4774                                   21942019.0744
                                                                        47.7504
        35.7504
    -85345.19557    -38213.46155
                  22702966.0084                                   22702963.2934
                                                                        45.0004
        30.7504
    -87973.77057    -40512.57855
                  23810906.5784                                   23810901.7624
                                                                        43.5004
        30.2504
 09 10 11 23 10 30.0000000  0  8G02G04G12G13G20G23G30G31
   -349029.82848   -207783.52346
                  21289016.1804                                   21289010.8674
                                                                        51.5004
        41.2504
   -166641.16848    -99936.16046
                  20687866.3754                                   20687862.9804
                                                                        52.0004
        41.2504
    -45708.05747    -28066.94645
                  23561092.9064                                   23561089.0664
                                                                        47.5004
        33.0004
   -398456.36747   -237204.69944
                  22545595.2814                                   22545590.9884
                                                                        47.0004
        29.7504
     22302.92246     11254.39143
                  23856479.0634                                   23856475.5784
                                                                        39.2504
        21.0004
   -225629.20348   -134511.92245
                  21922352.7974                                   21922346.5234
                                                                        48.0004
        34.7504
   -157837.82047    -94701.30545
                  22689171.5634                                   22689168.7814
                                                                        44.5004
        30.0004
   -164839.60547   -100408.06244
                  23796279.4534                                   23796275.4734
                                                                        43.5004
        28.5004
 09 10 11 23 11  0.0000000  0  8G02G04G12G13G20G23G30G31
   -508056.32848   -331700.28146
                  21258754.6024                                   21258748.8914
                                                                        52.0004
        41.2504
   -242719.57048   -159218.04747
                  20673389.0704                                   20673385.7464
                                                                        52.2504
        42.0004
    -66743.85248    -44458.47745
                  23557090.0634                                   23557086.8524
                                                                        48.0004
        34.2504
   -579989.27347   -378658.91045
                  22511050.8054                                   22511046.0984
                                                                        47.0004
        30.7504
     32014.38346     18821.61742
                  23858326.7114                                   23858323.8134
                                                                        37.5004
        17.2504
   -328197.64848   -214435.37545
                  21902835.0004                                   21902828.4964
                                                                        48.0004
        35.0004
   -229491.23847   -150535.16045
                  22675536.5004                                   22675533.8324
                                                                        43.7504
        30.2504
   -240939.57847   -159706.78144
                  23781798.0634                                   23781793.7774
                                                                        42.5004
        29.0004
 09 10 11 23 11 30.0000000  0  8G02G04G12G13G20G23G30G31
   -666154.17248   -454893.41046
                  21228669.6094                                   21228664.3714
                                                                        51.5004
        41.2504
   -317760.04348   -217691.19146
                  20659109.3284                                   20659106.2734
                                                                        52.2504
        41.7504
    -86870.93447    -60141.89545
                  23553259.5554                                   23553256.0824
                                                                        47.5004
        32.2504
   -760584.57048   -519382.50845
                  22476684.7034                                   22476680.1134
                                                                        48.0004
        31.5004
     42413.97647     26925.24743
                  23860307.0784                                   23860302.0124
                                                                        42.0004
        20.0004
   -429650.69548   -293489.68045
                  21883529.3054                                   21883522.6054
                                                                        48.0004
        35.2504
   -300003.87947   -205480.14845
                  22662117.8364                                   22662115.9964
                                                                        45.2504
        30.7504
   -315971.05547   -218172.82844
                  23767520.2344                                   23767516.1954
                                                                        44.5004
        28.5004
 09 10 11 23 12  0.0000000  0  8G02G04G12G13G20G23G30G31
   -823244.25048   -577301.23846
                  21198776.4774                                   21198770.8094
                                                                        51.7504
        41.5004
   -391685.82848   -275295.71547
                  20645041.8984                                   20645038.5084
                                                                        52.7504
        42.2504
   -106015.27347    -75059.57845
                  23549616.6564                                   23549613.0314
                                                                        47.0004
        32.2504
   -940161.89148   -659312.87145
                  22442511.9844                                   22442507.7504
                                                                        48.0004
        30.5004
     53576.21547     35623.11743
                  23862430.8364                                   23862426.1254
                                                                        43.7504
        21.7504
   -529910.52048   -371614.20345
                  21864449.9534                                   21864443.9734
                                                                        48.5004
        35.5004
   -369300.20747   -259477.32845
                  22648932.0004                                   22648928.9694
                                                                        45.7504
        31.0004
   -389858.62547   -275747.59044
                  23753459.9224                                   23753455.7584
                                                                        44.5004
        29.5004
 09 10 11 23 12 30.0000000  0  8G02G04G12G13G20G23G30G31
   -979305.29348   -698907.23446
                  21169079.2344                                   21169073.5744
                                                                        50.7504
        41.0004
   -464477.91448   -332016.85547
                  20631189.8364                                   20631186.4574
                                                                        53.0004
        42.0004
   -124159.45347    -89197.92645
                  23546164.1334                                   23546159.9844
                                                                        47.7504
        32.7504
  -1118698.63347   -798432.39845
                  22408537.8674                                   22408532.9734
                                                                        47.5004
        31.2504
     65519.29747     44929.39543
                  23864704.1564                                   23864699.3284
                                                                        44.7504
        22.5004
   -628957.24248   -448793.45745
                  21845602.3594                                   21845595.7774
                                                                        48.0004
        35.5004
   -437361.29347   -312511.95345
                  22635980.3834                                   22635977.6214
                                                                        44.0004
        31.0004
   -462582.73047   -332415.72345
                  23739621.0394                                   23739616.6724
                                                                        45.0004
        30.0004
 09 10 11 23 13  0.0000000  0  8G02G04G12G13G20G23G30G31
  -1134347.23048   -819719.10946
                  21139575.7424                                   21139570.1174
                                                                        50.5004
        41.5004
   -536149.05148   -387864.49647
                  20617551.3914                                   20617548.0004
                                                                        52.5004
        42.0004
   -141318.44047   -102568.57245
                  23542898.5314                                   23542894.8834
                                                                        47.0004
        31.0004
  -1296204.96147   -936749.00845
                  22374759.2344                                   22374755.1684
                                                                        47.5004
        31.7504
     78228.01647     54832.26644
                  23867121.8444                                   23867117.8594
                                                                        43.0004
        24.7504
   -726803.30548   -525037.14145
                  21826982.3914                                   21826976.1454
                                                                        48.0004
        35.5004
   -504200.57447   -364594.51245
                  22623260.9614                                   22623258.7424
                                                                        45.2504
        31.0004
   -534156.85547   -388187.77044
                  23726000.9924                                   23725996.3914
                                                                        43.5004
        29.5004
 09 10 11 23 13 30.0000000  0  8G02G04G12G13G20G23G30G31
  -1288389.14548   -939751.72346
                  21110262.1954                                   21110256.7774
                                                                        51.2504
        41.7504
   -606720.30948   -442855.07047
                  20604121.8914                                   20604118.5664
                                                                        52.7504
        42.0004
   -157515.14547   -115189.37945
                  23539815.9924                                   23539812.6024
                                                                        46.5004
        30.2504
  -1472697.55148  -1074275.67245
                  22341173.6334                                   22341170.2854
                                                                        48.0004
        32.0004
     91680.31346     65314.51643
                  23869680.8284                                   23869677.5984
                                                                        41.5004
        22.5004
   -823468.48048   -600360.65245
                  21808587.4534                                   21808581.7114
                                                                        48.0004
        35.7504
   -569839.62547   -415741.78945
                  22610770.4534                                   22610767.3754
                                                                        44.0004
        30.0004
   -604601.62147   -443079.80544
                  23712595.8364                                   23712591.7664
                                                                        44.5004
        29.2504
 09 10 11 23 14  0.0000000  0  8G02G04G12G13G20G23G30G31
  -1441453.10548  -1059022.31246
                  21081135.0554                                   21081129.5904
                                                                        50.0004
        41.5004
   -676216.45348   -497007.89546
                  20590897.4614                                   20590894.0314
                                                                        52.5004
        41.5004
   -172776.13347   -127081.07445
                  23536912.0944                                   23536908.5634
                                                                        46.2504
        31.0004
  -1648198.14548  -1211029.36345
                  22307777.2344                                   22307773.6134
                                                                        48.5004
        32.2504
    105849.69946     76355.54343
                  23872377.5554                                   23872374.6214
                                                                        39.5004
        19.5004
   -918976.69547   -674782.64145
                  21790413.0864                                   21790406.9534
                                                                        47.5004
        35.5004
   -634303.84847   -465973.66845
                  22598503.1414                                   22598500.3594
                                                                        44.5004
        31.0004
   -673942.26647   -497111.48044
                  23699400.6094                                   23699396.5824
                                                                        44.5004
        29.7504
 09 10 11 23 14 30.0000000  0  8G02G04G12G13G20G23G30G31
  -1593562.55548  -1177549.16446
                  21052189.6334                                   21052184.2664
                                                                        51.5004
        41.2504
   -744663.53548   -550343.34047
                  20577872.3524                                   20577868.7854
                                                                        53.5004
        42.0004
   -187129.21947   -138265.30145
                  23534180.8594                                   23534177.3594
                                                                        47.7504
        30.7504
  -1822729.27747  -1347027.63745
                  22274565.5554                                   22274561.2704
                                                                        47.7504
        31.2504
    120708.08646     87933.44543
                  23875205.4614                                   23875201.5084
                                                                        39.2504
        20.0004
  -1013353.46948   -748322.98045
                  21772454.0474                                   21772447.8714
                                                                        48.0004
        35.7504
   -697619.88347   -515310.84445
                  22586454.7504                                   22586452.1804
                                                                        46.0004
        30.5004
   -742205.55947   -550303.68444
                  23686410.7274                                   23686406.0984
                                                                        44.0004
        29.2504
 09 10 11 23 15  0.0000000  0  8G02G04G12G13G20G23G30G31
  -1744742.21948  -1295351.51246
                  21023420.8914                                   21023415.3164
                                                                        51.7504
        41.5004
   -812088.97748   -602882.71946
                  20565041.7894                                   20565038.3634
                                                                        52.5004
        41.5004
   -200603.62947   -148764.82445
                  23531616.8134                                   23531613.3674
                                                                        46.7504
        31.2504
  -1996315.33648  -1482289.50045
                  22241532.5864                                   22241528.7624
                                                                        48.0004
        32.2504
    136226.79346    100025.91043
                  23878158.7584                                   23878154.8914
                                                                        41.0004
        20.7504
  -1106625.80548   -821002.71146
                  21754704.7734                                   21754698.7384
                                                                        48.0004
        36.2504
   -759815.12547   -563774.75445
                  22574619.2424                                   22574616.8914
                                                                        45.2504
        30.7504
   -809418.24647   -602677.20745
                  23673620.1724                                   23673615.8094
                                                                        44.0004
        30.0004
 09 10 11 23 15 30.0000000  0  8G02G04G12G13G20G23G30G31
  -1895012.51248  -1412445.27346
                  20994825.5864                                   20994819.8834
                                                                        50.2504
        41.5004
   -878515.14848   -654643.38746
                  20552401.2894                                   20552398.0704
                                                                        52.2504
        41.7504
   -213224.45747   -158599.22745
                  23529215.1644                                   23529212.0594
                                                                        46.7504
        32.2504
  -2168974.77748  -1616829.32845
                  22208676.5784                                   22208672.5084
                                                                        48.0004
        31.7504
    152382.04346    112614.44143
                  23881233.1254                                   23881228.3984
                                                                        41.2504
        20.0004
  -1198814.94547   -892838.38745
                  21737161.6414                                   21737155.2974
                                                                        47.2504
        35.5004
   -820913.65247   -611384.09045
                  22562992.8984                                   22562990.3794
                                                                        45.5004
        30.5004
   -875603.53547   -654250.17644
                  23661025.7114                                   23661021.6334
                                                                        44.7504
        28.7504
 09 10 11 23 16  0.0000000  0  8G02G04G12G13G20G23G30G31
  -2044394.41848  -1528846.76646
                  20966398.8524                                   20966393.5664
                                                                        50.5004
        41.0004
   -943965.91848   -705643.99246
                  20539946.5704                                   20539942.9924
                                                                        52.0004
        41.5004
   -225016.58647   -167787.87545
                  23526971.8754                                   23526967.9454
                                                                        47.2504
        32.7504
  -2340728.13748  -1750663.10945
                  22175993.0084                                   22175988.8444
                                                                        48.7504
        31.7504
    169148.46546    125679.22343
                  23884423.9694                                   23884419.2504
                                                                        41.5004
        20.5004
  -1289943.86747   -963847.91845
                  21719820.2814                                   21719813.8834
                                                                        47.2504
        34.7504
   -880938.57447   -658156.80145
                  22551570.2194                                   22551567.7034
                                                                        45.0004
        30.2504
   -940784.92647   -705040.89144
                  23648622.2274                                   23648617.5744
                                                                        44.2504
        29.5004
 09 10 11 23 16 30.0000000  0  8G02G04G12G13G20G23G30G31
  -2192906.39848  -1644570.33646
                  20938138.0704                                   20938132.6684
                                                                        51.2504
        41.5004
  -1008461.88348   -755900.58246
                  20527673.0944                                   20527669.9964
                                                                        52.2504
        41.7504
   -236003.54347   -176349.08245
                  23524881.0554                                   23524876.8554
                                                                        47.7504
        32.0004
  -2511592.34848  -1883804.08645
                  22143478.8134                                   22143474.0124
                                                                        48.5004
        30.7504
    186504.11746    139203.06643
                  23887725.8364                                   23887721.9924
                                                                        39.2504
        20.7504
  -1380032.64848  -1034046.95345
                  21702677.0394                                   21702670.7624
                                                                        48.2504
        34.7504
   -939912.60547   -704110.61745
                  22540347.8364                                   22540345.2934
                                                                        45.0004
        30.5004
  -1004984.08247   -755066.19944
                  23636405.8984                                   23636400.8594
                                                                        44.5004
        28.2504
 09 10 11 23 17  0.0000000  0  8G02G04G12G13G20G23G30G31
  -2340568.24248  -1759631.44946
                  20910038.8524                                   20910033.4104
                                                                        50.7504
        41.7504
  -1072026.15248   -805431.21946
                  20515577.3754                                   20515574.1804
                                                                        52.0004
        41.5004
   -246209.07447   -184301.33645
                  23522938.2814                                   23522934.9694
                                                                        46.7504
        31.7504
  -2681587.78147  -2016268.08245
                  22111129.3674                                   22111125.3134
                                                                        47.7504
        31.5004
    204424.09446    153166.64843
                  23891136.0394                                   23891132.0124
                                                                        39.5004
        21.2504
  -1469103.60247  -1103452.88345
                  21685727.6644                                   21685721.6254
                                                                        47.0004
        35.5004
   -997857.70347   -749262.64544
                  22529321.3054                                   22529318.8674
                                                                        45.0004
        29.5004
  -1068223.25047   -804343.47344
                  23624371.2274                                   23624367.1454
                                                                        43.2504
        28.7504
 09 10 11 23 17 30.0000000  0  8G02G04G12G13G20G23G30G31
  -2487396.56248  -1874043.05947
                  20882098.1884                                   20882092.9184
                                                                        51.7504
        42.0004
  -1134676.81648   -854249.89146
                  20503655.3364                                   20503652.1094
                                                                        52.2504
        41.0004
   -255654.49247   -191661.36745
                  23521141.2664                                   23521137.5474
                                                                        45.5004
        31.0004
  -2850728.64547  -2148066.16445
                  22078943.1484                                   22078938.8834
                                                                        47.7504
        31.7504
    222889.03546    167554.89143
                  23894649.9144                                   23894645.6684
                                                                        40.0004
        22.0004
  -1557174.16048  -1172079.32445
                  21668967.9534                                   21668962.0314
                                                                        48.5004
        35.7504
  -1054794.00447   -793628.62945
                  22518486.3444                                   22518484.6484
                                                                        43.7504
        30.7504
  -1130521.68047   -852887.71944
                  23612516.4924                                   23612511.7814
                                                                        43.5004
        28.0004
 09 10 11 23 18  0.0000000  0  8G02G04G12G13G20G23G30G31
  -2633408.62948  -1987818.69547
                  20854313.0704                                   20854307.6764
                                                                        52.2504
        42.0004
  -1196434.15648   -902372.50446
                  20491903.2974                                   20491900.0274
                                                                        53.0004
        41.7504
   -264360.92647   -198445.63745
                  23519483.7664                                   23519481.1414
                                                                        45.2504
        30.7504
  -3019031.85247  -2279211.51245
                  22046916.0864                                   22046912.3594
                                                                        47.7504
        32.0004
    241876.93846    182350.64843
                  23898263.4694                                   23898259.8954
                                                                        40.0004
        22.2504
  -1644264.14148  -1239941.65645
                  21652395.5004                                   21652389.5744
                                                                        49.2504
        34.5004
  -1110741.93747   -837224.43045
                  22507840.2584                                   22507837.5634
                                                                        45.7504
        30.0004
  -1191899.81647   -900714.84444
                  23600836.7814                                   23600831.6024
                                                                        45.0004
        28.5004
 09 10 11 23 18 30.0000000  0  8G02G04G12G13G20G23G30G31
  -1203193.91048   -873365.68447
                  21126474.0164                                   21126468.7974
                                                                        51.7504
        42.2504
    318106.96148    277789.41446
                  20780110.9144                                   20780107.7734
                                                                        52.5004
        41.5004
   1303072.64847   1022931.16845
                  23817756.8204                                   23817753.7114
                                                                        45.5004
        30.0004
  -1611085.29748  -1182110.29345
                  22314839.8674                                   22314835.6334
                                                                        49.0004
        33.7504
   1836789.37946   1425139.49643
                  24201765.3054                                   24201761.5354
                                                                        38.5004
        21.0004
   -154966.32848    -79449.85245
                  21935799.3364                                   21935793.5744
                                                                        48.7504
        35.2504
    409702.97347    347537.79344
                  22797171.2814                                   22797168.6954
                                                                        45.0004
        29.7504
    323047.84447    279763.84844
                  23889122.2584                                   23889117.0044
                                                                        44.5004
        27.2504
 09 10 11 23 19  0.0000000  0  8G02G04G12G13G20G23G30G31
  -1347616.27348   -985902.59847
                  21098991.4694                                   21098986.0784
                                                                        51.7504
        42.0004
    258085.84048    231019.73047
                  20768689.0164                                   20768685.8094
                                                                        53.0004
        42.0004
   1295786.66447   1017253.73445
                  23816370.6414                                   23816367.3284
                                                                        45.2504
        30.2504
  -1777753.53948  -1311981.67645
                  22283123.4304                                   22283119.6094
                                                                        49.0004
        33.0004
   1856769.00046   1440708.05143
                  24205567.2274                                   24205562.7504
                                                                        40.5004
        19.7504
   -240142.78948   -145821.12145
                  21919590.8134                                   21919584.4414
                                                                        50.0004
        35.0004
    355679.60247    305441.66845
                  22786891.2584                                   22786888.1994
                                                                        46.2504
        30.0004
    263459.70347    233331.54744
                  23877782.5084                                   23877777.3524
                                                                        44.7504
        27.5004
 09 10 11 23 19 30.0000000  0  8G02G04G12G13G20G23G30G31
  -1491263.44948  -1097835.47747
                  21071656.5164                                   21071650.9614
                                                                        51.7504
        42.0004
    198909.59048    184908.41846
                  20757428.3674                                   20757425.1374
                                                                        53.0004
        41.7504
   1289184.85547   1012109.47345
                  23815113.9924                                   23815110.7544
                                                                        46.0004
        31.0004
  -1943621.75848  -1441229.61745
                  22251559.7344                                   22251555.9614
                                                                        48.7504
        32.5004
   1877219.23846   1456643.29743
                  24209458.9924                                   24209454.8484
                                                                        40.5004
        19.0004
   -324384.67248   -211464.15245
                  21903560.0634                                   21903553.9344
                                                                        49.0004
        35.0004
    302593.97747    264076.27745
                  22776789.2114                                   22776786.0634
                                                                        45.7504
        30.0004
    204742.91047    187578.19944
                  23866609.1334                                   23866603.8244
                                                                        43.2504
        27.2504
 09 10 11 23 20  0.0000000  0  8G02G04G12G13G20G23G30G31
  -1634147.10248  -1209173.34846
                  21044466.3914                                   21044461.1994
                                                                        52.2504
        41.2504
    140563.63748    139444.06347
                  20746325.4694                                   20746321.9184
                                                                        52.5004
        42.0004
   1283251.18447   1007485.83645
                  23813985.5234                                   23813981.2624
                                                                        46.0004
        30.2504
  -2108701.62148  -1569863.26245
                  22220146.4454                                   22220142.2154
                                                                        49.0004
        33.0004
   1898123.78946   1472932.56343
                  24213436.9614                                   24213432.6844
                                                                        40.5004
        18.2504
   -407706.28548   -276390.06646
                  21887704.5704                                   21887698.4384
                                                                        50.0004
        36.0004
    250430.87547    223429.68844
                  22766863.0864                                   22766859.7194
                                                                        46.0004
        29.0004
    146882.42647    142492.11344
                  23855598.6174                                   23855593.3834
                                                                        44.5004
        27.0004
 09 10 11 23 20 30.0000000  0  8G02G04G12G13G20G23G30G31
  -1776281.70348  -1319927.56246
                  21017419.0864                                   21017413.6134
                                                                        52.0004
        41.5004
     83030.90248     94613.39846
                  20735377.0234                                   20735374.0124
                                                                        52.5004
        41.7504
   1277966.61347   1003367.98044
                  23812979.8674                                   23812975.4694
                                                                        46.2504
        29.7504
  -2273006.64848  -1697893.17245
                  22188880.0394                                   22188875.9414
                                                                        49.2504
        31.7504
   1919464.92246   1489562.03943
                  24217498.1024                                   24217493.3754
                                                                        39.5004
        20.0004
   -490123.56248   -340611.33645
                  21872021.0164                                   21872014.9884
                                                                        50.2504
        35.0004
    199172.41047    183488.02344
                  22757108.7114                                   22757105.2504
                                                                        45.5004
        29.2504
     89860.96547     98059.79744
                  23844747.4224                                   23844741.8874
                                                                        44.0004
        26.0004
 09 10 11 23 21  0.0000000  0  8G02G04G12G13G20G23G30G31
  -1917675.84048  -1430104.78546
                  20990512.3834                                   20990507.0634
                                                                        52.2504
        41.5004
     26300.63748     50408.04346
                  20724581.9774                                   20724578.5394
                                                                        52.5004
        41.7504
   1273318.26647    999745.87944
                  23812095.5554                                   23812090.8014
                                                                        46.0004
        29.5004
  -2436544.17648  -1825325.02345
                  22157759.7734                                   22157755.9964
                                                                        48.2504
        32.5004
   1941230.22346   1506521.96943
                  24221639.3674                                   24221635.7304
                                                                        39.0004
        19.2504
   -571647.08248   -404136.16045
                  21856507.7734                                   21856501.7624
                                                                        49.5004
        35.0004
    148807.10547    144242.35944
                  22747524.5234                                   22747521.0434
                                                                        45.5004
        29.5004
     33667.37147     54272.58644
                  23834054.3444                                   23834048.9884
                                                                        43.7504
        26.0004
 09 10 11 23 21 30.0000000  0  8G02G04G12G13G20G23G30G31
  -2058335.11348  -1539709.47746
                  20963745.8054                                   20963740.4494
                                                                        52.2504
        41.5004
    -29635.55148      6821.43047
                  20713937.5554                                   20713934.1094
                                                                        53.0004
        42.0004
   1269296.44947    996611.99645
                  23811329.7974                                   23811326.0824
                                                                        46.2504
        30.0004
  -2599318.94948  -1952162.51245
                  22126784.6094                                   22126780.6844
                                                                        48.0004
        32.0004
   1963410.23046   1523805.02343
                  24225860.5864                                   24225855.8524
                                                                        39.7504
        21.2504
   -652283.93748   -466970.06645
                  21841163.1644                                   21841156.7894
                                                                        50.0004
        35.2504
     99326.57047    105686.10544
                  22738108.8204                                   22738104.9694
                                                                        45.5004
        29.5004
    -21706.44147     11124.14844
                  23823516.7894                                   23823512.1414
                                                                        43.7504
        27.5004
 09 10 11 23 22  0.0000000  0  8G02G04G12G13G20G23G30G31
  -2198275.06248  -1648753.61347
                  20937116.4534                                   20937110.9024
                                                                        52.0004
        42.0004
    -84795.96548    -36160.66847
                  20703440.9384                                   20703437.3364
                                                                        52.7504
        42.0004
   1265880.57447    993950.25845
                  23810679.5784                                   23810676.4384
                                                                        45.7504
        31.0004
  -2761346.12948  -2078417.46945
                  22095951.8364                                   22095947.7464
                                                                        48.2504
        32.5004
   1985984.72746   1541395.49243
                  24230156.1094                                   24230151.8984
                                                                        40.2504
        20.2504
   -732052.57848   -529127.43445
                  21825983.2734                                   21825977.3164
                                                                        50.0004
        35.2504
     50711.14147     67803.94944
                  22728857.6644                                   22728853.9344
                                                                        45.5004
        29.7504
    -76279.91447    -31400.63344
                  23813131.9384                                   23813126.9964
                                                                        44.0004
        27.0004
 09 10 11 23 22 30.0000000  0  8G02G04G12G13G20G23G30G31
  -2337501.19148  -1757241.53147
                  20910622.6644                                   20910617.3484
                                                                        53.0004
        42.5004
   -139188.52048    -78544.47346
                  20693090.1564                                   20693086.8324
                                                                        52.7504
        41.0004
   1263061.00847    991753.16845
                  23810143.0704                                   23810140.0234
                                                                        45.2504
        32.5004
  -2922630.01648  -2204093.22345
                  22065260.7894                                   22065256.4884
                                                                        48.7504
        32.5004
   2008944.92246   1559286.55543
                  24234525.0084                                   24234521.0124
                                                                        39.7504
        19.0004
   -810959.89148   -590613.63345
                  21810967.6414                                   21810961.6684
                                                                        49.5004
        35.0004
      2952.60947     30589.50845
                  22719768.6644                                   22719766.3204
                                                                        44.5004
        30.5004
   -130060.59847    -73307.66044
                  23802897.2814                                   23802893.0474
                                                                        44.0004
        27.2504
 09 10 11 23 23  0.0000000  0  8G02G04G12G13G20G23G30G31
  -2476023.78948  -1865181.19547
                  20884262.5004                                   20884257.0354
                                                                        52.7504
        42.0004
   -192826.17648   -120340.07046
                  20682883.1254                                   20682880.1764
                                                                        53.5004
        41.5004
   1260822.96947    990009.16845
                  23809716.8444                                   23809714.2464
                                                                        44.5004
        30.0004
  -3083179.80548  -2329196.92245
                  22034709.0944                                   22034704.9534
                                                                        49.0004
        32.5004
   2032277.13346   1577467.50043
                  24238965.5004                                   24238961.0864
                                                                        40.0004
        19.0004
   -889017.98848   -651438.11345
                  21796113.6174                                   21796107.8554
                                                                        49.7504
        34.7504
    -43962.84447     -5968.02745
                  22710841.5944                                   22710838.5864
                                                                        45.5004
        30.5004
   -183061.68447   -114607.19944
                  23792811.6094                                   23792807.4454
                                                                        43.5004
        27.5004
 09 10 11 23 23 30.0000000  0  8G02G04G12G13G20G23G30G31
  -2613848.43048  -1972577.05147
                  20858035.5474                                   20858030.2074
                                                                        52.5004
        42.2504
   -245717.10248   -161553.77346
                  20672818.5164                                   20672815.3094
                                                                        53.0004
        41.5004
   1259156.81347    988710.80944
                  23809400.1644                                   23809397.1174
                                                                        44.7504
        29.5004
  -3243000.66448  -2453732.61345
                  22004296.0634                                   22004292.1564
                                                                        49.0004
        32.5004
   2055971.48046   1595930.59043
                  24243474.1174                                   24243470.8204
                                                                        38.7504
        19.5004
   -966234.91448   -711607.14145
                  21781419.8834                                   21781413.7704
                                                                        49.0004
        35.2504
    -90044.11747    -41875.52345
                  22702072.4384                                   22702069.7504
                                                                        45.0004
        30.0004
   -235292.31647   -155306.40644
                  23782872.9614                                   23782868.4384
                                                                        42.7504
        27.0004
 09 10 11 23 24  0.0000000  0  8G02G04G12G13G20G23G30G31
  -2750984.53148  -2079436.34847
                  20831939.2194                                   20831933.9774
                                                                        52.5004
        42.0004
   -297872.89548   -202194.61746
                  20662893.7504                                   20662890.4144
                                                                        52.7504
        41.5004
   1258048.09447    987846.81344
                  23809189.4924                                   23809185.7274
                                                                        46.0004
        29.0004
  -3402100.60548  -2577706.57445
                  21974020.6414                                   21974016.9224
                                                                        49.2504
        33.2504
   2080014.88346   1614665.70343
                  24248049.6484                                   24248045.9494
                                                                        40.0004
        19.5004
  -1042621.69148   -771129.29745
                  21766883.9304                                   21766877.7464
                                                                        49.5004
        34.5004
   -135304.33247    -77143.22744
                  22693459.6804                                   22693457.3524
                                                                        45.0004
        29.2504
   -286764.38346   -195414.53144
                  23773078.0634                                   23773073.4734
                                                                        40.7504
        26.7504
 09 10 11 23 24 30.0000000  0  8G02G04G12G13G20G23G30G31
  -2887438.82848  -2185764.36747
                  20805972.9774                                   20805967.8094
                                                                        51.5004
        42.2504
   -349303.64848   -242270.52347
                  20653106.7034                                   20653103.4144
                                                                        53.0004
        42.0004
   1257486.49647    987409.28944
                  23809082.4774                                   23809078.1564
                                                                        45.7504
        29.0004
  -3560486.30548  -2701124.00845
                  21943880.7734                                   21943876.4884
                                                                        48.5004
        33.0004
   2104396.19946   1633664.12143
                  24252689.6254                                   24252685.4064
                                                                        40.0004
        20.7504
  -1118187.37148   -830011.64145
                  21752504.5314                                   21752498.2664
                                                                        50.0004
        34.7504
   -179753.44147   -111778.94545
                  22685001.5234                                   22684998.8914
                                                                        43.5004
        31.0004
   -337487.63347   -234939.14544
                  23763425.0864                                   23763421.0234
                                                                        42.5004
        27.5004
 09 10 11 23 25  0.0000000  0  8G02G04G12G13G20G23G30G31
  -3023214.18748  -2291563.34847
                  20780136.1174                                   20780130.6214
                                                                        51.5004
        42.7504
   -400013.98848   -281785.09446
                  20643456.5944                                   20643453.3014
                                                                        53.0004
        41.7504
   1257463.90247    987391.72745
                  23809078.1174                                   23809073.5514
                                                                        46.0004
        30.0004
  -3718158.73048  -2823985.63345
                  21913876.7814                                   21913872.6134
                                                                        49.5004
        33.2504
   2129110.25846   1652921.83643
                  24257391.9844                                   24257388.1374
                                                                        39.5004
        21.0004
  -1192935.98848   -888257.30945
                  21738280.1644                                   21738273.8594
                                                                        49.0004
        34.5004
   -223397.69147   -145787.45344
                  22676696.0084                                   22676693.7424
                                                                        43.5004
        29.7504
   -387467.57647   -273884.57444
                  23753914.7274                                   23753910.2034
                                                                        43.7504
        27.0004
 09 10 11 23 25 30.0000000  0  7G02G04G12G13G23G30G31
  -3158319.52748  -2396840.24247
                  20754425.9774                                   20754420.5904
                                                                        52.5004
        42.2504
   -450016.31648   -320747.96146
                  20633941.5474                                   20633938.7114
                                                                        53.2504
        41.5004
   1257967.65647    987784.35245
                  23809174.0084                                   23809170.2704
                                                                        46.0004
        30.7504
  -3875127.07048  -2946298.62545
                  21884006.5784                                   21884002.4614
                                                                        49.2504
        33.0004
  -1266880.12148   -945876.10245
                  21724208.8914                                   21724202.6684
                                                                        49.0004
        34.0004
   -266249.04747   -179178.07845
                  22668541.9384                                   22668539.5394
                                                                        45.5004
        30.2504
   -436716.49947   -312260.36544
                  23744543.0234                                   23744538.7734
                                                                        44.5004
        28.0004
 09 10 11 23 26  0.0000000  0  7G02G04G12G13G23G30G31
  -3292759.90248  -2501598.98047
                  20728843.0944                                   20728837.5944
                                                                        51.0004
        42.0004
   -499317.49248   -359164.49246
                  20624559.9064                                   20624556.6914
                                                                        52.5004
        41.5004
   1258987.64147    988579.11344
                  23809368.0554                                   23809364.4924
                                                                        43.7504
        29.7504
  -4031394.59048  -3068065.54745
                  21854270.0164                                   21854265.9574
                                                                        49.2504
        32.7504
  -1340025.35948  -1002872.37545
                  21710290.1724                                   21710283.3914
                                                                        48.5004
        35.0004
   -308316.35547   -211957.81645
                  22660536.9384                                   22660534.2384
                                                                        43.5004
        30.0004
   -485242.04747   -350072.45744
                  23735308.7584                                   23735304.6954
                                                                        44.5004
        27.5004
 09 10 11 23 26 30.0000000  0  7G02G04G12G13G23G30G31
  -3426537.71948  -2605841.42647
                  20703385.9064                                   20703380.2074
                                                                        51.5004
        42.5004
   -547922.95348   -397038.90246
                  20615310.8754                                   20615307.5944
                                                                        53.2504
        41.5004
   1260517.58247    989771.23844
                  23809658.7194                                   23809655.6844
                                                                        43.0004
        29.2504
  -4186963.49648  -3189288.04745
                  21824666.0394                                   21824662.2504
                                                                        49.5004
        33.0004
  -1412377.28548  -1059250.52045
                  21696522.0004                                   21696515.4414
                                                                        48.0004
        35.0004
   -349605.33247   -244131.03945
                  22652679.6564                                   22652677.0554
                                                                        44.2504
        31.0004
   -533050.02747   -387325.44144
                  23726211.3914                                   23726207.1914
                                                                        44.0004
        28.2504
 09 10 11 23 27  0.0000000  0  8G02G04G12G13G29G23G30G31
  -3559653.57848  -2709568.05147
                  20678054.5164                                   20678049.0594
                                                                        51.0004
        42.2504
   -595835.83648   -434373.63346
                  20606193.1334                                   20606189.9454
                                                                        53.5004
        41.7504
   1262552.68447    991357.00844
                  23810045.9614                                   23810042.6724
                                                                        44.0004
        29.0004
  -4341833.06648  -3309965.62545
                  21795195.4064                                   21795191.1094
                                                                        49.0004
        33.0004
   1336185.38356   1078527.36353
                  24259740.1484                                   24259737.6564
                                                                        39.7504
        23.5004
  -1483937.70348  -1115011.87545
                  21682904.6094                                   21682898.6844
                                                                        48.5004
        35.0004
   -390120.00447   -275700.87545
                  22644969.8364                                   22644967.6254
                                                                        44.7504
        31.5004
   -580143.42647   -424021.59444
                  23717249.9454                                   23717245.2544
                                                                        43.5004
        28.0004
 09 10 11 23 27 30.0000000  0  8G02G04G12G13G29G23G30G31
  -2116690.85548  -1585181.48847
                  20952641.3524                                   20952635.8984
                                                                        52.0004
        42.2504
    932354.93848    756424.30946
                  20896998.0554                                   20896994.6054
                                                                        52.7504
        41.5004
   2840499.94947   2220926.27745
                  24110319.7504                                   24110315.7464
                                                                        45.0004
        30.2504
  -2920585.41448  -2202499.92245
                  22065650.0864                                   22065646.1884
                                                                        49.5004
        33.2504
   2723041.01646   2159194.11744
                  24523650.8834                                   24523647.3094
                                                                        41.2504
        24.7504
     20705.20348     57437.15245
                  21969228.4144                                   21969222.3484
                                                                        49.0004
        35.0004
   1145549.72747    920924.91845
                  22937198.0634                                   22937195.6644
                                                                        44.5004
        30.5004
    948888.23446    767431.64144
                  24008214.3524                                   24008210.4184
                                                                        41.5004
        27.7504
 09 10 11 23 28  0.0000000  0  8G02G04G12G13G29G23G30G31
  -2248514.30548  -1687901.02347
                  20927556.1884                                   20927550.6414
                                                                        51.5004
        42.2504
    885787.27748    720137.79346
                  20888136.4924                                   20888133.4344
                                                                        52.0004
        41.5004
   2843499.62147   2223263.68044
                  24110890.2894                                   24110887.2114
                                                                        44.2504
        29.2504
  -3074086.62548  -2322111.24645
                  22036439.4694                                   22036435.3954
                                                                        50.0004
        33.7504
   2534835.88346   2012540.75844
                  24487835.9384                                   24487832.7734
                                                                        41.0004
        24.5004
    -49311.48048      2878.69945
                  21955904.5554                                   21955898.2704
                                                                        49.2504
        35.0004
   1106541.55547    890529.00445
                  22929775.2664                                   22929772.4964
                                                                        45.5004
        30.7504
    903182.21146    731816.57044
                  23999517.2504                                   23999513.0394
                                                                        40.7504
        28.0004
 09 10 11 23 28 30.0000000  0  8G02G04G12G13G29G23G30G31
  -2379703.23848  -1790126.13347
                  20902591.7664                                   20902586.2234
                                                                        51.5004
        42.0004
    839877.40248    684363.82046
                  20879400.4924                                   20879397.0004
                                                                        53.5004
        41.2504
   2846963.39147   2225962.70345
                  24111549.8834                                   24111546.2504
                                                                        44.5004
        30.0004
  -3226912.79348  -2441196.57845
                  22007357.6094                                   22007353.5204
                                                                        49.2504
        33.2504
   2346993.52046   1866170.10244
                  24452091.2274                                   24452088.0004
                                                                        40.0004
        25.7504
   -118569.77348    -51088.78145
                  21942725.3054                                   21942719.3794
                                                                        48.5004
        34.5004
   1068269.53947    860706.58645
                  22922491.7814                                   22922489.6024
                                                                        45.0004
        30.2504
    858154.01247    696729.62944
                  23990949.1334                                   23990944.7234
                                                                        43.2504
        28.0004
 09 10 11 23 29  0.0000000  0  8G02G04G12G13G29G23G30G31
  -2510255.96948  -1891855.52347
                  20877748.2034                                   20877742.7304
                                                                        51.2504
        42.5004
    794623.55548    649101.05546
                  20870788.8594                                   20870785.6454
                                                                        52.7504
        41.2504
   2850888.95347   2229021.59445
                  24112296.6724                                   24112293.4964
                                                                        45.2504
        30.7504
  -3379062.84448  -2559755.07045
                  21978404.1724                                   21978400.3914
                                                                        49.2504
        33.7504
   2159517.20746   1720084.63744
                  24416415.4534                                   24416413.0704
                                                                        40.7504
        27.0004
   -187072.09048   -104467.20745
                  21929689.8754                                   21929683.5204
                                                                        48.2504
        34.7504
   1030732.97747    831457.34444
                  22915349.2814                                   22915346.5944
                                                                        45.5004
        29.7504
    813802.37947    662169.91844
                  23982508.9534                                   23982504.7624
                                                                        43.5004
        27.5004
 09 10 11 23 29 30.0000000  0  8G02G04G12G13G29G23G30G31
  -2640176.43748  -1993092.24247
                  20853025.2034                                   20853019.7234
                                                                        50.2504
        42.2504
    750019.74248    614344.82846
                  20862301.2584                                   20862297.9694
                                                                        53.5004
        41.5004
   2855267.66047   2232433.53545
                  24113130.1564                                   24113126.8324
                                                                        45.0004
        30.7504
  -3530538.99648  -2677788.43445
                  21949579.2344                                   21949575.4454
                                                                        49.5004
        34.0004
   1972403.76646   1574281.96544
                  24380808.3984                                   24380806.1884
                                                                        39.7504
        25.5004
   -254823.24647   -157260.31645
                  21916796.7894                                   21916790.9734
                                                                        47.2504
        34.5004
    993923.41447    802774.55145
                  22908343.9694                                   22908341.7624
                                                                        44.5004
        30.0004
    770120.40647    628132.01244
                  23974196.5164                                   23974192.0864
                                                                        43.5004
        28.0004
 09 10 11 23 30  0.0000000  0  8G02G04G12G13G29G23G30G31
  -2769463.60948  -2093835.50047
                  20828422.5704                                   20828416.9844
                                                                        50.0004
        42.0004
    706063.94148    580093.53946
                  20853936.4774                                   20853933.2194
                                                                        52.7504
        41.5004
   2860097.05547   2236196.70344
                  24114049.0004                                   24114045.3594
                                                                        45.0004
        28.5004
  -3681340.32848  -2795295.98045
                  21920883.1804                                   21920879.0274
                                                                        49.2504
        34.0004
   1785655.77746   1428764.07444
                  24345272.0554                                   24345269.2704
                                                                        41.0004
        26.0004
   -321825.07047   -209469.53145
                  21904047.1954                                   21904041.2664
                                                                        46.5004
        35.0004
    957839.40647    774657.16445
                  22901478.1094                                   22901475.4534
                                                                        43.7504
        30.0004
    727106.18447    594614.43844
                  23966011.0474                                   23966007.4024
                                                                        44.2504
        27.7504
 09 10 11 23 30 30.0000000  0  8G02G04G12G13G29G23G30G31
  -2898120.98448  -2194087.99246
                  20803940.0084                                   20803934.5594
                                                                        51.2504
        41.7504
    662750.36748    546342.72346
                  20845694.1484                                   20845690.9614
                                                                        53.0004
        41.0004
   2865368.17247   2240304.00044
                  24115051.7344                                   24115048.6684
                                                                        45.0004
        28.5004
  -3831468.75048  -2912279.17245
                  21892314.1644                                   21892310.0474
                                                                        50.0004
        33.5004
   1599269.98046   1283528.41844
                  24309803.6094                                   24309800.5784
                                                                        40.5004
        26.0004
   -388082.84847   -261098.95745
                  21891438.6334                                   21891432.6804
                                                                        47.7504
        35.0004
    922472.83247    747098.82444
                  22894748.0474                                   22894745.0234
                                                                        44.7504
        29.5004
    684752.77747    561611.77744
                  23957951.5864                                   23957947.2464
                                                                        44.0004
        27.5004
 09 10 11 23 31  0.0000000  0  8G02G04G12G13G29G23G30G31
  -3026146.29348  -2293847.97347
                  20779577.7664                                   20779572.2544
                                                                        51.0004
        42.0004
    620078.41048    513091.89846
                  20837573.9844                                   20837570.4064
                                                                        52.5004
        41.0004
   2871079.57847   2244754.43044
                  24116139.1174                                   24116135.2544
                                                                        45.0004
        27.7504
  -3980921.47348  -3028735.86345
                  21863874.3444                                   21863870.5274
                                                                        49.0004
        33.0004
   1413250.35946   1138578.08244
                  24274405.4614                                   24274402.7774
                                                                        41.2504
        27.2504
   -453596.44948   -312148.51645
                  21878971.7274                                   21878965.8284
                                                                        48.7504
        34.5004
    887822.80547    720098.79345
                  22888154.0314                                   22888151.7934
                                                                        45.5004
        30.2504
    643059.73446    529123.70744
                  23950017.3524                                   23950012.8634
                                                                        41.0004
        27.2504
 09 10 11 23 31 30.0000000  0  9G02G04G12G13G29G23G30G31G10
  -3153546.73448  -2393121.06247
                  20755334.0634                                   20755328.6524
                                                                        51.5004
        42.0004
    578038.13348    480333.25846
                  20829573.7734                                   20829570.8444
                                                                        52.2504
        40.7504
   2877219.49647   2249538.73444
                  24117306.8674                                   24117303.6604
                                                                        43.5004
        27.2504
  -4129704.95348  -3144671.05545
                  21835562.0704                                   21835557.7424
                                                                        49.5004
        34.0004
   1227590.49247    993908.12944
                  24239075.1644                                   24239072.3524
                                                                        42.0004
        25.7504
   -518375.46948   -362625.67245
                  21866645.0314                                   21866638.9344
                                                                        48.7504
        34.5004
    853878.30547    693648.50844
                  22881694.9144                                   22881692.0944
                                                                        45.2504
        29.0004
    602016.71946    497142.14144
                  23942207.4224                                   23942202.6564
                                                                        41.7504
        26.2504
   2891084.49656   2273998.87154
                  24138505.1334                                   24138502.3134
                                                                        41.5004
        24.7504
 09 10 11 23 32  0.0000000  0  9G02G04G12G13G29G23G30G31G10
  -3280325.64848  -2491909.84047
                  20731208.8674                                   20731203.3834
                                                                        51.0004
        42.5004
    536623.78148    448062.34046
                  20821693.1334                                   20821689.7034
                                                                        53.0004
        41.0004
   2883780.23047   2254650.96144
                  24118555.7974                                   24118552.5664
                                                                        43.7504
        28.0004
  -4277821.59848  -3260086.61345
                  21807376.5394                                   21807372.4654
                                                                        49.0004
        35.0004
   1042287.97347    849516.58244
                  24203813.8834                                   24203810.5274
                                                                        42.0004
        26.0004
   -582424.91847   -412534.32045
                  21854456.4694                                   21854450.7154
                                                                        47.5004
        35.2504
    820632.67247    667742.82444
                  22875368.3204                                   22875365.6054
                                                                        45.0004
        29.0004
    561617.45347    465662.20344
                  23934519.6094                                   23934515.4574
                                                                        43.2504
        26.0004
   2687374.49647   2115263.87544
                  24099740.0704                                   24099737.1914
                                                                        42.0004
        25.2504
 09 10 11 23 32 30.0000000  0  9G02G04G12G13G29G23G30G31G10
  -3406489.17248  -2590219.07447
                  20707200.6804                                   20707195.0864
                                                                        51.5004
        42.7504
    495826.00848    416271.88346
                  20813929.3834                                   20813926.1094
                                                                        53.0004
        41.0004
   2890751.66047   2260083.25444
                  24119882.1954                                   24119878.8874
                                                                        44.7504
        29.0004
  -4425277.76248  -3374987.50445
                  21779316.3134                                   21779312.5554
                                                                        49.5004
        34.5004
    857338.27346    705400.09844
                  24168618.7424                                   24168615.7384
                                                                        41.2504
        25.0004
   -645754.39548   -461881.96545
                  21842405.2504                                   21842399.6374
                                                                        48.7504
        34.7504
    788076.24647    642374.12544
                  22869173.2814                                   22869170.2704
                                                                        44.5004
        29.0004
    521852.21947    434676.30144
                  23926952.3674                                   23926947.7074
                                                                        43.0004
        26.0004
   2483904.76247   1956716.09844
                  24061021.4534                                   24061018.0044
                                                                        44.0004
        24.0004
 09 10 11 23 33  0.0000000  0  9G02G04G12G13G29G23G30G31G10
  -3532036.91048  -2688048.49247
                  20683309.8754                                   20683304.6564
                                                                        51.5004
        42.0004
    455643.43848    384960.81346
                  20806282.9614                                   20806280.0314
                                                                        52.5004
        41.2504
   2898129.57847   2265832.29345
                  24121286.5944                                   24121283.5784
                                                                        46.0004
        30.7504
  -4572070.58248  -3489371.52345
                  21751382.7344                                   21751378.4924
                                                                        49.0004
        34.0004
    672742.23846    561559.09044
                  24133490.8364                                   24133488.2704
                                                                        39.7504
        26.0004
   -708364.57848   -510669.10245
                  21830491.0084                                   21830484.8874
                                                                        48.7504
        34.7504
    756205.65247    617539.82044
                  22863108.1024                                   22863105.9454
                                                                        45.0004
        29.5004
    482718.80547    404182.71544
                  23919505.3134                                   23919501.4304
                                                                        42.0004
        24.5004
   2280676.42247   1798356.35544
                  24022348.5234                                   24022344.7274
                                                                        43.0004
        26.2504
 09 10 11 23 33 30.0000000  0  9G02G04G12G13G29G23G30G31G10
  -3656967.51648  -2785397.02747
                  20659536.3834                                   20659531.0354
                                                                        51.5004
        42.5004
    416073.90648    354127.43046
                  20798753.2664                                   20798749.7424
                                                                        52.5004
        40.7504
   2905911.05547   2271895.72345
                  24122767.5784                                   24122763.7774
                                                                        45.2504
        30.2504
  -4718199.39848  -3603238.14145
                  21723575.0164                                   21723570.8164
                                                                        48.5004
        33.7504
    488502.41746    417995.63044
                  24098431.1254                                   24098429.4414
                                                                        41.0004
        25.2504
   -770257.07048   -558897.00845
                  21818713.3594                                   21818707.2234
                                                                        48.0004
        35.0004
    725019.27347    593238.74645
                  22857173.9694                                   22857171.2234
                                                                        46.0004
        30.0004
    444214.91446    374179.69144
                  23912178.4534                                   23912174.0124
                                                                        41.2504
        25.2504
   2077691.82047   1640186.57444
                  23983721.6954                                   23983718.3324
                                                                        43.5004
        24.5004
 09 10 11 23 34  0.0000000  0  9G02G04G12G13G29G23G30G31G10
  -3781279.27748  -2882263.34047
                  20635880.5164                                   20635875.3164
                                                                        51.5004
        43.0004
    377117.26248    323771.59046
                  20791339.8524                                   20791336.8674
                                                                        53.0004
        41.0004
   2914093.57847   2278271.69545
                  24124324.4454                                   24124321.5124
                                                                        44.7504
        30.2504
  -4863660.84048  -3716584.70745
                  21695895.0084                                   21695890.6374
                                                                        48.5004
        33.0004
    304622.41446    274712.57044
                  24063439.8204                                   24063437.5004
                                                                        41.0004
        27.5004
   -831432.02748   -606565.81645
                  21807072.0164                                   21807065.8594
                                                                        48.2504
        34.5004
    694514.68047    569468.93044
                  22851369.4694                                   22851366.2154
                                                                        46.2504
        28.5004
    406339.94146    344666.71144
                  23904971.0004                                   23904966.5394
                                                                        41.5004
        25.5004
   1874952.89546   1482208.20344
                  23945141.5164                                   23945139.2114
                                                                        40.0004
        25.7504
 09 10 11 23 34 30.0000000  0  9G02G04G12G13G29G23G30G31G10
  -3904973.43448  -2978648.39847
                  20612342.3054                                   20612337.2424
                                                                        52.0004
        42.5004
    338769.19148    293889.93446
                  20784042.5234                                   20784039.5394
                                                                        52.5004
        41.0004
   2922671.39847   2284955.65644
                  24125956.5234                                   24125953.8484
                                                                        43.5004
        28.2504
  -5008455.83248  -3829411.96145
                  21668341.4304                                   21668337.1094
                                                                        49.0004
        34.7504
    121101.19547    131709.09844
                  24028516.4844                                   24028514.5824
                                                                        42.0004
        28.5004
   -891892.82848   -653678.12945
                  21795566.6804                                   21795560.4804
                                                                        49.0004
        34.5004
    664687.10947    546226.71544
                  22845692.9384                                   22845690.5234
                                                                        46.0004
        28.7504
    369089.32446    315640.25844
                  23897882.8134                                   23897878.1954
                                                                        41.5004
        24.7504
   1672459.98446   1324421.51644
                  23906608.5004                                   23906606.0984
                                                                        41.2504
        26.5004
 09 10 11 23 35  0.0000000  0  9G02G04G12G13G29G23G30G31G10
  -4028051.53548  -3074553.41447
                  20588921.4454                                   20588915.7304
                                                                        51.2504
        42.5004
    301025.60248    264479.32846
                  20776860.1484                                   20776856.9224
                                                                        52.5004
        41.0004
   2931639.11346   2291943.46944
                  24127662.3054                                   24127660.0434
                                                                        40.5004
        26.2504
  -5152585.19548  -3941720.52045
                  21640914.6724                                   21640910.3874
                                                                        49.2504
        34.2504
    -62061.19947    -11014.76244
                  23993662.6094                                   23993660.3634
                                                                        43.5004
        29.5004
   -951643.89147   -700237.40245
                  21784196.2274                                   21784190.4384
                                                                        47.5004
        33.5004
    635531.99647    523508.46945
                  22840145.2734                                   22840142.8364
                                                                        46.0004
        30.7504
    332458.53147    287096.79344
                  23890912.2034                                   23890907.5634
                                                                        42.7504
        27.5004
   1470212.41447   1166826.05944
                  23868121.6414                                   23868119.5234
                                                                        42.5004
        27.2504
 09 10 11 23 35 30.0000000  0  9G02G04G12G13G29G23G30G31G10
  -4150515.02348  -3169979.46947
                  20565617.3204                                   20565612.3054
                                                                        52.0004
        42.2504
    263882.54348    235536.68846
                  20769792.0864                                   20769789.4494
                                                                        53.0004
        41.2504
   2940990.72347   2299230.42244
                  24129442.2274                                   24129439.0554
                                                                        42.2504
        25.2504
  -5296049.30548  -4053510.72345
                  21613613.8914                                   21613609.7074
                                                                        49.2504
        34.5004
   -244865.07047   -153459.36744
                  23958876.6334                                   23958873.4104
                                                                        43.7504
        28.2504
  -1010688.57048   -746246.25045
                  21772960.5474                                   21772954.3714
                                                                        49.0004
        34.5004
    607043.59447    501309.69545
                  22834724.2114                                   22834721.8244
                                                                        45.5004
        30.0004
    296442.82847    259032.59844
                  23884058.8204                                   23884054.1294
                                                                        43.2504
        27.0004
   1268208.58647   1009420.49244
                  23829682.1174                                   23829679.5004
                                                                        43.2504
        27.0004
 09 10 11 23 36  0.0000000  0  9G02G04G12G13G29G23G30G31G10
  -4272364.16848  -3264926.79347
                  20542430.2734                                   20542424.7034
                                                                        51.0004
        42.5004
    227336.55148    207059.28946
                  20762837.9224                                   20762834.5044
                                                                        52.5004
        40.7504
   2950722.04747   2306813.30144
                  24131295.1564                                   24131291.2304
                                                                        43.5004
        26.7504
  -5438848.34448  -4164782.71145
                  21586440.2034                                   21586436.1684
                                                                        49.0004
        34.5004
   -427309.14547   -295623.52344
                  23924158.2584                                   23924154.9804
                                                                        43.5004
        28.5004
  -1069029.58248   -791706.80145
                  21761858.8674                                   21761852.7664
                                                                        48.2504
        35.5004
    579218.44547    479627.78944
                  22829428.8204                                   22829426.3164
                                                                        45.5004
        29.5004
    261038.68847    231444.93844
                  23877321.5004                                   23877316.8204
                                                                        42.7504
        28.5004
   1066449.99247    852206.06644
                  23791288.9064                                   23791286.0234
                                                                        44.5004
        28.0004
 09 10 11 23 36 30.0000000  0  9G02G04G12G13G29G23G30G31G10
  -2818174.89548  -2131792.23047
                  20819153.0944                                   20819147.6254
                                                                        51.2504
        42.5004
   1766806.98048   1406646.62546
                  21055789.0864                                   21055785.9614
                                                                        51.7504
        41.0004
   4536248.19147   3542288.25844
                  24433010.2734                                   24433006.2774
                                                                        44.5004
        28.0004
  -4005556.18048  -3047931.62545
                  21859186.4694                                   21859182.4774
                                                                        49.2504
        34.5004
    966033.43447    790097.91044
                  24189302.6954                                   24189298.9774
                                                                        42.0004
        26.0004
    448752.77748    390980.74645
                  22050683.1804                                   22050676.9304
                                                                        48.7504
        34.2504
   2127473.41447   1686060.27044
                  23124052.1024                                   23124049.7154
                                                                        45.5004
        29.7504
   1801664.42247   1431932.50044
                  24170493.2814                                   24170488.2814
                                                                        43.0004
        27.7504
   2440364.07847   1922788.45344
                  24052735.4694                                   24052732.3594
                                                                        43.2504
        26.0004
 09 10 11 23 37  0.0000000  0  9G02G04G12G13G29G23G30G31G10
  -2938797.03148  -2225783.51647
                  20796199.3054                                   20796194.1914
                                                                        52.0004
        43.0004
   1731446.58248   1379093.07846
                  21049060.1334                                   21049057.0124
                                                                        51.7504
        41.2504
   4546724.04747   3550451.30544
                  24435004.0944                                   24435000.0634
                                                                        44.2504
        28.5004
  -4147023.74248  -3158166.01645
                  21832266.1254                                   21832261.7934
                                                                        50.5004
        34.7504
    784309.91046    648495.07843
                  24154720.5234                                   24154717.6334
                                                                        38.5004
        22.5004
    391810.71948    346610.28545
                  22039847.3914                                   22039840.9884
                                                                        48.5004
        34.2504
   2100961.44147   1665401.59044
                  23119006.8524                                   23119004.7194
                                                                        44.0004
        29.5004
   1767472.93847   1405289.78144
                  24163986.1174                                   24163982.2384
                                                                        43.0004
        28.0004
   2239096.36347   1765956.59044
                  24014435.1484                                   24014432.2894
                                                                        42.5004
        24.5004
 09 10 11 23 37 30.0000000  0  9G02G04G12G13G29G23G30G31G10
  -3058810.11348  -2319300.27347
                  20773361.7734                                   20773356.2934
                                                                        52.0004
        42.7504
   1696670.77348   1351995.05546
                  21042442.6804                                   21042439.5784
                                                                        52.7504
        41.0004
   4557561.23847   3558895.82844
                  24437065.7274                                   24437062.5784
                                                                        43.7504
        29.0004
  -4287828.52048  -3267883.97745
                  21805472.0394                                   21805467.7774
                                                                        49.5004
        34.2504
    602944.46546    507171.41843
                  24120208.4614                                   24120205.8324
                                                                        38.7504
        23.0004
    335561.09448    302779.39545
                  22029143.2504                                   22029137.2274
                                                                        49.5004
        34.0004
   2075096.51247   1645247.07444
                  23114084.7194                                   23114082.3244
                                                                        45.5004
        29.0004
   1733878.66847   1379112.41844
                  24157593.4454                                   24157589.3524
                                                                        43.0004
        28.5004
   2038071.01247   1609313.50844
                  23976180.7974                                   23976177.8484
                                                                        42.7504
        26.2504
 09 10 11 23 38  0.0000000  0  9G02G04G12G13G29G23G30G31G10
  -3178211.82048  -2412340.60947
                  20750640.3524                                   20750635.1844
                                                                        52.0004
        42.5004
   1662478.95348   1325352.09446
                  21035936.0784                                   21035932.7234
                                                                        52.5004
        41.0004
   4568758.16447   3567620.69544
                  24439196.3914                                   24439193.1524
                                                                        43.5004
        28.5004
  -4427967.99648  -3377083.57845
                  21778804.1414                                   21778800.0514
                                                                        49.2504
        34.7504
    421940.59046    366129.43044
                  24085765.0314                                   24085762.8444
                                                                        40.5004
        26.5004
    280002.52348    259486.99245
                  22018570.9384                                   22018564.7814
                                                                        49.0004
        34.0004
   2049877.57447   1625595.94144
                  23109285.9774                                   23109283.3284
                                                                        44.0004
        28.5004
   1700880.64547   1353399.64544
                  24151314.2734                                   24151310.1844
                                                                        42.5004
        27.5004
   1837291.09447   1452861.71544
                  23937974.1484                                   23937971.2504
                                                                        42.7504
        27.5004
 09 10 11 23 38 30.0000000  0  9G02G04G12G13G29G23G30G31G10
  -3297002.66848  -2504904.91847
                  20728035.3754                                   20728029.9494
                                                                        51.5004
        42.7504
   1628867.59448   1299161.43046
                  21029540.2734                                   21029536.7584
                                                                        52.0004
        41.0004
   4580310.09047   3576622.22744
                  24441394.7734                                   24441391.6684
                                                                        42.2504
        27.2504
  -4567441.97348  -3485764.54745
                  21752263.3674                                   21752259.0984
                                                                        49.5004
        34.5004
    241298.85247    225369.60944
                  24051390.1024                                   24051387.8364
                                                                        42.0004
        29.7504
    225132.72348    216731.28545
                  22008129.7274                                   22008123.4264
                                                                        48.7504
        33.5004
   2025299.84047   1606444.42644
                  23104608.5004                                   23104606.8284
                                                                        43.7504
        28.0004
   1668475.52047   1328148.87544
                  24145147.7424                                   24145143.9384
                                                                        42.0004
        27.5004
   1636757.23447   1296601.63744
                  23899814.3134                                   23899811.6334
                                                                        43.0004
        29.5004
 09 10 11 23 39  0.0000000  0  9G02G04G12G13G29G23G30G31G10
  -3415187.35948  -2596996.89847
                  20705545.5394                                   20705539.9804
                                                                        51.0004
        42.5004
   1595829.28948   1273417.31346
                  21023253.1884                                   21023249.8134
                                                                        52.5004
        41.0004
   4592208.36347   3585893.55144
                  24443658.9774                                   24443655.6564
                                                                        42.5004
        27.2504
  -4706255.10548  -3593930.60545
                  21725848.0864                                   21725843.7274
                                                                        50.0004
        34.5004
     61016.14147     84889.60945
                  24017083.2194                                   24017080.9414
                                                                        42.7504
        32.0004
    170943.84848    174506.16445
                  21997817.7814                                   21997811.7384
                                                                        48.7504
        33.7504
   2001355.37147   1587786.36744
                  23100052.3594                                   23100049.7344
                                                                        43.7504
        28.7504
   1636655.07047   1303353.68444
                  24139092.8914                                   24139088.0204
                                                                        42.5004
        26.7504
   1436465.69547   1140530.39144
                  23861699.2584                                   23861697.0904
                                                                        42.7504
        28.5004
 09 10 11 23 39 30.0000000  0  9G02G04G12G13G29G23G30G31G10
  -3532765.21948  -2688616.01247
                  20683171.3444                                   20683165.9734
                                                                        51.5004
        42.5004
   1563362.79748   1248118.75046
                  21017074.6334                                   21017071.4344
                                                                        51.7504
        40.5004
   4604448.43447   3595431.27344
                  24445988.6254                                   24445985.0434
                                                                        43.5004
        26.7504
  -4844405.17648  -3701579.99645
                  21699558.7504                                   21699554.8094
                                                                        49.2504
        35.0004
   -118906.10247    -55309.51645
                  23982845.8674                                   23982842.4534
                                                                        42.5004
        31.0004
    117435.19948    132811.09445
                  21987635.6024                                   21987629.3634
                                                                        48.5004
        33.7504
   1978040.65647   1569619.00444
                  23095615.9384                                   23095613.1914
                                                                        44.5004
        28.7504
   1605416.98446   1279012.27344
                  24133148.2814                                   24133144.3054
                                                                        41.2504
        26.2504
   1236417.47747    984648.73445
                  23823632.6254                                   23823629.1884
                                                                        43.5004
        30.5004
 09 10 11 23 40  0.0000000  0  9G02G04G12G13G29G23G30G31G10
  -3649738.46948  -2779764.00047
                  20660912.1414                                   20660906.6994
                                                                        52.0004
        42.5004
   1531463.03148   1223261.78146
                  21011004.7664                                   21011001.6214
                                                                        51.5004
        40.5004
   4617024.75047   3605231.01244
                  24448381.0944                                   24448377.8714
                                                                        44.5004
        27.0004
  -4981893.80148  -3808713.96945
                  21673395.6174                                   21673391.6914
                                                                        49.7504
        34.5004
   -298468.49646   -195228.23044
                  23948675.4534                                   23948673.0514
                                                                        41.5004
        29.0004
     64602.03548     91642.38745
                  21977581.7584                                   21977575.7304
                                                                        49.2504
        34.0004
   1955350.31647   1551938.18444
                  23091298.0554                                   23091295.5044
                                                                        46.2504
        28.7504
   1574755.88746   1255120.48844
                  24127313.5394                                   24127309.2274
                                                                        39.5004
        25.7504
   1036612.21147    828956.37144
                  23785610.2344                                   23785607.1134
                                                                        42.7504
        26.7504
 09 10 11 23 40 30.0000000  0  9G02G04G12G13G29G23G30G31G10
  -3766106.20348  -2870440.18747
                  20638767.9694                                   20638762.6684
                                                                        51.5004
        42.7504
   1500128.16448   1198845.00446
                  21005041.7584                                   21005038.3524
                                                                        51.5004
        40.5004
   4629934.16847   3615290.30544
                  24450837.9224                                   24450834.3164
                                                                        45.0004
        26.2504
  -5118719.34048  -3915331.26245
                  21647358.6024                                   21647354.7034
                                                                        49.7504
        35.5004
   -477668.85546   -334864.78544
                  23914573.5554                                   23914571.8014
                                                                        38.5004
        24.0004
     12443.12548     50999.06645
                  21967656.1334                                   21967649.7584
                                                                        49.0004
        34.0004
   1933281.69147   1534741.87144
                  23087098.4144                                   23087096.1374
                                                                        46.2504
        29.2504
   1544669.96946   1231676.91044
                  24121588.1884                                   24121584.1954
                                                                        41.2504
        26.5004
    837051.44946    673454.55144
                  23747634.5004                                   23747631.7814
                                                                        41.2504
        25.5004
 09 10 11 23 41  0.0000000  0  9G02G04G12G13G29G23G30G31G10
  -3881870.64148  -2960646.20347
                  20616738.4064                                   20616733.2704
                                                                        52.0004
        43.0004
   1469353.10248   1174864.43846
                  20999185.6174                                   20999182.2234
                                                                        52.0004
        40.7504
   4643170.28147   3625604.18044
                  24453356.9924                                   24453353.0594
                                                                        44.0004
        27.2504
  -5254883.70348  -4021433.28145
                  21621447.3054                                   21621442.9024
                                                                        49.5004
        34.7504
   -656507.78946   -474219.77043
                  23880542.1334                                   23880538.9144
                                                                        40.2504
        22.0004
    -39046.75848     10877.06645
                  21957857.6724                                   21957851.9384
                                                                        49.0004
        34.0004
   1911828.75847   1518025.25844
                  23083016.1174                                   23083013.4024
                                                                        44.5004
        28.2504
   1515153.82847   1208677.32044
                  24115971.4614                                   24115967.6804
                                                                        42.0004
        26.0004
    637733.68047    518142.06644
                  23709706.1094                                   23709703.0984
                                                                        42.0004
        26.5004
 09 10 11 23 41 30.0000000  0  9G02G04G12G13G29G23G30G31G10
  -3997033.50848  -3050383.46547
                  20594823.7664                                   20594818.1564
                                                                        52.2504
        42.5004
   1439133.97348   1151317.06646
                  20993435.0394                                   20993431.9104
                                                                        52.0004
        40.7504
   4656726.62547   3636167.62144
                  24455936.5634                                   24455932.9454
                                                                        42.2504
        26.7504
  -5390387.65648  -4127020.73045
                  21595661.5704                                   21595657.6334
                                                                        49.5004
        35.0004
   -834986.36347   -613293.96944
                  23846579.4144                                   23846575.6054
                                                                        42.2504
        25.5004
    -89871.77748    -28726.85245
                  21948186.0234                                   21948180.2344
                                                                        49.5004
        34.7504
   1890985.73847   1501783.90644
                  23079050.8444                                   23079047.6604
                                                                        45.2504
        28.5004
   1486201.82047   1186117.30544
                  24110461.8444                                   24110457.9884
                                                                        42.2504
        26.0004
    438658.56647    363018.63344
                  23671823.2344                                   23671820.2774
                                                                        42.5004
        27.0004
 09 10 11 23 42  0.0000000  0  9G02G04G12G13G29G23G30G31G10
  -4111596.21548  -3139653.06647
                  20573023.3054                                   20573017.5904
                                                                        52.0004
        42.5004
   1409466.46948   1128199.53146
                  20987789.3834                                   20987786.5554
                                                                        52.2504
        40.5004
   4670598.10246   3646976.55544
                  24458575.8914                                   24458572.7894
                                                                        41.7504
        27.5004
  -5525232.25448  -4232094.41845
                  21570001.6094                                   21569997.4534
                                                                        50.2504
        35.5004
  -1013104.16847   -752086.97744
                  23812684.7734                                   23812682.0824
                                                                        43.2504
        29.2504
   -140035.36748    -67815.37945
                  21938640.7274                                   21938634.5394
                                                                        49.0004
        34.2504
   1870748.10947   1486014.30944
                  23075198.7584                                   23075196.0704
                                                                        45.0004
        28.5004
   1457809.68447   1163993.54344
                  24105060.0084                                   24105054.8244
                                                                        42.0004
        25.2504
    239825.69147    208083.91444
                  23633986.8594                                   23633983.1054
                                                                        43.7504
        27.5004
 09 10 11 23 42 30.0000000  0  9G02G04G12G13G29G23G30G31G10
  -4225558.03148  -3228454.47747
                  20551337.2034                                   20551331.4304
                                                                        52.0004
        43.2504
   1380348.73848   1105510.40646
                  20982248.3984                                   20982245.4224
                                                                        51.5004
        40.7504
   4684781.48846   3658028.47344
                  24461274.3834                                   24461271.6914
                                                                        41.0004
        27.5004
  -5659415.94948  -4336653.14545
                  21544467.1254                                   21544462.9224
                                                                        50.0004
        35.2504
  -1190858.68747   -890596.92645
                  23778858.9454                                   23778856.8984
                                                                        43.5004
        31.5004
   -189538.83248   -106389.50045
                  21929220.5234                                   21929214.4144
                                                                        49.2504
        34.5004
   1851112.98447   1470714.19144
                  23071462.9064                                   23071460.3554
                                                                        45.5004
        28.5004
   1429975.94947   1142304.94944
                  24099763.2194                                   24099758.1994
                                                                        43.0004
        25.5004
     41236.46947     53339.11744
                  23596196.1484                                   23596193.7274
                                                                        44.0004
        28.7504
 09 10 11 23 43  0.0000000  0  9G02G04G12G13G29G23G30G31G10
  -4338921.15648  -3316789.37147
                  20529765.0394                                   20529759.6644
                                                                        52.5004
        42.7504
   1351776.07848   1083246.00046
                  20976811.3284                                   20976808.2934
                                                                        51.7504
        41.0004
   4699270.71546   3669318.75444
                  24464031.9694                                   24464028.8444
                                                                        41.2504
        26.0004
  -5792940.50048  -4440698.24245
                  21519058.4844                                   21519054.5274
                                                                        49.7504
        35.5004
  -1368251.50047  -1028825.03145
                  23745102.4384                                   23745100.0474
                                                                        43.5004
        30.7504
   -238387.45748   -144453.37945
                  21919924.4924                                   21919918.9694
                                                                        48.7504
        33.7504
   1832073.80147   1455878.44144
                  23067840.0234                                   23067837.0514
                                                                        46.2504
        29.5004
   1402694.44947   1121046.65644
                  24094572.0634                                   24094566.9264
                                                                        42.2504
        25.2504
   -157109.77047   -101216.35244
                  23558452.3364                                   23558449.0004
                                                                        43.5004
        27.7504
 09 10 11 23 43 30.0000000  0  9G02G04G12G13G29G23G30G31G10
  -4451684.96148  -3404657.26247
                  20508306.5944                                   20508300.9884
                                                                        52.0004
        42.7504
   1323746.32848   1061404.64146
                  20971477.4774                                   20971474.3834
                                                                        52.0004
        40.7504
   4714061.77046   3680844.23444
                  24466846.5704                                   24466843.9144
                                                                        41.5004
        26.5004
  -5925804.48048  -4544228.59845
                  21493775.5004                                   21493771.0234
                                                                        50.5004
        35.0004
  -1545280.09847  -1166769.37544
                  23711415.0084                                   23711412.5084
                                                                        42.2504
        29.5004
   -286582.63748   -182008.05145
                  21910753.2894                                   21910747.8874
                                                                        48.5004
        33.0004
   1813628.21147   1441505.23844
                  23064329.9144                                   23064326.4844
                                                                        46.2504
        29.5004
   1375963.18047   1100217.08644
                  24089484.3284                                   24089479.5434
                                                                        42.5004
        24.0004
   -355211.76647   -255581.51644
                  23520754.4924                                   23520751.4384
                                                                        43.5004
        28.0004
 09 10 11 23 44  0.0000000  0  8G02G04G13G29G23G30G31G10
  -4563852.45748  -3492060.54347
                  20486962.0394                                   20486956.5904
                                                                        52.5004
        43.0004
   1296253.91448   1039981.99646
                  20966245.9614                                   20966242.6644
                                                                        52.2504
        40.2504
  -6058010.21948  -4647246.00445
                  21468617.2894                                   21468612.9734
                                                                        50.5004
        35.0004
  -1721946.63346  -1304431.56244
                  23677795.6724                                   23677793.6294
                                                                        41.2504
        26.7504
   -334130.06648   -219058.00845
                  21901705.3914                                   21901699.6604
                                                                        48.5004
        33.5004
   1795769.07047   1427589.04345
                  23060931.1024                                   23060929.0314
                                                                        45.2504
        30.0004
   1349775.21147   1079810.87544
                  24084501.1884                                   24084497.0274
                                                                        43.5004
        24.5004
   -553071.06247   -409757.52344
                  23483102.4064                                   23483100.5634
                                                                        42.7504
        27.5004
 09 10 11 23 44 30.0000000  0  8G02G04G13G29G23G30G31G10
  -4675423.03548  -3578998.63747
                  20465730.7734                                   20465724.6914
                                                                        51.0004
        42.7504
   1269296.77748   1018976.44946
                  20961115.8984                                   20961113.0704
                                                                        52.2504
        40.5004
  -6189556.56248  -4749749.65245
                  21443584.7664                                   21443580.6684
                                                                        50.0004
        35.5004
  -1898248.83647  -1441809.89144
                  23644246.7734                                   23644244.4344
                                                                        43.7504
        28.7504
   -381031.52048   -255604.59445
                  21892780.5234                                   21892774.2774
                                                                        48.5004
        33.7504
   1778493.08647   1414127.14844
                  23057643.8594                                   23057641.3674
                                                                        44.5004
        29.2504
   1324128.28547   1059826.24644
                  24079620.9454                                   24079615.8134
                                                                        43.0004
        25.7504
   -750686.36347   -563743.45344
                  23445497.8594                                   23445495.0984
                                                                        43.2504
        27.7504
 09 10 11 23 45  0.0000000  0  8G02G04G13G29G23G30G31G10
  -4786396.32048  -3665471.38347
                  20444613.0704                                   20444607.7624
                                                                        52.5004
        43.0004
   1242873.10548    998386.58246
                  20956087.9304                                   20956084.3164
                                                                        52.0004
        40.0004
  -6320442.40248  -4851738.60945
                  21418677.9844                                   21418673.5744
                                                                        50.2504
        35.7504
  -2074184.64847  -1578902.73044
                  23610767.7114                                   23610764.6454
                                                                        44.2504
        29.0004
   -427288.79348   -291649.20345
                  21883978.0634                                   21883971.9384
                                                                        48.5004
        33.5004
   1761797.44147   1401117.56644
                  23054466.0784                                   23054464.0664
                                                                        43.5004
        27.5004
   1299019.98447   1040261.34843
                  24074842.8054                                   24074837.9844
                                                                        42.0004
        23.0004
   -948056.10547   -717538.05144
                  23407940.3204                                   23407936.5164
                                                                        43.0004
        27.5004
 09 10 11 23 45 30.0000000  0  8G02G04G13G29G23G30G31G10
  -4896763.62548  -3751471.85547
                  20423610.7664                                   20423605.6844
                                                                        52.5004
        43.0004
   1216988.13748    978216.48846
                  20951162.0634                                   20951159.1524
                                                                        51.7504
        40.5004
  -6450658.97348  -4953206.05145
                  21393898.6484                                   21393894.3634
                                                                        50.5004
        35.7504
  -2249744.19147  -1715702.36744
                  23577359.8754                                   23577356.3324
                                                                        45.2504
        28.2504
   -472896.43748   -327187.61345
                  21875299.5314                                   21875292.8164
                                                                        48.7504
        34.0004
   1745686.78147   1388563.82844
                  23051400.0164                                   23051398.2034
                                                                        43.7504
        26.7504
   1274455.43446   1021120.12144
                  24070168.3524                                   24070164.1454
                                                                        40.2504
        26.0004
  -1145170.04347   -871133.30544
                  23370431.1094                                   23370427.5704
                                                                        43.5004
        28.5004
 09 10 11 23 46  0.0000000  0  8G02G04G13G29G23G30G31G10
  -3431107.91848  -2609402.46947
                  20702515.9924                                   20702510.3984
                                                                        52.5004
        43.0004
   2767053.94548   2186059.96946
                  21246129.8134                                   21246126.8634
                                                                        51.5004
        40.5004
  -5004787.37948  -3826552.87145
                  21669038.7034                                   21669034.7304
                                                                        50.7504
        34.5004
   -849506.41047   -624607.92244
                  23843816.4144                                   23843813.5354
                                                                        45.5004
        29.0004
   1057558.88748    865375.00445
                  22166535.1254                                   22166528.9774
                                                                        48.5004
        33.7504
   3305571.58247   2604058.48444
                  23348236.6954                                   23348233.9104
                                                                        43.5004
        26.2504
   2825845.80946   2229995.71144
                  24365388.3204                                   24365383.8014
                                                                        39.2504
        25.0004
    233392.28947    203071.13344
                  23632762.2584                                   23632759.2464
                                                                        42.7504
        28.0004
 09 10 11 23 46 30.0000000  0  9G02G04G05G13G29G23G30G31G10
  -3540282.56648  -2694473.63347
                  20681740.5864                                   20681735.5004
                                                                        52.2504
        43.0004
   2742220.44948   2166709.18446
                  21241403.8594                                   21241401.1564
                                                                        52.0004
        40.2504
   6050869.77756   4762321.24654
                  24453304.7894                                   24453302.1024
                                                                        40.7504
        28.2504
  -5133682.02048  -3926990.21945
                  21644510.9844                                   21644506.7974
                                                                        50.7504
        35.0004
  -1024327.87147   -760832.36744
                  23810548.4614                                   23810545.5204
                                                                        45.0004
        29.5004
   1013225.36348    830829.39545
                  22158098.7814                                   22158092.4844
                                                                        49.0004
        33.2504
   3290601.18047   2592393.31344
                  23345388.1414                                   23345384.9104
                                                                        43.7504
        26.2504
   2802340.43847   2211679.80944
                  24360915.8054                                   24360911.4774
                                                                        43.0004
        26.5004
     36773.59447     49861.78944
                  23595345.9224                                   23595343.9454
                                                                        42.5004
        28.5004
 09 10 11 23 47  0.0000000  0  9G02G04G05G13G29G23G30G31G10
  -3648871.28548  -2779088.19147
                  20661076.9694                                   20661071.4964
                                                                        52.5004
        42.7504
   2717898.47348   2147756.99646
                  21236775.8444                                   21236772.5274
                                                                        51.5004
        40.2504
   5852954.93047   4608101.92244
                  24415642.9534                                   24415639.8524
                                                                        43.7504
        28.5004
  -5261925.46948  -4026920.14546
                  21620107.1024                                   21620102.7624
                                                                        50.5004
        36.0004
  -1198788.25847   -896775.46144
                  23777350.0084                                   23777347.2154
                                                                        45.0004
        29.7504
    969514.54748    796768.95745
                  22149780.7274                                   22149774.7464
                                                                        48.7504
        33.5004
   3276185.07047   2581159.98444
                  23342644.7664                                   23342641.9024
                                                                        44.5004
        27.5004
   2779349.59846   2193764.84444
                  24356540.6174                                   24356536.5124
                                                                        40.0004
        27.0004
   -159605.91447   -103161.14544
                  23557977.2194                                   23557974.0784
                                                                        42.2504
        29.0004
 09 10 11 23 47 30.0000000  0  9G02G04G05G13G29G23G30G31G10
  -3756877.09848  -2863248.53947
                  20640524.0314                                   20640518.4964
                                                                        52.2504
        43.0004
   2694082.23448   2129198.88746
                  21232243.8054                                   21232240.4534
                                                                        52.2504
        39.7504
   5655193.63547   4454002.23044
                  24378011.2734                                   24378007.2544
                                                                        45.0004
        27.2504
  -5389519.83648  -4126344.30145
                  21595826.5394                                   21595822.4304
                                                                        50.7504
        35.2504
  -1372889.67247  -1032438.87945
                  23744219.5704                                   23744217.0984
                                                                        44.5004
        30.2504
    926421.29748    763189.75845
                  22141580.3754                                   22141574.4844
                                                                        49.5004
        33.2504
   3262316.33647   2570353.20344
                  23340005.6724                                   23340003.2194
                                                                        44.2504
        28.2504
   2756867.26246   2176246.12144
                  24352262.1254                                   24352257.8754
                                                                        41.0004
        27.7504
   -355748.59447   -255999.54344
                  23520652.7194                                   23520648.9344
                                                                        43.0004
        29.7504
 09 10 11 23 48  0.0000000  0  9G02G04G05G13G29G23G30G31G10
  -3864300.83248  -2946955.33247
                  20620082.1804                                   20620076.8484
                                                                        52.5004
        43.2504
   2670768.05548   2111031.98446
                  21227807.1484                                   21227804.0084
                                                                        52.5004
        40.0004
   5457586.05547   4300022.31644
                  24340406.7034                                   24340403.5664
                                                                        44.7504
        27.7504
  -5516466.08248  -4225263.44945
                  21571669.4844                                   21571665.4694
                                                                        50.2504
        35.2504
  -1546630.89547  -1167821.62544
                  23711157.2504                                   23711155.3244
                                                                        44.0004
        29.2504
    883941.70748    730088.71945
                  22133496.6484                                   22133491.0004
                                                                        48.7504
        33.2504
   3248990.34447   2559969.29344
                  23337470.4064                                   23337467.8284
                                                                        44.2504
        27.5004
   2734889.26647   2159120.41044
                  24348079.6484                                   24348076.4774
                                                                        42.5004
        27.0004
   -551653.50847   -408652.73044
                  23483372.9224                                   23483369.2504
                                                                        42.2504
        28.5004
 09 10 11 23 48 30.0000000  0  9G02G04G05G13G29G23G30G31G10
  -3971133.14148  -3030201.27747
                  20599752.5704                                   20599747.0664
                                                                        52.5004
        43.2504
   2647963.14148   2093261.92646
                  21223467.1414                                   21223464.6094
                                                                        52.5004
        40.0004
   5260142.21547   4146169.98444
                  24302834.5394                                   24302831.0354
                                                                        42.0004
        27.5004
  -5642753.77348  -4323669.44145
                  21547637.5164                                   21547633.8834
                                                                        50.5004
        35.0004
  -1720001.69547  -1302915.69545
                  23678166.3134                                   23678163.8364
                                                                        45.2504
        30.5004
    842082.78948    697471.30145
                  22125531.3834                                   22125525.4224
                                                                        48.7504
        33.7504
   3236212.67247   2550012.70744
                  23335038.4304                                   23335035.5204
                                                                        44.7504
        29.2504
   2713421.58246   2142392.33244
                  24343994.8834                                   24343990.7624
                                                                        41.5004
        24.5004
   -747310.28147   -561112.52744
                  23446141.0944                                   23446137.2894
                                                                        42.7504
        29.2504
 09 10 11 23 49  0.0000000  0  9G02G04G05G13G29G23G30G31G10
  -4077378.96548  -3112990.27747
                  20579534.3204                                   20579529.2584
                                                                        52.7504
        42.7504
   2625660.21948   2075883.02746
                  21219223.5784                                   21219220.0204
                                                                        52.5004
        40.2504
   5062858.09847   3992442.10544
                  24265292.6414                                   24265288.9344
                                                                        42.5004
        27.5004
  -5768386.76648  -4421565.25045
                  21523730.4304                                   21523726.4804
                                                                        50.7504
        35.5004
  -1893004.71947  -1437723.20744
                  23645244.9454                                   23645241.8284
                                                                        44.0004
        28.5004
    800838.09448    665332.54345
                  22117683.2664                                   22117676.8714
                                                                        49.2504
        33.5004
   3223974.97747   2540476.86744
                  23332709.8674                                   23332706.7814
                                                                        44.0004
        28.5004
   2692456.69546   2126056.03143
                  24340004.8284                                   24340001.1024
                                                                        40.5004
        23.2504
   -942722.51647   -713381.77744
                  23408954.5944                                   23408951.6884
                                                                        43.0004
        27.5004
 09 10 11 23 49 30.0000000  0  9G02G04G05G13G29G23G30G31G10
  -4183036.99248  -3195321.16847
                  20559428.7344                                   20559422.9384
                                                                        52.7504
        43.0004
   2603857.14548   2058893.62546
                  21215074.3134                                   21215071.2154
                                                                        52.5004
        39.5004
   4865736.49647   3838840.89844
                  24227781.4774                                   24227778.2894
                                                                        42.2504
        28.7504
  -5893364.47748  -4518950.46546
                  21499947.9534                                   21499943.9574
                                                                        51.5004
        36.0004
  -2065637.44947  -1572242.16444
                  23612393.5704                                   23612390.9104
                                                                        44.7504
        29.0004
    760205.37548    633670.65245
                  22109951.0164                                   22109944.6334
                                                                        49.5004
        33.5004
   3212274.88347   2531359.93444
                  23330483.4144                                   23330480.5664
                                                                        44.5004
        28.0004
   2671992.41446   2110109.80544
                  24336110.3524                                   24336106.8134
                                                                        41.5004
        25.5004
  -1137887.84047   -865458.62144
                  23371815.4614                                   23371813.0124
                                                                        45.5004
        29.2504
 09 10 11 23 50  0.0000000  0  9G02G04G05G13G29G23G30G31G10
  -4288105.34848  -3277192.57447
                  20539434.7734                                   20539429.2854
                                                                        52.2504
        43.5004
   2582553.86748   2042293.68046
                  21211020.5314                                   21211017.6764
                                                                        52.2504
        39.5004
   4668779.91846   3685368.31345
                  24190302.2584                                   24190298.8134
                                                                        41.5004
        30.0004
  -6017684.18448  -4615822.98845
                  21476290.7114                                   21476286.8634
                                                                        50.5004
        35.5004
  -2237896.57847  -1706470.00845
                  23579613.7344                                   23579610.7584
                                                                        44.5004
        30.2504
    720184.16448    602485.26245
                  22102335.0474                                   22102329.1954
                                                                        49.5004
        33.0004
   3201110.57847   2522660.45344
                  23328358.1954                                   23328356.3244
                                                                        44.5004
        27.2504
   2652027.24247   2094552.51644
                  24332312.0084                                   24332306.9734
                                                                        42.0004
        24.2504
  -1332803.05147  -1017340.57445
                  23334725.1644                                   23334722.0164
                                                                        44.7504
        30.2504
 09 10 11 23 50 30.0000000  0  9G02G04G05G13G29G23G30G31G10
  -4392583.07048  -3358603.71947
                  20519553.0784                                   20519547.7624
                                                                        52.5004
        42.7504
   2561748.56348   2026081.72346
                  21207061.1334                                   21207058.1804
                                                                        52.2504
        40.2504
   4471990.30547   3532025.79344
                  24152854.2034                                   24152850.8204
                                                                        42.0004
        29.5004
  -6141343.70348  -4712181.10246
                  21452759.1414                                   21452755.3634
                                                                        50.7504
        36.2504
  -2409779.89847  -1840405.02344
                  23546905.9774                                   23546902.7114
                                                                        44.5004
        29.7504
    680773.08248    571775.32445
                  22094835.3834                                   22094829.4454
                                                                        49.2504
        33.5004
   3190479.14147   2514376.27044
                  23326335.3524                                   23326333.1764
                                                                        43.7504
        27.7504
   2632558.85547   2079382.34844
                  24328606.4454                                   24328602.4304
                                                                        42.5004
        24.0004
  -1527465.94947  -1169025.92245
                  23297681.7894                                   23297679.0434
                                                                        45.0004
        31.2504
 09 10 11 23 51  0.0000000  0  9G02G04G05G13G29G23G30G31G10
  -4496470.59048  -3439555.02047
                  20499783.9924                                   20499778.2344
                                                                        52.2504
        43.2504
   2541439.10548   2010256.19146
                  21203196.4694                                   21203193.4344
                                                                        52.0004
        39.5004
   4275369.28547   3378814.63744
                  24115438.3284                                   24115435.0824
                                                                        42.2504
        29.5004
  -6264342.73448  -4808024.51646
                  21429353.5314                                   21429349.4694
                                                                        50.5004
        36.2504
  -2581284.64547  -1974044.98844
                  23514268.8054                                   23514266.2704
                                                                        43.7504
        29.7504
    641970.00048    541539.17645
                  22087451.3524                                   22087445.6054
                                                                        49.0004
        33.2504
   3180377.47347   2506504.85944
                  23324412.6024                                   23324410.6684
                                                                        43.0004
        27.2504
   2613585.49647   2064597.96143
                  24324996.3674                                   24324991.2424
                                                                        42.0004
        22.2504
  -1721875.14147  -1320513.59845
                  23260686.9774                                   23260684.3914
                                                                        46.2504
        30.0004
 09 10 11 23 51 30.0000000  0  9G02G04G05G13G29G23G30G31G10
  -4599767.55948  -3520046.19547
                  20480127.2344                                   20480121.7974
                                                                        51.7504
        43.0004
   2521622.55948   1994814.71546
                  21199425.7034                                   21199422.6954
                                                                        52.5004
        39.7504
   4078917.16846   3225735.09844
                  24078054.3524                                   24078051.6024
                                                                        41.5004
        29.5004
  -6386680.82848  -4903352.93046
                  21406073.2344                                   21406069.4654
                                                                        50.5004
        36.0004
  -2752410.52047  -2107389.76245
                  23481704.8444                                   23481702.4224
                                                                        43.7504
        30.0004
    603772.10248    511774.55945
                  22080182.6094                                   22080176.8754
                                                                        49.2504
        32.7504
   3170800.62947   2499042.39844
                  23322590.4144                                   23322587.9144
                                                                        44.0004
        27.5004
   2595102.68447   2050195.79743
                  24321479.1414                                   24321473.3594
                                                                        42.7504
        23.0004
  -1916029.50447  -1471802.68744
                  23223740.6884                                   23223737.2504
                                                                        46.2504
        29.5004
 09 10 11 23 52  0.0000000  0  9G02G04G05G13G29G23G30G31G10
  -4702473.92648  -3600077.12547
                  20460582.8054                                   20460577.5274
                                                                        52.0004
        43.0004
   2502296.16448   1979755.16846
                  21195748.1334                                   21195744.4574
                                                                        51.2504
        39.2504
   3882635.37146   3072788.25444
                  24040703.4144                                   24040699.9104
                                                                        41.7504
        27.5004
  -6508358.00448  -4998166.32445
                  21382918.6484                                   21382914.6414
                                                                        50.2504
        35.7504
  -2923155.48847  -2240437.78545
                  23449213.1254                                   23449210.8014
                                                                        43.5004
        30.5004
    566176.30548    482479.13345
                  22073028.1484                                   22073022.2234
                                                                        48.7504
        33.5004
   3161745.47347   2491986.36344
                  23320867.5944                                   23320865.0784
                                                                        43.0004
        28.2504
   2577107.48447   2036173.57844
                  24318054.7584                                   24318050.3674
                                                                        43.0004
        26.2504
  -2109927.37547  -1622891.90644
                  23186842.9454                                   23186839.1914
                                                                        44.7504
        29.0004
 09 10 11 23 52 30.0000000  0  9G02G04G05G13G29G23G30G31G10
  -4804590.60948  -3679648.55547
                  20441150.6334                                   20441145.2584
                                                                        52.5004
        43.2504
   2483456.95348   1965075.27046
                  21192162.9844                                   21192159.9384
                                                                        50.7504
        40.2504
   3686524.12947   2919974.30544
                  24003384.3364                                   24003381.7154
                                                                        42.0004
        28.2504
  -6629374.25848  -5092464.71146
                  21359890.1954                                   21359886.4024
                                                                        50.7504
        36.0004
  -3093518.94947  -2373188.56245
                  23416793.6724                                   23416791.3054
                                                                        43.2504
        30.5004
    529179.93448    453650.79745
                  22065988.3364                                   22065982.6094
                                                                        49.2504
        33.0004
   3153207.58247   2485333.40244
                  23319242.8834                                   23319240.6374
                                                                        43.0004
        26.5004
   2559595.99246   2022528.24644
                  24314722.7894                                   24314718.5234
                                                                        41.5004
        25.7504
  -2303568.61347  -1773781.16844
                  23149993.5164                                   23149990.5944
                                                                        43.5004
        29.0004
 09 10 11 23 53  0.0000000  0  9G02G04G05G13G29G23G30G31G10
  -4906117.79348  -3758760.62947
                  20421830.8054                                   20421825.4304
                                                                        52.0004
        43.0004
   2465101.90648   1950772.61346
                  21188670.2504                                   21188666.8244
                                                                        51.5004
        39.7504
   3490584.10947   2767293.78144
                  23966098.5554                                   23966095.6374
                                                                        42.0004
        29.0004
  -6749729.48448  -5186248.01646
                  21336987.3674                                   21336983.3914
                                                                        51.0004
        36.0004
  -3263499.14847  -2505640.85545
                  23384448.7584                                   23384445.1764
                                                                        44.0004
        31.0004
    492780.18048    425287.35545
                  22059061.4534                                   22059055.8094
                                                                        49.2504
        33.2504
   3145183.84847   2479081.18044
                  23317715.9224                                   23317713.3284
                                                                        43.7504
        28.0004
   2542565.27347   2009257.53144
                  24311482.0634                                   24311478.0234
                                                                        43.0004
        27.2504
  -2496952.18447  -1924469.69544
                  23113194.7274                                   23113191.6844
                                                                        43.7504
        29.0004
 09 10 11 23 53 30.0000000  0  9G02G04G05G13G29G23G30G31G10
  -5007054.14548  -3837412.33647
                  20402623.1884                                   20402617.9024
                                                                        52.2504
        43.2504
   2447229.99248   1936846.44546
                  21185269.3754                                   21185266.2734
                                                                        51.2504
        39.7504
   3294818.18047   2614748.94544
                  23928845.5084                                   23928841.9964
                                                                        42.5004
        29.2504
  -6869421.29748  -5279514.35946
                  21314211.0554                                   21314206.5164
                                                                        51.2504
        36.2504
  -3433092.80947  -2637791.89545
                  23352175.8984                                   23352172.8244
                                                                        44.5004
        31.5004
    456975.80948    397387.82045
                  22052248.1414                                   22052242.6334
                                                                        49.0004
        33.2504
   3137671.22347   2473227.14844
                  23316286.7344                                   23316283.9304
                                                                        44.5004
        28.7504
   2526013.44946   1996359.95344
                  24308332.2664                                   24308328.2624
                                                                        41.0004
        26.5004
  -2690074.80547  -2074954.85945
                  23076444.7194                                   23076441.8444
                                                                        44.0004
        31.7504
 09 10 11 23 54  0.0000000  0  9G02G04G05G13G29G23G30G31G10
  -5107397.38348  -3915601.88747
                  20383528.4144                                   20383523.3594
                                                                        51.7504
        43.5004
   2429841.09848   1923296.63346
                  21181960.3444                                   21181957.2074
                                                                        51.0004
        39.7504
   3099229.88347   2462342.50444
                  23891626.7114                                   23891623.1724
                                                                        44.0004
        29.2504
  -6988447.61348  -5372262.13746
                  21291560.7274                                   21291556.8954
                                                                        51.0004
        36.2504
  -3602296.18047  -2769638.73045
                  23319977.4534                                   23319974.6764
                                                                        43.0004
        30.5004
    421766.54748    369952.05545
                  22045547.9694                                   22045542.2664
                                                                        49.0004
        33.2504
   3130668.57847   2467770.56344
                  23314954.3754                                   23314951.4024
                                                                        43.7504
        28.0004
   2509939.75846   1983834.99244
                  24305272.9534                                   24305269.1684
                                                                        37.0004
        24.2504
  -2882932.73847  -2225233.74645
                  23039745.1414                                   23039742.3594
                                                                        43.7504
        31.5004
 09 10 11 23 54 30.0000000  0  9G02G04G05G13G29G23G30G31G10
  -5207147.02048  -3993328.86747
                  20364546.8284                                   20364541.4184
                                                                        52.2504
        43.0004
   2412933.27348   1910121.69146
                  21178743.0234                                   21178739.9574
                                                                        51.5004
        39.5004
   2903820.27047   2310075.31645
                  23854441.2814                                   23854437.7074
                                                                        44.0004
        31.2504
  -7106807.12148  -5464490.34446
                  21269037.9614                                   21269033.8404
                                                                        50.5004
        36.0004
  -3771107.43447  -2901179.92645
                  23287853.9224                                   23287851.4694
                                                                        44.0004
        31.0004
    387150.57448    342978.56645
                  22038960.9774                                   22038954.9264
                                                                        48.5004
        32.7504
   3124171.78547   2462708.12544
                  23313717.8524                                   23313714.5594
                                                                        44.5004
        25.5004
   2494341.00446   1971680.05944
                  24302304.7734                                   24302301.8674
                                                                        39.5004
        25.7504
  -3075524.68447  -2375305.34045
                  23003095.9224                                   23003093.3364
                                                                        44.5004
        32.0004
 09 10 11 23 55  0.0000000  0  9G02G04G05G13G29G23G30G31G10
  -5306304.05148  -4070594.10547
                  20345677.8284                                   20345672.3914
                                                                        52.0004
        42.7504
   2396502.75048   1897318.67646
                  21175616.3754                                   21175613.0514
                                                                        51.2504
        39.7504
   2708590.05947   2157947.93045
                  23817290.0864                                   23817286.8714
                                                                        45.0004
        30.0004
  -7224500.66848  -5556199.62546
                  21246641.4454                                   21246637.4654
                                                                        50.5004
        36.0004
  -3939525.22347  -3032414.61345
                  23255804.8834                                   23255802.0124
                                                                        43.5004
        30.2504
    353124.32448    316464.60545
                  22032486.2194                                   22032480.2034
                                                                        48.2504
        32.5004
   3118177.68447   2458037.51244
                  23312577.0084                                   23312573.6454
                                                                        43.0004
        26.7504
   2479213.86746   1959892.64844
                  24299426.2734                                   24299422.7114
                                                                        41.0004
        25.5004
  -3267849.92247  -2525169.13345
                  22966497.7034                                   22966494.5004
                                                                        44.0004
        30.0004
 09 10 11 23 55 30.0000000  0  9G02G04G05G13G29G23G30G31G10
  -3829446.77048  -2919796.22747
                  20626714.6414                                   20626708.9384
                                                                        52.2504
        43.0004
   3955966.39548   3112485.11746
                  21472372.2274                                   21472369.2854
                                                                        50.5004
        40.0004
   4088965.31347   3233565.07044
                  24079966.7734                                   24079963.0514
                                                                        44.0004
        29.5004
  -5766104.97348  -4419787.43046
                  21524164.9534                                   21524160.9734
                                                                        51.0004
        37.0004
  -2532124.13747  -1935738.46545
                  23523624.4384                                   23523621.7734
                                                                        43.0004
        31.0004
   1895104.96148   1518007.91045
                  22325915.2114                                   22325909.0904
                                                                        48.7504
        32.0004
   4688100.58647   3681354.09844
                  23611322.9774                                   23611320.1684
                                                                        42.5004
        24.5004
   4039973.76646   3176069.15244
                  24596429.0164                                   24596425.7974
                                                                        41.7504
        27.5004
  -1884482.51247  -1447220.50445
                  23229743.2194                                   23229740.4614
                                                                        44.5004
        30.5004
 09 10 11 23 56  0.0000000  0  9G02G04G05G13G29G23G30G31G10
  -3927420.35948  -2996139.30547
                  20608070.6564                                   20608065.0984
                                                                        52.0004
        43.0004
   3940481.34048   3100418.84846
                  21469425.4224                                   21469422.4304
                                                                        51.0004
        39.5004
   3894095.62147   3081718.59444
                  24042884.0944                                   24042880.9264
                                                                        43.0004
        28.5004
  -5882466.78548  -4510459.00846
                  21502021.9614                                   21502018.0704
                                                                        50.7504
        36.7504
  -2699752.10547  -2066357.69545
                  23491725.9844                                   23491723.0704
                                                                        44.0004
        32.0004
   1862248.56348   1492405.52345
                  22319662.7034                                   22319656.5234
                                                                        48.7504
        31.7504
   4683098.09846   3677456.10544
                  23610371.3754                                   23610368.3984
                                                                        41.7504
        26.0004
   4025778.12947   3165007.57444
                  24593728.4694                                   24593723.8754
                                                                        42.5004
        25.7504
  -2076271.67647  -1596666.59045
                  23193246.9304                                   23193244.3244
                                                                        43.7504
        30.7504
 09 10 11 23 56 30.0000000  0  9G02G04G05G13G29G23G30G31G10
  -4024803.90648  -3072022.60547
                  20589539.4924                                   20589533.9024
                                                                        52.5004
        42.5004
   3925464.35548   3088717.33646
                  21466568.0944                                   21466564.5234
                                                                        51.0004
        39.0004
   3699406.15647   2930012.57444
                  24005835.7814                                   24005832.6054
                                                                        43.7504
        29.2504
  -5998162.94548  -4600611.87546
                  21480005.8284                                   21480001.8054
                                                                        50.5004
        36.2504
  -2866984.59047  -2196668.66445
                  23459902.4774                                   23459900.2464
                                                                        43.5004
        30.7504
   1829972.44148   1467255.30145
                  22313521.0234                                   22313514.7074
                                                                        49.5004
        31.5004
   4678583.66446   3673938.39544
                  23609512.0394                                   23609509.7234
                                                                        41.0004
        25.7504
   4012041.90247   3154303.99644
                  24591114.3984                                   24591110.2544
                                                                        43.0004
        26.7504
  -2267792.33647  -1745903.44945
                  23156801.9614                                   23156798.9734
                                                                        44.7504
        30.2504
 09 10 11 23 57  0.0000000  0  9G02G04G05G13G29G23G30G31G10
  -4121593.79748  -3147443.26647
                  20571120.7814                                   20571115.5514
                                                                        52.5004
        43.0004
   3910915.60948   3077380.62146
                  21463799.7274                                   21463796.4224
                                                                        51.5004
        39.2504
   3504901.81647   2778450.79345
                  23968822.9694                                   23968819.7234
                                                                        44.5004
        30.5004
  -6113190.53948  -4690243.77046
                  21458116.8594                                   21458113.1054
                                                                        51.0004
        36.5004
  -3033816.09447  -2326667.16444
                  23428155.2584                                   23428153.1644
                                                                        43.2504
        29.5004
   1798276.60248   1442557.27745
                  22307489.5784                                   22307483.4184
                                                                        49.7504
        32.7504
   4674557.27747   3670800.98044
                  23608745.9224                                   23608743.5664
                                                                        42.0004
        25.2504
   3998765.46547   3143958.72343
                  24588587.8054                                   24588583.5824
                                                                        43.0004
        23.2504
  -2459039.26247  -1894927.02045
                  23120409.4844                                   23120405.8594
                                                                        45.7504
        32.7504
 09 10 11 23 57 30.0000000  0  9G02G04G05G13G29G23G30G31G10
  -4217792.79748  -3222403.52747
                  20552814.8444                                   20552808.9574
                                                                        52.5004
        42.7504
   3896830.44948   3066405.19146
                  21461119.1484                                   21461115.8134
                                                                        51.0004
        39.5004
   3310581.12947   2627032.12145
                  23931844.9534                                   23931841.8524
                                                                        43.2504
        32.0004
  -6227551.46548  -4779356.19145
                  21436354.5394                                   21436350.5704
                                                                        51.0004
        35.7504
  -3200247.36347  -2456353.73845
                  23396484.2664                                   23396481.6804
                                                                        42.2504
        31.0004
   1767156.21148   1418307.60945
                  22301567.2424                                   22301561.3364
                                                                        50.0004
        32.5004
   4671012.93446   3668039.11344
                  23608070.8834                                   23608069.2584
                                                                        41.7504
        28.2504
   3985943.22747   3133967.38743
                  24586148.3914                                   24586142.8834
                                                                        42.5004
        22.5004
  -2650013.96547  -2043738.46545
                  23084068.3054                                   23084064.3984
                                                                        45.2504
        32.0004
 09 10 11 23 58  0.0000000  0  9G02G04G05G13G29G23G30G31G10
  -4313397.82848  -3296900.94947
                  20534621.4844                                   20534616.0744
                                                                        52.0004
        43.0004
   3883209.21548   3055791.23446
                  21458527.0864                                   21458523.9024
                                                                        51.0004
        39.2504
   3116448.43847   2475759.94545
                  23894902.4384                                   23894899.1804
                                                                        44.0004
        31.2504
  -6341242.29748  -4867946.44546
                  21414719.9534                                   21414715.8444
                                                                        50.7504
        36.5004
  -3366273.60547  -2585724.78545
                  23364890.8134                                   23364887.6644
                                                                        43.2504
        30.5004
   1736612.00848   1394506.93845
                  22295754.7584                                   22295748.4574
                                                                        49.5004
        32.2504
   4667950.39147   3665652.74644
                  23607489.2504                                   23607486.8554
                                                                        42.0004
        28.2504
   3973575.43847   3124330.19143
                  24583794.1254                                   24583789.4924
                                                                        42.0004
        22.5004
  -2840711.73447  -2192334.12145
                  23047779.3524                                   23047776.0904
                                                                        45.0004
        31.0004
 09 10 11 23 58 30.0000000  0  9G02G04G05G13G29G23G30G31G10
  -4408409.78148  -3370936.23047
                  20516541.2424                                   20516535.7664
                                                                        52.0004
        43.2504
   3870049.04348   3045536.55146
                  21456022.7894                                   21456019.7464
                                                                        51.0004
        39.5004
   2922504.23047   2324634.62945
                  23857996.3754                                   23857993.1214
                                                                        43.2504
        31.2504
  -6454263.27048  -4956014.70746
                  21393212.5864                                   21393208.8634
                                                                        50.5004
        36.2504
  -3531894.53947  -2714780.06245
                  23333374.5164                                   23333371.1024
                                                                        44.5004
        31.5004
   1706640.50848   1371152.54345
                  22290051.5474                                   22290045.3674
                                                                        48.7504
        32.2504
   4665364.48447   3663637.75844
                  23606995.9774                                   23606994.1414
                                                                        42.7504
        29.0004
   3961657.52746   3115043.55543
                  24581525.8284                                   24581521.6174
                                                                        40.2504
        22.0004
  -3031131.95347  -2340713.46545
                  23011543.4534                                   23011540.2894
                                                                        45.0004
        30.7504
 09 10 11 23 59  0.0000000  0  9G02G04G05G13G29G23G30G31G10
  -4502830.11748  -3444510.52347
                  20498574.0394                                   20498568.6724
                                                                        52.7504
        42.7504
   3857345.74648   3035637.84846
                  21453605.4924                                   21453602.6804
                                                                        50.5004
        39.7504
   2728748.35947   2173656.10245
                  23821125.3524                                   23821122.1994
                                                                        43.5004
        30.7504
  -6566615.93748  -5043562.21946
                  21371832.7664                                   21371828.5124
                                                                        51.2504
        36.5004
  -3697109.16447  -2843518.74645
                  23301934.8284                                   23301931.6374
                                                                        44.0004
        31.5004
   1677237.79347   1348241.35545
                  22284456.1954                                   22284449.9884
                                                                        47.5004
        31.2504
   4663250.52747   3661990.52744
                  23606594.5164                                   23606591.8014
                                                                        44.2504
        28.0004
   3950185.30946   3106104.14843
                  24579342.3984                                   24579338.6334
                                                                        40.0004
        21.2504
  -3221274.62947  -2488876.55945
                  22975360.1094                                   22975357.6764
                                                                        45.2504
        32.0004
 09 10 11 23 59 30.0000000  0  9G02G04G05G13G29G23G30G31G10
  -4596655.62548  -3517621.30547
                  20480719.4694                                   20480713.8834
                                                                        52.7504
        42.5004
   3845100.03948   3026095.72346
                  21451275.3594                                   21451271.9344
                                                                        50.5004
        39.5004
   2535185.46147   2022827.87145
                  23784291.9454                                   23784288.0314
                                                                        43.7504
        31.0004
  -6678296.59048  -5130586.11346
                  21350580.7974                                   21350576.6994
                                                                        50.5004
        36.2504
  -3861912.44147  -2971936.88745
                  23270574.0704                                   23270571.1334
                                                                        44.5004
        30.7504
   1648404.39848   1325773.77045
                  22278969.8914                                   22278963.4654
                                                                        48.2504
        32.2504
   4661608.34047   3660710.88744
                  23606281.9614                                   23606279.2974
                                                                        45.0004
        28.2504
   3939159.46146   3097512.56343
                  24577244.6024                                   24577240.5044
                                                                        39.2504
        22.2504
  -3411134.38747  -2636819.14845
                  22939231.0944                                   22939227.9534
                                                                        45.2504
        32.2504
