     2.11           OBSERVATION DATA    G (GPS)             RINEX VERSION / TYPE
teqc  2019Feb25                         20221121 12:28:42UTCPGM / RUN BY / DATE
OSX ker:10.11.6|Core i5|gcc 4.3 -m64|OSX ker:10.10+|=+      COMMENT
BIT 2 OF LLI FLAGS DATA COLLECTED UNDER A/S CONDITION       COMMENT
04712980                                                    MARKER NAME
2980                                                        MARKER NUMBER
-Unknown-           -Unknown-                               OBSERVER / AGENCY
0220400471          TRIMBLE R7          2.30                REC # / TYPE / VERS
-Unknown-           TRM39105.00     NONE                    ANT # / TYPE
  1449459.1010 -1709243.3672  5952442.9142                  APPROX POSITION XYZ
        0.0000        0.0000        0.0000                  ANTENNA: DELTA H/E/N
     1     1                                                WAVELENGTH FACT L1/2
    20    L1    L2    L5    L6    L7    L8    C1    P1    C2# / TYPES OF OBSERV
          P2    C5    C6    C7    C8    S1    S2    S5    S6# / TYPES OF OBSERV
          S7    S8                                          # / TYPES OF OBSERV
    30.0000                                                 INTERVAL
    15                                                      LEAP SECONDS
Forced Modulo Decimation to 30 seconds                      COMMENT
 SNR is mapped to RINEX snr flag value [0-9]                COMMENT
  L1 & L2: min(max(int(snr_dBHz/6), 0), 9)                  COMMENT
teqc edited: Beidou # 1 - 37 excluded                       COMMENT
  2009    10    25     0     0    0.0000000     GPS         TIME OF FIRST OBS
                                                            END OF HEADER
 09 10 25  0  0  0.0000000  0 10G02G04G05G10G13G23G25G29G16G07
  -6856965.33248  -5304427.89846
                  20779008.4224                                   20779002.6524
                                                                        51.0004
        41.7504
    190485.03547    154571.05145
                  23258002.9224                                   23258000.3444
                                                                        44.5004
        30.5004
 -18555656.27348 -14381790.79746
                  21643698.1884                                   21643694.3204
                                                                        50.5004
        39.7504
 -17425564.63348 -13508830.50046
                  20931322.3834                                   20931318.6484
                                                                        52.0004
        40.5004
  -8045182.27048  -6224301.78545
                  21394563.1804                                   21394558.9024
                                                                        48.0004
        34.5004
  -1059851.39546   -811804.22744
                  23750191.1724                                   23750186.0124
                                                                        41.5004
        25.5004
 -15887793.28947 -12315622.20345
                  22731009.4384                                   22731006.0704
                                                                        44.2504
        31.2504
 -14367311.48448 -11130794.08646
                  21993695.1644                                   21993692.0704
                                                                        49.7504
        38.0004
  -5528920.02046  -4271179.07843
                  23849799.5164                                   23849796.1214
                                                                        40.5004
        21.5004
  -4824152.89847  -3738821.73854
                  23883902.8594                                   23883899.9224
                                                                        43.0004
        27.5004
 09 10 25  0  0 30.0000000  0 10G02G04G05G10G13G23G25G29G16G07
  -6893244.23048  -5332697.18046
                  20772104.8754                                   20772099.1844
                                                                        52.2504
        41.0004
    210786.59447    170387.99255
                  23261867.5944                                   23261865.8714
                                                                        44.2504
        30.2504
 -18721727.41448 -14511196.88346
                  21612096.3134                                   21612091.8484
                                                                        49.5004
        40.2504
 -17574832.05548 -13625142.77746
                  20902917.7034                                   20902914.0434
                                                                        52.5004
        40.5004
  -8089434.90247  -6258784.34045
                  21386142.3284                                   21386138.1604
                                                                        47.0004
        35.0004
  -1047262.35247   -801994.51244
                  23752587.4224                                   23752581.6684
                                                                        43.0004
        24.7504
 -16020225.06647 -12418816.26645
                  22705808.8914                                   22705804.7464
                                                                        44.0004
        30.0004
 -14480042.83648 -11218636.68446
                  21972243.6094                                   21972239.9104
                                                                        50.0004
        37.5004
  -5666681.11346  -4378525.55144
                  23823584.3754                                   23823581.4344
                                                                        40.5004
        24.5004
  -5003335.96947  -3876581.03954
                  23849805.7814                                   23849804.1414
                                                                        43.2504
        27.7504
 09 10 25  0  1  0.0000000  0 10G02G04G05G10G13G23G25G29G16G07
  -6928945.86748  -5360516.66046
                  20765311.1414                                   20765305.2274
                                                                        51.7504
        41.5004
    231346.38347    186304.13755
                  23265778.3674                                   23265776.2854
                                                                        44.5004
        30.0004
 -18887368.60948 -14640267.94146
                  21580575.8754                                   21580571.8674
                                                                        49.7504
        40.0004
 -17723564.66048 -13741038.31646
                  20874614.9614                                   20874611.1804
                                                                        51.5004
        40.0004
  -8133040.73047  -6292762.92645
                  21377844.0784                                   21377839.8834
                                                                        47.5004
        34.5004
  -1034343.32847   -791927.68743
                  23755045.3524                                   23755039.7584
                                                                        43.2504
        23.5004
 -16152085.37947 -12521564.75445
                  22680716.1724                                   22680712.9224
                                                                        44.5004
        30.5004
 -14592136.81248 -11305982.62546
                  21950912.6884                                   21950908.7384
                                                                        50.0004
        37.5004
  -5803863.37946  -4485421.26644
                  23797480.4774                                   23797476.7544
                                                                        41.5004
        25.2504
  -5182153.78147  -4014992.19755
                  23815778.5004                                   23815770.4964
                                                                        44.0004
        34.0004
 09 10 25  0  1 30.0000000  0 10G02G04G05G10G13G23G25G29G16G07
  -6964073.94548  -5387889.22746
                  20758626.1644                                   20758620.7194
                                                                        52.5004
        41.5004
    252145.83247    202400.26855
                  23269736.9384                                   23269735.3244
                                                                        45.0004
        31.7504
 -19052580.40648 -14769004.41846
                  21549136.9454                                   21549133.3014
                                                                        49.7504
        40.0004
 -17871763.60548 -13856518.02046
                  20846413.5394                                   20846410.0634
                                                                        52.0004
        40.2504
  -8176003.48848  -6326240.44945
                  21369669.1094                                   21369664.8324
                                                                        48.0004
        35.0004
  -1021098.91847   -781607.29743
                  23757566.0704                                   23757559.8364
                                                                        43.0004
        22.5004
 -16283375.62547 -12623869.17244
                  22655732.6174                                   22655729.8014
                                                                        44.2504
        29.7504
 -14703594.28948 -11392832.60946
                  21929702.8914                                   21929699.4184
                                                                        50.0004
        37.5004
  -5940465.89147  -4591864.69944
                  23771485.8204                                   23771482.0864
                                                                        42.5004
        24.7504
  -5360599.88747  -4153112.34454
                  23781819.8524                                   23781816.4654
                                                                        44.5004
        28.2504
 09 10 25  0  2  0.0000000  0 10G02G04G05G10G13G23G25G29G16G07
  -5423207.76248  -4187214.52046
                  21051843.6024                                   21051838.1054
                                                                        52.7504
        41.5004
   1848613.88747   1446402.66844
                  23573533.6564                                   23573532.1764
                                                                        44.5004
        27.2504
 -17641934.38348 -13669799.68446
                  21817573.7274                                   21817569.8554
                                                                        50.2504
        40.2504
 -16444001.08248 -12743975.78546
                  21118107.5004                                   21118104.2274
                                                                        52.0004
        40.2504
  -6642902.46548  -5131616.27745
                  21661408.2114                                   21661404.1644
                                                                        48.5004
        35.5004
    567888.34047    456564.58643
                  24059940.0784                                   24059934.2504
                                                                        42.5004
        22.0004
 -14838669.42247 -11498124.86744
                  22930652.2344                                   22930649.1174
                                                                        44.0004
        29.2504
 -13238989.83648 -10251582.39146
                  22208407.8754                                   22208404.2854
                                                                        49.2504
        37.5004
  -4501062.83647  -3470252.13743
                  24045395.1414                                   24045391.0124
                                                                        42.0004
        22.5004
  -3963257.30547  -3063351.07054
                  24047727.0164                                   24047723.9344
                                                                        44.0004
        27.5004
 09 10 25  0  2 30.0000000  0 10G02G04G05G10G13G23G25G29G16G07
  -5457189.80148  -4213694.28146
                  21045377.2734                                   21045371.7274
                                                                        53.5004
        41.0004
   1869902.51247   1462660.33254
                  23577585.8054                                   23577583.8164
                                                                        44.7504
        28.0004
 -17806278.98448 -13797860.37946
                  21786300.1334                                   21786296.1054
                                                                        50.5004
        40.0004
 -16591124.76648 -12858617.62146
                  21090110.8444                                   21090107.4064
                                                                        51.2504
        40.2504
  -6684581.34448  -5164093.32845
                  21653477.0314                                   21653472.5864
                                                                        48.0004
        34.7504
    581778.16046    467387.82843
                  24062583.5394                                   24062577.4494
                                                                        40.5004
        21.5004
 -14968811.29347 -11599534.41845
                  22905886.7664                                   22905884.2934
                                                                        43.7504
        30.2504
 -13349169.03148 -10337436.31646
                  22187441.2894                                   22187438.0434
                                                                        50.2504
        37.2504
  -4636499.83646  -3575787.63743
                  24019622.2344                                   24019618.5904
                                                                        41.7504
        22.7504
  -4140960.94547  -3201821.16844
                  24013910.5554                                   24013907.9264
                                                                        43.7504
        25.7504
 09 10 25  0  3  0.0000000  0 10G02G04G05G10G13G23G25G29G16G07
  -5490604.03948  -4239731.18746
                  21039019.0164                                   21039012.8244
                                                                        53.5004
        41.5004
   1891428.36747   1479433.09844
                  23581682.5944                                   23581679.8484
                                                                        46.0004
        29.2504
 -17970191.36748 -13925584.30146
                  21755108.5784                                   21755104.5004
                                                                        50.0004
        39.7504
 -16737712.12548 -12972841.52746
                  21062216.3054                                   21062212.8794
                                                                        52.0004
        40.2504
  -6725625.40248  -5196076.08645
                  21645666.9924                                   21645662.8524
                                                                        48.0004
        34.5004
    595982.59446    478456.19543
                  24065286.3984                                   24065279.4924
                                                                        39.5004
        19.5004
 -15098380.20347 -11700497.35244
                  22881231.2274                                   22881228.4104
                                                                        44.7504
        29.7504
 -13458711.85248 -10422794.36346
                  22166596.2114                                   22166592.7194
                                                                        50.0004
        37.0004
  -4771355.25847  -3680869.96943
                  23993959.7584                                   23993956.0234
                                                                        42.2504
        22.2504
  -4318292.78147  -3338159.21554
                  23980166.0944                                   23980164.3674
                                                                        44.0004
        25.5004
 09 10 25  0  3 30.0000000  0 10G02G04G05G10G13G23G25G29G16G07
  -5523452.19148  -4265327.33246
                  21032768.2114                                   21032762.6884
                                                                        52.7504
        41.2504
   1913193.93847   1496394.66044
                  23585823.6254                                   23585821.0704
                                                                        46.0004
        29.5004
 -18133668.74248 -14052969.25446
                  21723999.5314                                   21723995.7734
                                                                        50.5004
        40.0004
 -16883761.07448 -13086645.89846
                  21034424.2894                                   21034420.5784
                                                                        52.0004
        40.7504
  -6766034.02747  -5227563.05145
                  21637976.8054                                   21637972.8794
                                                                        47.5004
        34.7504
    610500.00046    489768.34043
                  24068049.0084                                   24068043.2034
                                                                        40.7504
        22.0004
 -15227373.27747 -11801011.21945
                  22856684.3444                                   22856681.5474
                                                                        44.5004
        30.0004
 -13567616.49248 -10507655.10946
                  22145872.1414                                   22145868.5394
                                                                        49.7504
        37.5004
  -4905625.89147  -3785496.53543
                  23968409.7504                                   23968404.7114
                                                                        43.0004
        22.7504
  -4495242.53547  -3476039.95744
                  23946491.7894                                   23946489.0474
                                                                        44.0004
        26.7504
 09 10 25  0  4  0.0000000  0 10G02G04G05G10G13G23G25G29G16G07
  -5555737.53948  -4290485.62946
                  21026625.0704                                   21026619.5824
                                                                        52.5004
        41.2504
   1935190.55547   1513535.48844
                  23590008.9924                                   23590006.2854
                                                                        45.7504
        29.5004
 -18296710.86748 -14180015.03946
                  21692973.8524                                   21692970.1254
                                                                        50.5004
        40.2504
 -17029271.71948 -13200030.81246
                  21006734.6174                                   21006730.8954
                                                                        51.7504
        40.5004
  -6805811.68748  -5258558.62945
                  21630407.5004                                   21630404.0984
                                                                        48.5004
        34.2504
    625326.52346    501321.40643
                  24070870.3914                                   24070864.7544
                                                                        41.7504
        22.7504
 -15355791.19147 -11901076.87544
                  22832247.0004                                   22832243.7584
                                                                        45.5004
        28.7504
 -13675882.82848 -10592018.48846
                  22125269.7974                                   22125266.5044
                                                                        49.2504
        37.2504
  -5039311.39846  -3889667.02343
                  23942969.9694                                   23942965.1764
                                                                        41.0004
        21.2504
  -4671817.26247  -3613630.31644
                  23912890.4844                                   23912887.4264
                                                                        44.2504
        27.2504
 09 10 25  0  4 30.0000000  0 10G02G04G05G10G13G23G25G29G16G07
  -5587459.46948  -4315203.55546
                  21020588.3364                                   21020582.6684
                                                                        52.5004
        41.2504
   1957411.781 7
                  23594238.031
                                                                        46.000

 -18459317.83648 -14306721.74246
                  21662031.0314                                   21662027.2274
                                                                        50.5004
        41.0004
 -17174244.03148 -13312996.25846
                  20979147.4224                                   20979143.7074
                                                                        52.0004
        40.5004
  -6844961.53947  -5289064.98845
                  21622957.8594                                   21622953.9224
                                                                        47.7504
        34.0004
    640457.86747    513112.03144
                  24073749.8364                                   24073744.4694
                                                                        42.5004
        25.0004
 -15483634.21547 -12000694.69144
                  22807919.1094                                   22807916.3634
                                                                        45.5004
        29.5004
 -13783512.37148 -10675885.66046
                  22104788.6804                                   22104785.0004
                                                                        48.7504
        38.0004
  -5172412.38346  -3993382.18443
                  23917642.2894                                   23917637.3984
                                                                        41.5004
        20.7504
  -4848012.46147  -3750924.90244
                  23879361.5084                                   23879358.2344
                                                                        43.2504
        27.2504
 09 10 25  0  5  0.0000000  0 10G02G04G05G10G13G23G25G29G16G07
  -5618623.84448  -4339487.28546
                  21014657.5864                                   21014652.1604
                                                                        52.7504
        41.0004
   1979860.35247   1548227.68454
                  23598509.7274                                   23598508.2424
                                                                        45.5004
        29.0004
 -18621489.74648 -14433089.56246
                  21631170.6724                                   21631166.6334
                                                                        51.0004
        40.7504
 -17318678.48848 -13425542.74646
                  20951662.1644                                   20951658.7464
                                                                        51.7504
        40.2504
  -6883487.21948  -5319084.97745
                  21615626.3594                                   21615622.4104
                                                                        48.2504
        34.2504
    655889.45346    525136.57444
                  24076686.2114                                   24076680.8674
                                                                        41.0004
        24.0004
 -15610901.80947 -12099863.73445
                  22783700.7274                                   22783697.2424
                                                                        46.0004
        30.2504
 -13890506.02048 -10759257.34046
                  22084428.1724                                   22084425.0274
                                                                        49.7504
        37.5004
  -5304928.20746  -4096641.30543
                  23892424.7664                                   23892420.1054
                                                                        41.2504
        21.0004
  -5023827.79746  -3887924.01644
                  23845904.5234                                   23845901.9734
                                                                        41.0004
        27.0004
 09 10 25  0  5 30.0000000  0 10G02G04G05G10G13G23G25G29G16G07
  -5649232.28948  -4363337.87946
                  21008833.0004                                   21008827.3204
                                                                        53.0004
        41.0004
   2002530.47747   1565776.05554
                  23602824.4064                                   23602822.6644
                                                                        45.2504
        28.5004
 -18783224.44948 -14559116.69146
                  21600393.5784                                   21600389.3524
                                                                        51.5004
        40.5004
 -17462575.21148 -13537671.02346
                  20924280.2894                                   20924276.9494
                                                                        51.2504
        41.0004
  -6921391.55148  -5348621.29345
                  21608413.8524                                   21608410.2544
                                                                        49.5004
        34.5004
    671619.06646    537393.45743
                  24079679.2814                                   24079673.8714
                                                                        41.0004
        22.7504
 -15737594.50847 -12198585.48044
                  22759592.0704                                   22759588.5274
                                                                        46.2504
        29.5004
 -13996863.03548 -10842132.93746
                  22064189.5474                                   22064185.9884
                                                                        49.2504
        37.2504
  -5436857.46146  -4199443.26243
                  23867319.2274                                   23867314.6724
                                                                        41.0004
        21.2504
  -5199258.79747  -4024623.40244
                  23812521.0004                                   23812518.1334
                                                                        42.0004
        28.5004
 09 10 25  0  6  0.0000000  0 10G02G04G05G10G13G23G25G29G16G07
  -5679286.99248  -4386757.27346
                  21003113.9534                                   21003108.3954
                                                                        52.7504
        41.2504
   2025423.50047   1583615.84444
                  23607179.6564                                   23607177.9924
                                                                        44.5004
        28.5004
 -18944524.77348 -14684807.14846
                  21569700.3834                                   21569698.4654
                                                                        51.2504
        40.5004
 -17605930.89548 -13649377.11346
                  20897000.8134                                   20896997.5274
                                                                        50.7504
        40.5004
  -6958674.46548  -5377672.32045
                  21601318.7974                                   21601314.6724
                                                                        49.0004
        33.7504
    687642.18446    549878.82843
                  24082728.8054                                   24082723.7544
                                                                        40.7504
        22.2504
 -15863710.07447 -12296857.20745
                  22735593.2424                                   22735589.4614
                                                                        46.5004
        30.0004
 -14102583.60548 -10924512.61346
                  22044071.1644                                   22044067.6484
                                                                        49.2504
        38.0004
  -5568199.62546  -4301787.88743
                  23842326.2274                                   23842322.2154
                                                                        41.2504
        20.5004
  -5374309.62547  -4159211.27154
                  23779212.8914                                   23779209.2424
                                                                        43.2504
        28.0004
 09 10 25  0  6 30.0000000  0 10G02G04G05G10G13G23G25G29G16G07
  -5708789.52348  -4409746.27046
                  20997499.7814                                   20997493.8984
                                                                        52.5004
        40.5004
   2048532.56647   1601623.52744
                  23611577.0784                                   23611574.6294
                                                                        44.5004
        28.7504
 -19105383.96948 -14806808.40457
                  21539090.3914                                   21539080.0744
                                                                        50.5004
        43.7504
 -17748748.00848 -13760664.46146
                  20869824.7974                                   20869821.4614
                                                                        51.5004
        40.5004
  -6995341.35548  -5406243.88745
                  21594341.3284                                   21594337.0004
                                                                        49.0004
        34.7504
    703957.05946    562591.85543
                  24085832.7734                                   24085827.8404
                                                                        40.5004
        20.7504
 -15989248.73047 -12394679.90244
                  22711703.8364                                   22711700.5984
                                                                        46.2504
        29.5004
 -14207667.21548 -11006395.96546
                  22024074.4384                                   22024070.9574
                                                                        49.0004
        37.5004
  -5698953.11746  -4403673.64543
                  23817443.9304                                   23817440.5204
                                                                        40.7504
        21.5004
  -5548964.85247  -4294397.03954
                  23745976.7504                                   23745973.2074
                                                                        44.0004
        29.5004
 09 10 25  0  7  0.0000000  0 10G02G04G05G10G13G23G25G29G16G07
  -5737744.52048  -4432309.39846
                  20991990.3364                                   20991985.0514
                                                                        53.0004
        41.2504
   2071854.37947   1619796.70344
                  23616014.4924                                   23616012.2544
                                                                        44.0004
        27.0004
 -19265798.84448 -14931805.07056
                  21508562.8984                                   21508559.4224
                                                                        51.0004
        41.2504
 -17891019.18448 -13870042.11356
                  20842750.6884                                   20842747.6684
                                                                        51.5004
        41.0004
  -7031395.04348  -5434337.71945
                  21587480.6564                                   21587476.3914
                                                                        50.0004
        35.0004
    720558.08246    575527.58643
                  24088992.6094                                   24088986.5394
                                                                        40.5004
        19.7504
 -16114210.16847 -12491402.77354
                  22687925.0394                                   22687921.8324
                                                                        46.0004
        29.5004
 -14312115.03148 -11087783.87946
                  22004198.7734                                   22004195.1134
                                                                        49.2504
        37.0004
  -5829118.11347  -4505100.85243
                  23792674.1254                                   23792671.0354
                                                                        42.0004
        22.5004
  -5723231.71147  -4430188.59444
                  23712813.3984                                   23712809.7034
                                                                        44.0004
        29.2504
 09 10 25  0  7 30.0000000  0 10G02G04G05G10G13G23G25G29G16G07
  -5766151.86748  -4454445.62546
                  20986584.9384                                   20986579.9774
                                                                        51.7504
        40.5004
   2095386.60947   1638133.48844
                  23620492.7734                                   23620490.5474
                                                                        43.5004
        26.7504
 -19425777.95348 -15056464.64846
                  21478120.3134                                   21478116.7664
                                                                        51.5004
        40.5004
 -18032749.45748 -13980480.80946
                  20815779.8674                                   20815776.5664
                                                                        51.5004
        40.7504
  -7066837.10248  -5461954.92245
                  21580736.1724                                   21580732.2734
                                                                        49.0004
        35.0004
    737442.67646    588684.15243
                  24092205.2734                                   24092199.3404
                                                                        39.2504
        18.5004
 -16238591.91847 -12588323.60544
                  22664255.9614                                   22664252.4264
                                                                        46.2504
        29.5004
 -14415926.07848 -11168675.59846
                  21984444.3364                                   21984440.6884
                                                                        49.7504
        37.2504
  -5958693.31247  -4606068.60243
                  23768017.6724                                   23768013.7034
                                                                        42.0004
        22.5004
  -5897107.66447  -4565676.21944
                  23679725.8594                                   23679722.7034
                                                                        43.0004
        28.5004
 09 10 25  0  8  0.0000000  0 10G02G04G05G10G13G23G25G29G16G07
  -5794011.76248  -4476155.26246
                  20981283.9774                                   20981279.0864
                                                                        52.2504
        40.7504
   2119129.32047   1656634.30944
                  23625011.1414                                   23625008.6414
                                                                        44.2504
        27.5004
 -19585310.68048 -15180775.11746
                  21447761.7504                                   21447757.6524
                                                                        50.7504
        40.5004
 -18173936.37948 -14090496.71946
                  20788912.9224                                   20788909.6374
                                                                        52.0004
        40.5004
  -7101668.14548  -5489096.00445
                  21574108.0234                                   21574103.9024
                                                                        49.2504
        34.2504
    754611.06646    602062.26643
                  24095473.1644                                   24095466.9804
                                                                        40.2504
        19.2504
 -16362391.46547 -12684790.25844
                  22640697.1094                                   22640693.8674
                                                                        44.5004
        29.5004
 -14519098.47748 -11249069.68446
                  21964811.4144                                   21964808.0984
                                                                        48.0004
        38.0004
  -6087675.12146  -4706573.81243
                  23743472.7344                                   23743469.6684
                                                                        41.2504
        23.0004
  -6070586.21147  -4700853.64544
                  23646713.4694                                   23646710.2544
                                                                        42.7504
        28.5004
 09 10 25  0  8 30.0000000  0 10G02G04G05G10G13G23G25G29G16G07
  -5821325.87548  -4497437.94146
                  20976085.4384                                   20976079.9144
                                                                        52.2504
        41.2504
   2143077.50047   1675295.28144
                  23629568.6484                                   23629565.8244
                                                                        42.5004
        28.5004
 -19744402.75048 -15304743.18746
                  21417487.8914                                   21417483.5864
                                                                        51.0004
        41.0004
 -18314577.94948 -14200086.57046
                  20762149.3204                                   20762145.7734
                                                                        51.7504
        40.7504
  -7135893.69548  -5515765.54745
                  21567595.3054                                   21567591.1414
                                                                        48.5004
        34.0004
    772056.22747    615655.89843
                  24098792.1094                                   24098786.2664
                                                                        42.5004
        22.0004
 -16485613.25047 -12780807.87144
                  22617249.2584                                   22617246.3714
                                                                        45.2504
        29.2504
 -14621634.75848 -11328968.10246
                  21945299.1334                                   21945296.0274
                                                                        48.7504
        38.0004
  -6216065.20346  -4806617.89543
                  23719040.7814                                   23719037.6024
                                                                        41.0004
        23.5004
  -6243669.57846  -4835723.54344
                  23613776.8444                                   23613773.0944
                                                                        40.5004
        27.2504
 09 10 25  0  9  0.0000000  0  9G02G04G05G10G13G25G29G16G07
  -5848099.37948  -4518300.15246
                  20970990.5864                                   20970985.3954
                                                                        52.0004
        40.7504
   2167229.51647   1694114.89844
                  23634163.8134                                   23634161.6564
                                                                        42.7504
        27.5004
 -19903049.42248 -15428363.92246
                  21387298.3754                                   21387294.4024
                                                                        50.0004
        41.0004
 -18454677.11348 -14309255.11746
                  20735489.5394                                   20735486.0784
                                                                        51.0004
        40.7504
  -7169513.74648  -5541962.92245
                  21561197.6174                                   21561193.8634
                                                                        48.5004
        33.0004
 -16608250.17647 -12876368.19544
                  22593911.3284                                   22593908.0944
                                                                        45.2504
        29.7504
 -14723533.24248 -11408369.59046
                  21925908.8834                                   21925905.3834
                                                                        48.5004
        38.0004
  -6343861.30546  -4906199.15244
                  23694722.0784                                   23694718.6604
                                                                        41.2504
        24.5004
  -6416354.38746  -4970283.48044
                  23580915.4774                                   23580912.5044
                                                                        40.7504
        26.5004
 09 10 25  0  9 30.0000000  0  9G02G04G05G10G13G25G29G16G07
  -5874332.62948  -4538606.92257
                  20965998.6564                                   20965992.8014
                                                                        52.0004
        43.2504
   2191584.40247   1713092.64144
                  23638798.6414                                   23638796.4574
                                                                        42.7504
        26.0004
 -20061251.27048 -15551639.35946
                  21357194.4064                                   21357190.2894
                                                                        49.5004
        40.7504
 -18594230.16048 -14417998.80946
                  20708934.0474                                   20708930.8874
                                                                        51.5004
        40.7504
  -7202530.67248  -5567690.51245
                  21554914.5394                                   21554910.4774
                                                                        48.5004
        33.7504
 -16730304.22747 -12971475.00845
                  22570685.3754                                   22570682.0124
                                                                        46.0004
        30.0004
 -14824793.16048 -11487273.72746
                  21906639.8204                                   21906636.3954
                                                                        49.0004
        37.7504
  -6471061.07046  -5005315.76244
                  23670516.8054                                   23670513.0474
                                                                        41.0004
        25.0004
  -6588635.25447  -5104528.56244
                  23548132.2344                                   23548128.6604
                                                                        42.0004
        27.5004
 09 10 25  0 10  0.0000000  0  9G02G04G05G10G13G25G29G16G07
  -5900023.39848  -4558625.34046
                  20961109.7344                                   20961104.2154
                                                                        52.5004
        40.7504
   2216140.66447   1732226.99644
                  23643472.0084                                   23643469.6804
                                                                        42.7504
        28.7504
 -20219001.89148 -15674562.73046
                  21327175.8594                                   21327172.7114
                                                                        50.0004
        40.5004
 -18733231.41848 -14525589.61757
                  20682483.1804                                   20682479.7074
                                                                        52.0004
        43.0004
  -7234947.93748  -5592952.52745
                  21548746.9454                                   21548743.6454
                                                                        49.0004
        33.2504
 -16851772.91847 -13066126.31645
                  22547570.5944                                   22547566.8594
                                                                        45.7504
        30.0004
 -14925411.84848 -11565678.01246
                  21887493.2584                                   21887489.5164
                                                                        49.0004
        37.0004
  -6597661.81647  -5103965.55544
                  23646425.4774                                   23646422.0004
                                                                        42.5004
        25.2504
  -6760509.05147  -5238456.51644
                  23515426.1954                                   23515422.7934
                                                                        42.2504
        27.0004
 09 10 25  0 10 30.0000000  0  9G02G04G05G10G13G25G29G16G07
  -5925170.94148  -4578220.59846
                  20956323.6954                                   20956318.4304
                                                                        52.0004
        40.7504
   2240901.06647   1751520.63744
                  23648184.2194                                   23648181.8984
                                                                        44.2504
        28.5004
 -20376293.50848 -15797127.02046
                  21297243.8134                                   21297240.3754
                                                                        49.2504
        40.5004
 -18871677.17648 -14633469.44146
                  20656137.5474                                   20656134.6524
                                                                        50.7504
        40.5004
  -7266755.73448  -5617737.27745
                  21542694.1414                                   21542690.6294
                                                                        49.0004
        33.2504
 -16972651.20347 -13160318.29744
                  22524569.3364                                   22524566.1294
                                                                        45.7504
        29.7504
 -15025385.16047 -11643579.40646
                  21868468.9384                                   21868464.8984
                                                                        47.2504
        37.2504
  -6723658.09046  -5202144.45344
                  23622449.4064                                   23622445.8914
                                                                        41.5004
        26.0004
  -6931966.93746  -5372059.60544
                  23482798.3054                                   23482794.3324
                                                                        41.5004
        27.7504
 09 10 25  0 11  0.0000000  0  9G02G04G05G10G13G25G29G16G07
  -5949778.60948  -4597395.32446
                  20951641.0634                                   20951635.6914
                                                                        51.5004
        41.0004
   2265860.91047   1770969.39844
                  23652934.4534                                   23652931.6334
                                                                        45.0004
        27.5004
 -20533129.48048 -15919336.26646
                  21267398.6644                                   21267395.3714
                                                                        50.2504
        40.7504
 -19009568.70748 -14740917.66046
                  20629898.1484                                   20629894.9344
                                                                        52.0004
        41.0004
  -7297962.43048  -5642053.61745
                  21536755.4224                                   21536751.3244
                                                                        49.2504
        33.2504
 -17092936.24647 -13254046.98845
                  22501679.5634                                   22501677.1054
                                                                        46.2504
        31.2504
 -15124714.04748 -11720978.57446
                  21849567.1094                                   21849563.4614
                                                                        48.0004
        37.5004
  -6849049.94547  -5299852.28944
                  23598587.7274                                   23598584.2664
                                                                        42.0004
        26.0004
  -7103010.33647  -5505340.24244
                  23450249.8444                                   23450246.4494
                                                                        43.7504
        29.2504
 09 10 25  0 11 30.0000000  0  9G02G04G05G10G13G25G29G16G07
  -4398432.61348  -3388554.39546
                  21246852.5704                                   21246846.8134
                                                                        51.7504
        40.7504
   3866433.35547   3018168.52044
                  23957513.4534                                   23957510.0204
                                                                        44.2504
        26.2504
 -19114090.53548 -14812780.44057
                  21537433.0234                                   21537427.4614
                                                                        51.0004
        44.2504
 -17571485.46548 -13620334.15646
                  20903556.8204                                   20903554.6724
                                                                        52.0004
        40.5004
  -5753154.62548  -4438306.98845
                  21830721.6884                                   21830718.2624
                                                                        49.0004
        34.0004
 -15637209.29347 -12119714.25845
                  22778694.8914                                   22778692.8204
                                                                        46.7504
        30.7504
 -13647979.78948 -10570276.66446
                  22130580.2194                                   22130576.9024
                                                                        49.2504
        37.7504
  -5398417.00847  -4169488.91044
                  23874633.9064                                   23874630.6254
                                                                        42.0004
        24.0004
  -5698214.00447  -4410693.37944
                  23717574.0314                                   23717569.9494
                                                                        43.5004
        29.7504
 09 10 25  0 12  0.0000000  0  9G02G04G05G10G13G25G29G16G07
  -4421978.89548  -3406902.52746
                  21242372.1254                                   21242366.7774
                                                                        51.2504
        41.0004
   3891776.58247   3037917.42644
                  23962334.3054                                   23962332.2814
                                                                        43.0004
        25.0004
 -19270022.24248 -14934284.77746
                  21507759.6804                                   21507755.9844
                                                                        50.5004
        41.2504
 -17708276.39848 -13726924.78546
                  20877526.6884                                   20877523.6564
                                                                        52.0004
        41.5004
  -5783180.62948  -4461704.35245
                  21825008.8054                                   21825005.1994
                                                                        49.2504
        34.0004
 -15756320.78947 -12212528.34845
                  22756028.6644                                   22756026.0744
                                                                        46.0004
        30.5004
 -13746031.52748 -10646680.72746
                  22111921.8054                                   22111918.3674
                                                                        48.5004
        38.5004
  -5522609.03146  -4266261.85243
                  23851001.5634                                   23850997.1564
                                                                        41.5004
        23.0004
  -5868430.82447  -4543329.65244
                  23685181.9064                                   23685178.8094
                                                                        44.0004
        29.0004
 09 10 25  0 12 30.0000000  0  9G02G04G05G10G13G25G29G16G07
  -4444999.83648  -3424841.49246
                  21237992.0474                                   21237986.6684
                                                                        51.2504
        40.5004
   3917302.37947   3057807.70744
                  23967191.7894                                   23967189.7584
                                                                        42.5004
        26.0004
 -19425507.35548 -15055443.52746
                  21478173.1484                                   21478169.8594
                                                                        50.0004
        41.0004
 -17844514.93748 -13833083.32046
                  20851600.2344                                   20851597.0864
                                                                        52.0004
        41.0004
  -5812620.06648  -4484643.93445
                  21819406.5314                                   21819402.8834
                                                                        50.0004
        34.0004
 -15874849.07447 -12304889.18445
                  22733474.6484                                   22733472.6724
                                                                        46.0004
        31.5004
 -13843447.12948 -10722589.02346
                  22093384.2344                                   22093380.6484
                                                                        48.0004
        38.0004
  -5646202.08246  -4362568.05943
                  23827482.0314                                   23827477.8094
                                                                        41.7504
        22.5004
  -6038234.77047  -4675644.89844
                  23652869.5084                                   23652867.0984
                                                                        42.0004
        28.0004
 09 10 25  0 13  0.0000000  0  9G02G04G05G10G13G25G29G16G07
  -4467497.77048  -3442372.29346
                  21233710.5474                                   21233705.4454
                                                                        51.5004
        40.2504
   3943007.89147   3077838.06644
                  23972084.2274                                   23972081.6254
                                                                        43.5004
        28.0004
 -19580539.91448 -15176248.42646
                  21448671.4774                                   21448669.0204
                                                                        50.7504
        41.0004
 -17980209.19548 -13938819.64846
                  20825779.0864                                   20825776.2344
                                                                        52.5004
        40.7504
  -5841478.36748  -4507130.41845
                  21813914.6024                                   21813910.9184
                                                                        49.2504
        33.2504
 -15992788.33247 -12396788.48045
                  22711030.6884                                   22711028.3674
                                                                        46.5004
        31.0004
 -13940228.36748 -10798002.90246
                  22074967.0164                                   22074964.2544
                                                                        48.5004
        38.0004
  -5769197.02046  -4458408.17643
                  23804076.9224                                   23804071.8364
                                                                        40.7504
        22.0004
  -6207622.28146  -4807634.62944
                  23620635.7114                                   23620632.4884
                                                                        41.0004
        27.0004
 09 10 25  0 13 30.0000000  0  9G02G04G05G10G13G25G29G16G07
  -4489477.49248  -3459499.59446
                  21229528.4534                                   21229522.9734
                                                                        51.0004
        40.5004
   3968889.59047   3098005.60544
                  23977009.4064                                   23977006.9264
                                                                        45.7504
        29.0004
 -19735120.79748 -15296700.95746
                  21419255.5784                                   21419252.6454
                                                                        51.0004
        41.0004
 -18115353.82048 -14044126.80946
                  20800061.5944                                   20800058.3794
                                                                        52.5004
        41.2504
  -5869760.33648  -4529168.38345
                  21808532.5704                                   21808528.5824
                                                                        48.5004
        33.2504
 -16110146.21547 -12488236.09845
                  22688698.6484                                   22688695.4494
                                                                        47.0004
        31.5004
 -14036376.11348 -10872923.24646
                  22056671.1094                                   22056667.6914
                                                                        48.5004
        37.7504
  -5891593.47346  -4553781.96543
                  23780785.4384                                   23780779.9774
                                                                        40.7504
        21.7504
  -6376594.31246  -4939300.88344
                  23588481.0784                                   23588478.0084
                                                                        41.2504
        28.0004
 09 10 25  0 14  0.0000000  0  9G02G04G05G10G13G25G29G16G07
  -4510939.73448  -3476223.48046
                  21225443.9694                                   21225438.8364
                                                                        51.0004
        40.0004
   3994945.18447   3118308.35244
                  23981967.3364                                   23981965.2814
                                                                        45.0004
        27.0004
 -19889247.12948 -15416798.42246
                  21389926.0474                                   21389922.3594
                                                                        51.0004
        41.2504
 -18249948.92248 -14149005.66446
                  20774448.7274                                   20774445.2274
                                                                        52.5004
        41.2504
  -5897467.58648  -4550758.79745
                  21803260.8524                                   21803256.8484
                                                                        48.5004
        33.0004
 -16226917.44947 -12579226.09445
                  22666476.8914                                   22666473.8014
                                                                        46.7504
        31.0004
 -14131890.38348 -10947350.17246
                  22038495.2734                                   22038492.0164
                                                                        48.7504
        38.2504
  -6013390.48846  -4648688.68743
                  23757607.6884                                   23757602.7074
                                                                        40.5004
        21.0004
  -6545147.59047  -5070640.91444
                  23556406.9844                                   23556403.0594
                                                                        42.0004
        27.7504
 09 10 25  0 14 30.0000000  0  9G02G04G05G10G13G25G29G16G07
  -4531884.71148  -3492543.59446
                  21221457.8914                                   21221452.6954
                                                                        50.7504
        40.5004
   4021173.76247   3138746.17244
                  23986958.6954                                   23986956.5594
                                                                        44.5004
        26.5004
 -20042923.25048 -15536547.03146
                  21360682.9694                                   21360679.8094
                                                                        51.2504
        41.5004
 -18383995.67248 -14253458.18746
                  20748940.6724                                   20748937.7464
                                                                        52.5004
        40.7504
  -5924600.81648  -4571901.49645
                  21798097.0004                                   21798093.2894
                                                                        48.7504
        33.0004
 -16343103.16047 -12669760.23845
                  22644367.4774                                   22644364.2584
                                                                        46.2504
        30.7504
 -14226769.96948 -11021282.28946
                  22020440.4774                                   22020436.9574
                                                                        49.0004
        37.7504
  -6134586.46146  -4743127.03943
                  23734545.1334                                   23734539.8714
                                                                        41.2504
        21.0004
  -6713280.62947  -5201654.50444
                  23524412.7974                                   23524409.1524
                                                                        43.0004
        28.7504
 09 10 25  0 15  0.0000000  0  9G02G04G05G10G13G25G29G16G07
  -4552316.27748  -3508463.94946
                  21217569.5944                                   21217564.4804
                                                                        51.0004
        40.5004
   4047572.51647   3159316.53544
                  23991982.3444                                   23991979.7894
                                                                        43.5004
        25.0004
 -20196140.57848 -15655936.66046
                  21331526.2034                                   21331522.9844
                                                                        51.2504
        41.5004
 -18517489.67248 -14357479.58646
                  20723537.5164                                   20723534.8874
                                                                        52.0004
        41.0004
  -5951162.68748  -4592598.81245
                  21793042.0474                                   21793038.3364
                                                                        49.0004
        33.0004
 -16458703.85947 -12759839.74245
                  22622370.2034                                   22622367.0554
                                                                        46.5004
        31.0004
 -14321014.56248 -11094719.69546
                  22002506.0634                                   22002502.7384
                                                                        49.0004
        38.0004
  -6255180.03546  -4837096.05143
                  23711597.1484                                   23711592.8874
                                                                        41.2504
        22.0004
  -6880987.73847  -5332335.46944
                  23492499.4694                                   23492495.8914
                                                                        44.5004
        28.0004
 09 10 25  0 15 30.0000000  0  9G02G04G05G10G13G25G29G16G07
  -4572234.28148  -3523984.16046
                  21213779.0164                                   21213773.7304
                                                                        51.5004
        40.2504
   4074141.31347   3180019.58243
                  23997037.6174                                   23997035.4414
                                                                        42.5004
        22.5004
 -20348898.68448 -15774968.03946
                  21302456.7114                                   21302453.4304
                                                                        51.5004
        41.5004
 -18650427.50848 -14461066.66046
                  20698239.8134                                   20698236.7234
                                                                        52.0004
        41.5004
  -5977154.47348  -4612852.00445
                  21788096.3204                                   21788092.3244
                                                                        49.0004
        32.7504
 -16573711.29747 -12849455.31645
                  22600484.3834                                   22600481.0204
                                                                        46.5004
        30.7504
 -14414623.12148 -11167661.56246
                  21984693.3754                                   21984690.2464
                                                                        49.0004
        38.5004
  -6375168.63746  -4930593.59043
                  23688764.0784                                   23688759.3094
                                                                        40.5004
        22.0004
  -7048266.71547  -5462683.03144
                  23460667.5314                                   23460663.9454
                                                                        44.5004
        28.5004
 09 10 25  0 16  0.0000000  0  9G02G04G05G10G13G25G29G16G07
  -4591640.90648  -3539106.06646
                  21210086.0784                                   21210080.7934
                                                                        51.5004
        41.0004
   4100877.50847   3200853.07844
                  24002125.3594                                   24002122.7114
                                                                        42.2504
        24.7504
 -20501198.62548 -15893643.37146
                  21273474.8134                                   21273471.3014
                                                                        52.0004
        41.7504
 -18782811.17648 -14564222.40246
                  20673047.5084                                   20673044.2934
                                                                        52.2504
        41.5004
  -6002579.72348  -4632664.28945
                  21783257.7584                                   21783254.3204
                                                                        49.0004
        33.0004
 -16688128.18047 -12938610.83245
                  22578711.2194                                   22578707.9964
                                                                        46.5004
        31.0004
 -14507595.30148 -11240107.52046
                  21967001.2344                                   21966998.3364
                                                                        49.2504
        37.7504
  -6494551.19547  -5023618.91043
                  23666046.2894                                   23666041.7274
                                                                        42.0004
        22.2504
  -7215115.81247  -5589231.43755
                  23428918.0394                                   23428912.9304
                                                                        43.7504
        30.0004
 09 10 25  0 16 30.0000000  0  9G02G04G05G10G13G25G29G16G07
  -4610538.37548  -3553831.15646
                  21206489.7504                                   21206484.4454
                                                                        51.0004
        40.2504
   4127777.89147   3221814.48044
                  24007244.4924                                   24007242.1414
                                                                        42.5004
        25.7504
 -20653037.84848 -16011959.93446
                  21244581.1564                                   21244577.8444
                                                                        51.7504
        40.7504
 -18914640.94548 -14666947.29346
                  20647961.7814                                   20647958.5984
                                                                        52.0004
        41.5004
  -6027440.07848  -4652036.35245
                  21778527.9224                                   21778523.8164
                                                                        48.5004
        32.7504
 -16801954.43447 -13027306.16845
                  22557050.4534                                   22557047.1054
                                                                        46.2504
        30.0004
 -14599931.21148 -11312057.60946
                  21949430.4064                                   21949426.8444
                                                                        49.5004
        37.7504
  -6613327.50046  -5116171.82044
                  23643443.6094                                   23643439.4774
                                                                        41.7504
        24.0004
  -7381530.67247  -5718041.57054
                  23397250.3364                                   23397247.4884
                                                                        42.5004
        29.0004
 09 10 25  0 17  0.0000000  0  9G02G04G05G10G13G25G29G16G07
  -4628928.02348  -3568160.71946
                  21202990.4064                                   21202984.9534
                                                                        51.2504
        40.2504
   4154841.10547   3242902.65244
                  24012394.9064                                   24012393.0164
                                                                        43.0004
        27.7504
 -20804413.37948 -16129914.72346
                  21215775.3674                                   21215771.6134
                                                                        51.0004
        41.0004
 -19045912.40248 -14769236.76246
                  20622981.7974                                   20622978.8324
                                                                        52.0004
        41.5004
  -6051736.91448  -4670969.11345
                  21773904.2034                                   21773900.4774
                                                                        48.5004
        32.7504
 -16915189.13747 -13115541.05944
                  22535502.2504                                   22535499.1374
                                                                        46.5004
        29.7504
 -14691630.21148 -11383511.31646
                  21931980.9844                                   21931977.5354
                                                                        49.7504
        38.5004
  -6731495.57447  -5208250.76243
                  23620956.5004                                   23620952.7934
                                                                        42.0004
        22.5004
  -7547505.87947  -5847371.39544
                  23365664.8674                                   23365662.2814
                                                                        43.7504
        28.2504
 09 10 25  0 17 30.0000000  0  9G02G04G05G10G13G25G29G16G07
  -4646813.56248  -3582097.79746
                  21199587.2504                                   21199581.4804
                                                                        51.0004
        40.2504
   4182063.94547   3264115.18444
                  24017574.8524                                   24017573.0864
                                                                        42.5004
        28.0004
 -20955328.15648 -16247511.71946
                  21187058.1174                                   21187054.5744
                                                                        51.7504
        40.5004
 -19176628.87948 -14871094.95746
                  20598107.8984                                   20598105.3324
                                                                        52.5004
        40.5004
  -6075473.85948  -4689465.42645
                  21769387.2664                                   21769383.5164
                                                                        48.5004
        33.5004
 -17027832.05547 -13203315.11745
                  22514067.7814                                   22514064.1764
                                                                        46.7504
        30.2504
 -14782693.67248 -11454469.94546
                  21914651.7584                                   21914648.5824
                                                                        49.5004
        38.2504
  -6849055.26646  -5299855.70343
                  23598586.2504                                   23598581.2304
                                                                        41.0004
        22.7504
  -7713044.91447  -5976362.40645
                  23334163.4534                                   23334160.1484
                                                                        43.0004
        30.2504
 09 10 25  0 18  0.0000000  0  9G02G04G05G10G13G25G29G16G07
  -4664197.69148  -3595645.41046
                  21196280.4844                                   21196275.6644
                                                                        51.5004
        39.7504
   4209444.84047   3285450.98044
                  24022784.8754                                   24022782.9924
                                                                        42.0004
        25.5004
 -21105774.31648 -16364741.60246
                  21158428.5704                                   21158424.8554
                                                                        52.0004
        41.7504
 -19306782.95748 -14972512.59846
                  20573339.6724                                   20573336.4144
                                                                        53.0004
        41.0004
  -6098652.85948  -4707526.84045
                  21764975.9924                                   21764972.6294
                                                                        48.0004
        32.5004
 -17139880.83247 -13290625.79745
                  22492745.2814                                   22492742.0944
                                                                        45.5004
        30.7504
 -14873120.98048 -11524932.98446
                  21897444.4224                                   21897441.0084
                                                                        49.7504
        38.2504
  -6966005.60546  -5390985.82044
                  23576331.2424                                   23576326.3364
                                                                        41.7504
        24.2504
  -7878143.63747  -6105010.62144
                  23302746.6094                                   23302742.6764
                                                                        43.2504
        29.7504
 09 10 25  0 18 30.0000000  0  9G02G04G05G10G13G25G29G16G07
  -4681075.78948  -3608796.63746
                  21193067.8054                                   21193062.6644
                                                                        51.2504
        40.0004
   4236982.20746   3306908.71944
                  24028025.2814                                   24028023.4454
                                                                        40.0004
        25.7504
 -21255754.22348 -16481608.62146
                  21129887.8284                                   21129884.0314
                                                                        50.5004
        41.7504
 -19436377.64148 -15073495.07846
                  20548678.4224                                   20548675.2344
                                                                        52.0004
        40.7504
  -6121276.28148  -4725155.51245
                  21760670.6644                                   21760667.5274
                                                                        48.2504
        32.2504
 -17251334.20747 -13377472.30944
                  22471536.4614                                   22471532.8794
                                                                        46.0004
        29.5004
 -14962911.09048 -11594899.39846
                  21880357.9144                                   21880354.6604
                                                                        49.5004
        38.5004
  -7082344.29347  -5481639.29344
                  23554192.4844                                   23554188.1844
                                                                        42.0004
        25.0004
  -8042798.87147  -6233313.39544
                  23271413.1804                                   23271409.8754
                                                                        42.7504
        29.0004
 09 10 25  0 19  0.0000000  0  9G02G04G05G10G13G25G29G16G07
  -4697453.69948  -3621558.56646
                  21189951.5084                                   21189946.0394
                                                                        51.5004
        40.2504
   4264673.66446   3328486.28944
                  24033295.1804                                   24033292.5824
                                                                        41.2504
        26.0004
 -21405265.07848 -16598110.25046
                  21101436.5474                                   21101432.7974
                                                                        51.2504
        41.7504
 -19565411.09448 -15174040.39546
                  20524123.8754                                   20524120.3874
                                                                        52.2504
        41.0004
  -6143346.37148  -4742353.32045
                  21756471.5314                                   21756467.8674
                                                                        48.0004
        32.2504
 -17362191.18047 -13463853.90245
                  22450440.6484                                   22450436.8634
                                                                        46.0004
        30.7504
 -15052063.60948 -11664368.98046
                  21863392.2894                                   21863389.8444
                                                                        49.5004
        38.0004
  -7198070.57047  -5571815.55144
                  23532170.7344                                   23532166.5944
                                                                        42.2504
        25.0004
  -8207006.75447  -6361267.30544
                  23240165.4384                                   23240161.8984
                                                                        43.5004
        28.0004
 09 10 25  0 19 30.0000000  0  9G02G04G05G10G13G25G29G16G07
  -4713330.72348  -3633930.12146
                  21186929.7584                                   21186924.1914
                                                                        50.5004
        40.5004
   4292519.26246   3350184.02743
                  24038593.8524                                   24038591.3524
                                                                        41.5004
        23.5004
 -21554304.96548 -16714245.33646
                  21073075.2194                                   21073071.8164
                                                                        51.5004
        41.5004
 -19693881.15648 -15274147.00446
                  20499676.9064                                   20499673.5904
                                                                        52.0004
        41.2504
  -6164862.96948  -4759119.66445
                  21752377.0164                                   21752373.4614
                                                                        48.5004
        31.7504
 -17472450.09047 -13549769.80145
                  22429459.0084                                   22429455.5124
                                                                        46.0004
        30.7504
 -15140577.25448 -11733340.84446
                  21846549.2664                                   21846545.8874
                                                                        49.2504
        38.5004
  -7313181.12546  -5661511.98044
                  23510265.6174                                   23510261.8324
                                                                        41.0004
        25.2504
  -8370763.85947  -6488870.27345
                  23209003.7974                                   23209000.3244
                                                                        43.7504
        30.0004
 09 10 25  0 20  0.0000000  0  9G02G04G05G10G13G25G29G16G07
  -4728711.28148  -3645914.71546
                  21184003.2194                                   21183997.4844
                                                                        50.7504
        40.5004
   4320514.49647   3371998.33643
                  24043921.0004                                   24043919.0944
                                                                        42.0004
        23.7504
 -21702872.91448 -16830012.44147
                  21044803.1254                                   21044799.9734
                                                                        51.0004
        42.0004
 -19821787.52748 -15373814.19546
                  20475337.1954                                   20475333.8984
                                                                        51.5004
        41.2504
  -6185832.68748  -4775460.88345
                  21748387.8524                                   21748384.2344
                                                                        48.5004
        32.5004
 -17582112.09847 -13635220.75445
                  22408591.0394                                   22408587.4454
                                                                        45.7504
        30.0004
 -15228452.89548 -11801815.19146
                  21829826.9694                                   21829824.2344
                                                                        48.5004
        38.0004
  -7427677.28547  -5750729.73443
                  23488477.5864                                   23488473.7034
                                                                        42.2504
        23.2504
  -8534068.50447  -6616120.26244
                  23177927.7274                                   23177924.1484
                                                                        43.5004
        29.5004
 09 10 25  0 20 30.0000000  0  9G02G04G05G10G13G25G29G16G07
  -3168179.29748  -2429915.60946
                  21480962.0554                                   21480956.6684
                                                                        51.0004
        40.0004
   5924074.51647   4621525.63344
                  24349069.3054                                   24349066.5744
                                                                        42.7504
        25.2504
 -20275546.52048 -15717810.26646
                  21316414.8674                                   21316411.6524
                                                                        51.2504
        41.7504
 -18373708.70748 -14245441.00046
                  20750897.2424                                   20750893.6684
                                                                        52.2504
        41.2504
  -4630834.25048  -3563772.77745
                  22044293.5864                                   22044290.0354
                                                                        48.2504
        32.2504
 -16115755.61347 -12492605.66445
                  22687629.8594                                   22687625.8714
                                                                        46.0004
        31.0004
 -13740270.53148 -10642192.03546
                  22113018.2034                                   22113015.1884
                                                                        49.2504
        38.0004
  -5966137.26647  -4611867.34044
                  23766599.6174                                   23766595.5824
                                                                        42.7504
        25.2504
  -7121496.40647  -5515414.67644
                  23446731.0394                                   23446726.9884
                                                                        45.0004
        29.7504
 09 10 25  0 21  0.0000000  0  9G02G04G05G10G13G25G29G16G07
  -3182575.97748  -2441133.52046
                  21478222.2424                                   21478216.5274
                                                                        51.2504
        40.0004
   5952358.64847   4643564.73044
                  24354451.7344                                   24354449.2934
                                                                        43.7504
        27.0004
 -20423172.14148 -15832843.34846
                  21288322.8204                                   21288319.3674
                                                                        50.7504
        41.7504
 -18500490.99648 -14344232.59846
                  20726771.5634                                   20726768.4494
                                                                        52.0004
        41.0004
  -4650715.46948  -3579264.57845
                  22040510.1254                                   22040506.5164
                                                                        48.0004
        31.7504
 -16224224.82047 -12577127.17645
                  22666988.7894                                   22666985.7234
                                                                        45.7504
        31.5004
 -13826876.10248 -10709676.80146
                  22096537.6484                                   22096534.9224
                                                                        49.0004
        38.2504
  -6079405.73447  -4700128.45344
                  23745045.3984                                   23745041.9384
                                                                        42.2504
        26.0004
  -7283894.75847  -5641958.99644
                  23415828.2274                                   23415824.0124
                                                                        44.0004
        29.5004
 09 10 25  0 21 30.0000000  0  9G02G04G05G10G13G25G29G16G07
  -3196483.05948  -2451970.10246
                  21475575.7114                                   21475570.2854
                                                                        50.2504
        39.5004
   5980785.96947   4665715.58644
                  24359861.5634                                   24359859.4694
                                                                        44.5004
        25.7504
 -20570322.66048 -15947506.01646
                  21260321.1724                                   21260317.3914
                                                                        51.2504
        41.7504
 -18626707.66448 -14442583.30146
                  20702753.5084                                   20702749.8674
                                                                        52.2504
        40.7504
  -4670056.23848  -3594335.47745
                  22036829.7664                                   22036826.5204
                                                                        48.7504
        32.2504
 -16332095.23447 -12661182.09845
                  22646461.7664                                   22646458.5474
                                                                        45.7504
        31.7504
 -13912844.77048 -10776665.11346
                  22080178.4304                                   22080175.2034
                                                                        49.0004
        38.5004
  -6192057.50446  -4787908.96944
                  23723608.2814                                   23723604.1334
                                                                        41.5004
        24.5004
  -7445834.35247  -5768145.77744
                  23385011.7664                                   23385007.6844
                                                                        43.7504
        29.2504
 09 10 25  0 22  0.0000000  0  9G02G04G05G10G13G25G29G16G07
  -3209901.84048  -2462426.29746
                  21473022.2344                                   21473016.6174
                                                                        50.5004
        39.5004
   6009354.45747   4687976.58644
                  24365297.1564                                   24365295.9024
                                                                        43.2504
        25.7504
 -20716996.26648 -16061796.95346
                  21232409.9694                                   21232406.0704
                                                                        51.0004
        41.7504
 -18752357.66848 -14540492.29746
                  20678842.8444                                   20678839.8524
                                                                        52.0004
        41.0004
  -4688859.55147  -3608988.07445
                  22033252.3674                                   22033248.6524
                                                                        47.5004
        32.2504
 -16439365.70747 -12744769.40245
                  22626049.0474                                   22626045.3554
                                                                        45.2504
        31.7504
 -13998177.38348 -10843158.10546
                  22063940.1174                                   22063936.9494
                                                                        50.0004
        38.5004
  -6304091.84847  -4875208.39144
                  23702289.2274                                   23702284.8984
                                                                        42.5004
        26.2504
  -7607312.22747  -5893972.57444
                  23354283.3984                                   23354279.6174
                                                                        43.5004
        29.7504
 09 10 25  0 22 30.0000000  0  9G02G04G05G10G13G25G29G16G07
  -3222835.71948  -2472504.55146
                  21470560.6254                                   21470555.2504
                                                                        50.2504
        39.7504
   6038060.23047   4710344.55543
                  24370759.7734                                   24370758.8244
                                                                        42.0004
        23.0004
 -20863194.03948 -16175717.31247
                  21204589.4304                                   21204585.7194
                                                                        51.0004
        42.0004
 -18877442.57448 -14637961.21546
                  20655040.4534                                   20655037.1484
                                                                        51.7504
        41.2504
  -4707126.28147  -3623221.59045
                  22029775.9304                                   22029772.6484
                                                                        47.5004
        31.5004
 -16546037.75447 -12827890.59045
                  22605749.8594                                   22605746.6294
                                                                        45.2504
        31.5004
 -14082875.85948 -10909157.38346
                  22047822.8594                                   22047819.9574
                                                                        49.2504
        39.0004
  -6415509.14147  -4962027.01244
                  23681086.8674                                   23681082.6454
                                                                        42.0004
        26.2504
  -7768327.62546  -6019438.92244
                  23323642.5864                                   23323639.0084
                                                                        41.2504
        28.2504
 09 10 25  0 23  0.0000000  0  9G02G04G05G10G13G25G29G16G07
  -3235281.89848  -2482202.80146
                  21468192.5634                                   21468187.0044
                                                                        50.7504
        39.2504
   6066906.28146   4732822.08243
                  24376248.9694                                   24376247.5004
                                                                        39.2504
        22.0004
 -21008908.59048 -16289260.71946
                  21176860.3754                                   21176856.6884
                                                                        51.0004
        41.7504
 -19001955.24648 -14734983.64546
                  20631345.8204                                   20631342.6804
                                                                        52.0004
        41.0004
  -4724855.48047  -3637035.90245
                  22026401.3134                                   22026398.4574
                                                                        47.7504
        32.0004
 -16652106.70747 -12910542.33645
                  22585566.2734                                   22585563.0824
                                                                        45.2504
        30.5004
 -14166934.20748 -10974657.56246
                  22031827.2664                                   22031824.5434
                                                                        49.2504
        38.5004
  -6526304.10947  -5048360.71544
                  23660003.1334                                   23659999.1454
                                                                        42.0004
        25.5004
  -7928873.69547  -6144539.78144
                  23293091.8674                                   23293088.3954
                                                                        43.7504
        29.2504
 09 10 25  0 23 30.0000000  0  9G02G04G05G10G13G25G29G16G07
  -3247244.96548  -2491524.68446
                  21465916.5004                                   21465910.7774
                                                                        50.7504
        39.7504
   6095886.75447   4755403.95743
                  24381764.4614                                   24381762.5044
                                                                        42.2504
        22.5004
 -21154142.52348 -16402429.93747
                  21149223.2734                                   21149219.8134
                                                                        51.2504
        42.0004
 -19125899.02048 -14831563.08646
                  20607760.0474                                   20607756.9104
                                                                        51.7504
        41.5004
  -4742053.16447  -3650436.19145
                  22023128.7274                                   22023125.0394
                                                                        47.7504
        31.7504
 -16757572.17647 -12992723.26245
                  22565496.7504                                   22565493.5944
                                                                        45.5004
        31.0004
 -14250355.21148 -11039660.98446
                  22015952.6024                                   22015949.3164
                                                                        49.0004
        38.2504
  -6636477.92647  -5134210.41844
                  23639037.9304                                   23639033.9224
                                                                        43.0004
        26.0004
  -8088949.92247  -6269274.38744
                  23262630.2504                                   23262626.5124
                                                                        45.0004
        29.5004
 09 10 25  0 24  0.0000000  0  9G02G04G05G10G13G25G29G16G07
  -3258724.15648  -2500469.50846
                  21463732.0164                                   21463726.1524
                                                                        50.5004
        40.0004
   6125003.64147   4778092.55144
                  24387305.7734                                   24387303.0004
                                                                        43.7504
        26.0004
 -21298891.02348 -16515220.87947
                  21121678.5084                                   21121674.9414
                                                                        50.7504
        42.0004
 -19249269.83648 -14927696.16846
                  20584283.2814                                   20584280.1334
                                                                        51.7504
        41.7504
  -4758719.46947  -3663422.71945
                  22019957.1174                                   22019953.8634
                                                                        47.0004
        31.0004
 -16862431.82847 -13074432.05145
                  22545542.5864                                   22545539.5204
                                                                        44.0004
        31.7504
 -14333136.94548 -11104166.34446
                  22000199.9454                                   22000196.3984
                                                                        48.5004
        38.5004
  -6746027.44147  -5219573.66844
                  23618191.9304                                   23618187.1024
                                                                        42.5004
        25.7504
  -8248551.50847  -6393639.16045
                  23232259.5704                                   23232255.3054
                                                                        43.0004
        30.0004
 09 10 25  0 24 30.0000000  0  9G02G04G05G10G13G25G29G16G07
  -3269728.89148  -2509044.62946
                  21461637.6024                                   21461632.2424
                                                                        50.5004
        39.5004
   6154246.53947   4800879.29744
                  24392870.2194                                   24392868.0944
                                                                        44.0004
        24.5004
 -21443161.15248 -16627639.30147
                  21094225.1414                                   21094221.2464
                                                                        51.0004
        42.5004
 -19372074.31648 -15023387.87947
                  20560914.5164                                   20560911.1054
                                                                        52.2504
        42.0004
  -4774864.18747  -3676003.00045
                  22016884.9144                                   22016880.6294
                                                                        47.5004
        31.2504
 -16966691.98847 -13155673.23445
                  22525701.8754                                   22525699.0044
                                                                        44.5004
        31.0004
 -14415286.87148 -11168179.34446
                  21984567.4774                                   21984564.4384
                                                                        49.5004
        37.5004
  -6854959.57847  -5304455.84044
                  23597462.0554                                   23597458.0944
                                                                        42.7504
        24.7504
  -8407683.29347  -6517637.85545
                  23201977.8364                                   23201974.2624
                                                                        44.7504
        31.2504
 09 10 25  0 25  0.0000000  0  9G02G04G05G10G13G25G29G16G07
  -3280256.55948  -2517247.88346
                  21459634.2814                                   21459628.2504
                                                                        50.2504
        39.7504
   6183618.39546   4823766.70744
                  24398458.6484                                   24398456.8594
                                                                        41.7504
        24.0004
 -21586945.19948 -16739678.49646
                  21066863.4064                                   21066859.7624
                                                                        50.0004
        41.7504
 -19494306.98448 -15118634.00846
                  20537653.9384                                   20537650.9144
                                                                        52.0004
        41.5004
  -4790484.78948  -3688174.84445
                  22013912.4614                                   22013908.7974
                                                                        48.0004
        31.7504
 -17070348.92247 -13236444.68445
                  22505976.6174                                   22505973.5084
                                                                        45.0004
        31.5004
 -14496800.47747 -11231696.36746
                  21969055.6804                                   21969052.6804
                                                                        47.5004
        38.0004
  -6963268.59047  -5388852.46944
                  23576851.7034                                   23576847.5204
                                                                        43.2504
        25.2504
  -8566338.23847  -6641265.04345
                  23171786.6024                                   23171782.7114
                                                                        44.5004
        30.0004
 09 10 25  0 25 30.0000000  0  9G02G04G05G10G13G25G29G16G07
  -3290309.87148  -2525081.73046
                  21457721.2114                                   21457715.6684
                                                                        50.0004
        38.7504
   6213116.22746   4846752.09843
                  24404071.7814                                   24404070.6564
                                                                        39.5004
        22.2504
 -21730243.80148 -16851339.70747
                  21039594.6334                                   21039591.2194
                                                                        51.0004
        42.0004
 -19615967.12548 -15213434.02746
                  20514502.8674                                   20514499.4574
                                                                        52.0004
        41.5004
  -4805584.61747  -3699941.24645
                  22011039.2974                                   22011035.3834
                                                                        47.0004
        31.2504
 -17173401.67647 -13316745.34445
                  22486366.5634                                   22486363.0514
                                                                        45.0004
        31.7504
 -14577677.99247 -11294717.67646
                  21953665.0314                                   21953661.8444
                                                                        47.5004
        38.2504
  -7070953.75446  -5472762.98444
                  23556360.0234                                   23556355.5274
                                                                        41.2504
        24.0004
  -8724513.98847  -6764518.73844
                  23141686.4774                                   23141682.3594
                                                                        44.5004
        29.7504
 09 10 25  0 26  0.0000000  0  9G02G04G05G10G13G25G29G16G07
  -3299889.92248  -2532546.98446
                  21455898.1174                                   21455892.9654
                                                                        50.0004
        39.2504
   6242738.85246   4869834.62943
                  24409708.5634                                   24409707.3444
                                                                        40.0004
        22.0004
 -21873054.47348 -16962620.78946
                  21012418.6484                                   21012415.0204
                                                                        50.7504
        41.7504
 -19737053.30948 -15307786.89546
                  20491461.1024                                   20491457.5554
                                                                        51.5004
        41.0004
  -4820165.39847  -3711303.50045
                  22008265.0554                                   22008261.0274
                                                                        46.5004
        30.7504
 -17275849.50447 -13396574.79345
                  22466871.2664                                   22466867.6374
                                                                        44.2504
        31.0004
 -14657919.28948 -11357243.31646
                  21938395.6334                                   21938393.0864
                                                                        48.7504
        38.0004
  -7178014.10246  -5556186.64144
                  23535986.9694                                   23535982.2384
                                                                        41.5004
        24.5004
  -8882207.83247  -6887397.00444
                  23111678.6484                                   23111674.2624
                                                                        44.0004
        29.7504
 09 10 25  0 26 30.0000000  0  9G02G04G05G10G13G25G29G16G07
  -3308998.14848  -2539644.34446
                  21454165.1174                                   21454159.2704
                                                                        50.0004
        39.2504
   6272483.89547   4893012.51244
                  24415369.8284                                   24415368.0314
                                                                        42.7504
        24.0004
 -22015375.83248 -17073520.58647
                  20985335.9384                                   20985331.9384
                                                                        51.5004
        42.2504
 -19857565.25448 -15401692.51246
                  20468528.4694                                   20468525.0864
                                                                        53.0004
        41.2504
  -4834229.18447  -3722262.95345
                  22005589.2194                                   22005585.8244
                                                                        46.5004
        31.0004
 -17377692.01647 -13475932.81645
                  22447491.0164                                   22447487.7154
                                                                        45.2504
        32.2504
 -14737524.82848 -11419273.48046
                  21923246.9064                                   21923244.0314
                                                                        49.7504
        38.5004
  -7284448.73447  -5639122.69544
                  23515732.5234                                   23515728.3984
                                                                        42.2504
        24.7504
  -9039417.02347  -7009897.66845
                  23081762.4844                                   23081758.4224
                                                                        44.5004
        31.0004
 09 10 25  0 27  0.0000000  0  9G02G04G05G10G13G25G29G16G07
  -3317636.26248  -2546375.31646
                  21452520.9304                                   21452515.6914
                                                                        50.2504
        39.7504
   6302350.31647   4916285.03144
                  24421053.2894                                   24421051.0234
                                                                        45.2504
        24.5004
 -22157206.32448 -17184038.17647
                  20958346.5864                                   20958343.0274
                                                                        51.2504
        42.0004
 -19977501.54348 -15495149.78146
                  20445705.6484                                   20445702.3674
                                                                        52.7504
        41.0004
  -4847776.62947  -3732819.52745
                  22003010.9304                                   22003007.4264
                                                                        46.2504
        31.5004
 -17478928.44947 -13554819.01645
                  22428226.7894                                   22428223.9304
                                                                        45.2504
        31.5004
 -14816494.28948 -11480808.10946
                  21908219.7504                                   21908216.2154
                                                                        48.7504
        38.5004
  -7390256.25847  -5721570.07443
                  23495598.2664                                   23495593.8134
                                                                        42.2504
        22.5004
  -9196138.64147  -7132018.46944
                  23051939.1414                                   23051935.2234
                                                                        43.7504
        29.5004
 09 10 25  0 27 30.0000000  0  9G02G04G05G10G13G25G29G16G07
  -3325807.11348  -2552742.14546
                  21450966.2504                                   21450960.8594
                                                                        49.7504
        39.5004
   6332335.25047   4939649.89543
                  24426759.2194                                   24426757.2734
                                                                        43.5004
        22.5004
 -22298544.85948 -17294172.44546
                  20931450.8444                                   20931447.4534
                                                                        52.0004
        41.7504
 -20096861.93748 -15588158.21546
                  20422992.2664                                   20422988.9414
                                                                        52.2504
        41.2504
  -4860811.39847  -3742976.18045
                  22000530.4224                                   22000527.1804
                                                                        46.7504
        31.0004
 -17579557.50847 -13633231.55945
                  22409078.1644                                   22409074.8204
                                                                        45.0004
        31.5004
 -14894828.54748 -11541847.79746
                  21893313.4454                                   21893310.3364
                                                                        49.2504
        38.5004
  -7495436.84446  -5803528.98443
                  23475582.8754                                   23475578.7034
                                                                        41.5004
        22.5004
  -9352371.23047  -7253758.24644
                  23022208.8204                                   23022205.1214
                                                                        44.5004
        29.2504
 09 10 25  0 28  0.0000000  0  9G02G04G05G10G13G25G29G16G07
  -3333513.03148  -2558746.63746
                  21449499.7274                                   21449494.6764
                                                                        50.0004
        39.0004
   6362436.18847   4963105.16043
                  24432487.1484                                   24432485.3364
                                                                        42.0004
        21.5004
 -22439391.31248 -17403923.69547
                  20904649.2194                                   20904647.0594
                                                                        51.7504
        42.2504
 -20215646.30548 -15680718.02346
                  20400389.0944                                   20400385.6054
                                                                        52.0004
        41.2504
  -4873337.57847  -3752736.74245
                  21998146.9144                                   21998143.6764
                                                                        46.2504
        31.0004
 -17679578.87147 -13711170.17645
                  22390045.0004                                   22390041.5274
                                                                        45.2504
        31.5004
 -14972527.75848 -11602392.57046
                  21878527.4304                                   21878523.7464
                                                                        49.2504
        37.7504
  -7599990.16046  -5884999.11344
                  23455687.0864                                   23455683.0824
                                                                        41.2504
        24.2504
  -9508112.50847  -7375115.20744
                  22992572.5944                                   22992568.8554
                                                                        43.5004
        29.2504
 09 10 25  0 28 30.0000000  0  9G02G04G05G10G13G25G29G16G07
  -3340755.85548  -2564390.50846
                  21448121.5314                                   21448116.4844
                                                                        49.2504
        39.0004
   6392652.03546   4986650.05543
                  24438235.9614                                   24438234.5864
                                                                        38.5004
        19.5004
 -22579740.58648 -17513286.60946
                  20877941.9064                                   20877938.5664
                                                                        51.5004
        41.7504
 -20333851.39548 -15772825.95346
                  20377895.1724                                   20377891.8284
                                                                        52.5004
        41.2504
  -4885357.19947  -3762102.93445
                  21995859.7504                                   21995856.5784
                                                                        46.5004
        31.5004
 -17778992.72747 -13788635.68745
                  22371126.7584                                   22371123.9144
                                                                        45.0004
        32.0004
 -15049592.06648 -11662442.65646
                  21863862.7034                                   21863859.5474
                                                                        49.0004
        37.5004
  -7703914.82047  -5965979.39143
                  23435910.7664                                   23435906.4024
                                                                        42.2504
        23.2504
  -9663358.41847  -7496086.03145
                  22963030.7114                                   22963026.8524
                                                                        44.5004
        31.2504
 09 10 25  0 29  0.0000000  0  9G02G04G05G10G13G25G29G16G07
  -3347534.77048  -2569672.78146
                  21446831.9064                                   21446826.6294
                                                                        50.0004
        39.0004
   6422982.83646   5010284.50843
                  24444007.6414                                   24444006.8754
                                                                        37.7504
        19.5004
 -22719592.89848 -17622262.75047
                  20851329.0164                                   20851325.9344
                                                                        51.2504
        42.2504
 -20451475.14548 -15864480.61746
                  20355511.8524                                   20355508.8324
                                                                        52.0004
        41.5004
  -4896870.19947  -3771074.41845
                  21993668.9924                                   21993665.9494
                                                                        46.2504
        31.7504
 -17877796.15647 -13865625.46945
                  22352325.2584                                   22352322.3164
                                                                        44.7504
        30.7504
 -15126019.68048 -11721996.57846
                  21849318.8364                                   21849316.0744
                                                                        49.2504
        38.2504
  -7807208.18447  -6046467.74643
                  23416254.8914                                   23416251.0274
                                                                        42.0004
        23.0004
  -9818105.80147  -7616668.71145
                  22933583.2504                                   22933579.6374
                                                                        45.0004
        30.7504
 09 10 25  0 29 30.0000000  0  9G02G04G05G10G13G25G29G16G07
  -1778434.30948  -1346997.05546
                  21745421.2894                                   21745415.8244
                                                                        49.5004
        38.2504
   8028842.88746   6261604.00844
                  24749593.3284                                   24749591.9694
                                                                        41.5004
        25.2504
 -21283523.61748 -16503248.16847
                  21124604.2814                                   21124600.8204
                                                                        51.5004
        42.5004
 -18993098.27348 -14728083.78946
                  20633032.7584                                   20633029.1254
                                                                        52.7504
        41.5004
  -3332459.98847  -2552053.27045
                  22291366.5704                                   22291363.1844
                                                                        46.2504
        30.0004
 -16400568.96547 -12713520.12155
                  22633433.1644                                   22633429.7624
                                                                        45.7504
        32.2504
 -13626390.62148 -10553454.38346
                  22134688.9844                                   22134685.9344
                                                                        48.7504
        38.0004
  -6334449.01247  -4898863.19544
                  23696511.6804                                   23696507.4224
                                                                        42.2504
        24.5004
  -8396928.26647  -6509257.69145
                  23204024.5554                                   23204021.3984
                                                                        44.2504
        30.2504
 09 10 25  0 30  0.0000000  0  9G02G04G05G10G13G25G29G16G07
  -1784296.94948  -1351565.33646
                  21744305.5704                                   21744300.1134
                                                                        49.2504
        38.7504
   8059392.28947   6285408.70744
                  24755407.0084                                   24755405.4804
                                                                        43.0004
        26.2504
 -21422379.08248 -16611447.05147
                  21098181.0394                                   21098177.1094
                                                                        52.0004
        42.2504
 -19109562.32848 -14818226.93756
                  20610870.1484                                   20610867.3554
                                                                        52.5004
        41.5004
  -3342969.24647  -2560241.43445
                  22289365.9144                                   22289362.3244
                                                                        46.0004
        31.2504
 -16498153.64547 -12789559.68745
                  22614863.1484                                   22614860.3204
                                                                        45.7504
        31.0004
 -13701550.27348 -10612020.30946
                  22120386.3444                                   22120383.6524
                                                                        50.0004
        38.5004
  -6436482.32847  -4978369.68744
                  23677095.4064                                   23677090.8714
                                                                        43.2504
        25.5004
  -8550674.03547  -6629059.45345
                  23174767.3284                                   23174763.7464
                                                                        42.5004
        31.2504
 09 10 25  0 30 30.0000000  0  9G02G04G05G10G13G25G29G16G07
  -1789703.95748  -1355778.66046
                  21743277.1644                                   21743271.4534
                                                                        49.2504
        39.2504
   8090048.02747   6309296.06644
                  24761240.7974                                   24761239.1564
                                                                        43.2504
        26.0004
 -21560732.77048 -16719254.25847
                  21071852.2974                                   21071848.8204
                                                                        51.5004
        42.2504
 -19225444.43048 -14908523.78146
                  20588817.8754                                   20588814.5044
                                                                        52.5004
        41.2504
  -3352982.35547  -2568043.43045
                  22287460.6094                                   22287456.5204
                                                                        45.2504
        30.7504
 -16595129.25847 -12865125.03145
                  22596408.9144                                   22596405.9614
                                                                        45.5004
        31.2504
 -13776076.39848 -10670092.60546
                  22106204.6174                                   22106201.4104
                                                                        48.7504
        38.5004
  -6537884.69947  -5057384.52344
                  23657799.6954                                   23657794.9734
                                                                        42.5004
        25.0004
  -8703915.72747  -6748468.43045
                  23145606.4924                                   23145603.0084
                                                                        44.5004
        31.0004
 09 10 25  0 31  0.0000000  0  8G02G05G10G13G25G29G16G07
  -1794663.65648  -1359643.75846
                  21742333.9774                                   21742328.4774
                                                                        49.7504
        38.7504
 -21698591.75048 -16826676.61347
                  21045618.3444                                   21045614.8794
                                                                        51.7504
        42.5004
 -19340752.54748 -14998374.62546
                  20566875.6254                                   20566872.2624
                                                                        53.0004
        41.2504
  -3362506.81647  -2575465.06645
                  22285648.0704                                   22285644.1914
                                                                        45.5004
        30.2504
 -16691498.51247 -12940217.08245
                  22578069.8524                                   22578066.7854
                                                                        45.2504
        30.5004
 -13849974.43448 -10727675.50046
                  22092142.1254                                   22092139.1524
                                                                        49.5004
        38.0004
  -6638660.42647  -5135911.07844
                  23638622.7664                                   23638617.8594
                                                                        42.5004
        25.5004
  -8856656.56647  -6867487.49245
                  23116541.1484                                   23116537.6054
                                                                        43.5004
        31.5004
 09 10 25  0 31 30.0000000  0  8G02G05G10G13G25G29G16G07
  -1799171.35548  -1363156.77046
                  21741476.2424                                   21741470.8674
                                                                        49.5004
        38.7504
 -21835947.27348 -16933706.84046
                  21019480.4694                                   21019477.1684
                                                                        52.0004
        41.7504
 -19455476.27348 -15087769.49646
                  20545044.1644                                   20545041.3204
                                                                        52.5004
        41.5004
  -3371537.50047  -2582501.53544
                  22283928.5234                                   22283925.1054
                                                                        44.7504
        28.5004
 -16787258.12947 -13014834.91845
                  22559847.0864                                   22559844.3914
                                                                        45.5004
        30.7504
 -13923238.68448 -10784764.54346
                  22078200.3524                                   22078197.3444
                                                                        50.0004
        38.2504
  -6738802.94547  -5213944.19544
                  23619566.1644                                   23619561.8014
                                                                        42.5004
        24.5004
  -9008889.18047  -6986111.53545
                  23087572.9694                                   23087569.2384
                                                                        44.5004
        30.5004
 09 10 25  0 32  0.0000000  0  8G02G05G10G13G25G29G16G07
  -1803227.66048  -1366317.76246
                  21740704.4304                                   21740699.3874
                                                                        49.5004
        37.7504
 -21972796.81648 -17040342.53547
                  20993438.8284                                   20993434.7814
                                                                        52.2504
        42.5004
 -19569615.39848 -15176708.65647
                  20523324.1484                                   20523321.0084
                                                                        52.5004
        42.0004
  -3380077.02747  -2589155.26245
                  22282303.3284                                   22282299.8204
                                                                        45.2504
        30.2504
 -16882406.24647 -13088976.62945
                  22541741.8284                                   22541738.3444
                                                                        45.5004
        30.7504
 -13995868.88748 -10841359.48446
                  22064379.2664                                   22064376.3364
                                                                        49.5004
        38.2504
  -6838311.50846  -5291483.34443
                  23600629.9144                                   23600625.9264
                                                                        41.5004
        23.2504
  -9160606.07847  -7104332.22345
                  23058702.1564                                   23058698.3794
                                                                        44.0004
        30.0004
 09 10 25  0 32 30.0000000  0  8G02G05G10G13G25G29G16G07
  -1806832.71948  -1369127.22746
                  21740018.3984                                   21740013.3524
                                                                        49.0004
        39.0004
 -22109136.33648 -17146580.68447
                  20967493.8984                                   20967490.0634
                                                                        52.0004
        42.2504
 -19683165.82048 -15265188.97746
                  20501715.6174                                   20501712.2934
                                                                        52.7504
        41.2504
  -3388126.29747  -2595427.44145
                  22280771.5234                                   22280767.7154
                                                                        45.7504
        31.0004
 -16976936.02747 -13162635.07845
                  22523752.1414                                   22523748.7664
                                                                        46.0004
        30.5004
 -14067862.75848 -10897458.56246
                  22050679.4224                                   22050676.0514
                                                                        49.0004
        38.0004
  -6937182.31246  -5368525.54744
                  23581815.3834                                   23581811.3444
                                                                        41.7504
        24.5004
  -9311804.47747  -7222148.84845
                  23029929.7034                                   23029926.1174
                                                                        43.5004
        30.0004
 09 10 25  0 33  0.0000000  0  8G02G05G10G13G25G29G16G07
  -1809986.23048  -1371584.27046
                  21739418.4844                                   21739413.1454
                                                                        49.2504
        38.2504
 -22244965.19148 -17252421.53547
                  20941646.6024                                   20941642.9304
                                                                        51.7504
        42.2504
 -19796128.00448 -15353211.58646
                  20480219.6414                                   20480216.2034
                                                                        52.5004
        41.5004
  -3395685.66847  -2601317.77345
                  22279332.9384                                   22279329.2664
                                                                        45.2504
        30.0004
 -17070851.37147 -13235815.77745
                  22505881.0864                                   22505877.0744
                                                                        46.0004
        31.0004
 -14139220.03948 -10953061.56646
                  22037100.4304                                   22037097.2704
                                                                        50.0004
        38.2504
  -7035414.21147  -5445069.90644
                  23563122.0004                                   23563118.3244
                                                                        43.0004
        25.5004
  -9462482.32047  -7339560.13744
                  23001256.8054                                   23001252.8554
                                                                        44.2504
        29.7504
 09 10 25  0 33 30.0000000  0  8G02G05G10G13G25G29G16G07
  -1812695.58248  -1373694.87946
                  21738902.6414                                   21738897.2344
                                                                        49.2504
        38.2504
 -22380286.37548 -17357866.82847
                  20915895.9304                                   20915892.3284
                                                                        51.7504
        42.5004
 -19908505.48448 -15440778.83246
                  20458835.4534                                   20458832.0164
                                                                        52.2504
        41.5004
  -3402763.82447  -2606833.72345
                  22277986.7424                                   22277982.5984
                                                                        45.0004
        30.7504
 -17164155.26647 -13308520.19945
                  22488125.4454                                   22488121.9574
                                                                        45.0004
        30.7504
 -14209946.38748 -11008173.04746
                  22023641.8674                                   22023638.4494
                                                                        49.2504
        38.5004
  -7133011.80546  -5521119.98444
                  23544550.5164                                   23544546.3364
                                                                        41.2504
        24.5004
  -9612640.95347  -7456566.62145
                  22972682.5314                                   22972678.2734
                                                                        43.5004
        30.0004
 09 10 25  0 34  0.0000000  0  8G02G05G10G13G25G29G16G07
  -1814968.19548  -1375465.89146
                  21738470.3754                                   21738465.2504
                                                                        49.0004
        38.7504
 -22515100.39848 -17462916.63347
                  20890241.8834                                   20890238.2504
                                                                        51.5004
        42.7504
 -20020298.99648 -15527890.30147
                  20437561.3444                                   20437558.4734
                                                                        52.5004
        42.0004
  -3409367.59047  -2611981.09445
                  22276731.7734                                   22276727.7384
                                                                        44.5004
        30.0004
 -17256850.72747 -13380750.90645
                  22470486.3754                                   22470483.1094
                                                                        45.7504
        30.7504
 -14280044.50048 -11062794.91446
                  22010302.7114                                   22010299.4344
                                                                        49.5004
        38.0004
  -7229977.31647  -5596677.57844
                  23526098.6414                                   23526094.5474
                                                                        42.0004
        25.0004
  -9762281.55947  -7573169.60945
                  22944206.4924                                   22944202.6414
                                                                        44.7504
        31.2504
 09 10 25  0 34 30.0000000  0  8G02G05G10G13G25G29G16G07
  -1816805.06248  -1376896.87546
                  21738120.1254                                   21738114.8834
                                                                        49.5004
        39.0004
 -22649408.38348 -17567571.98847
                  20864683.7664                                   20864679.9264
                                                                        52.5004
        43.0004
 -20131513.05148 -15614551.65646
                  20416399.1644                                   20416395.7734
                                                                        52.7504
        41.7504
  -3415495.76647  -2616756.14545
                  22275565.0554                                   22275562.1684
                                                                        45.0004
        30.2504
 -17348939.58247 -13452509.44944
                  22452963.5004                                   22452960.6094
                                                                        45.5004
        29.7504
 -14349517.16848 -11116929.42246
                  21997082.2424                                   21997079.1174
                                                                        49.7504
        38.0004
  -7326312.12947  -5671743.70744
                  23507766.7114                                   23507762.2624
                                                                        43.0004
        25.0004
  -9911402.98847  -7689367.83645
                  22915829.5234                                   22915825.8954
                                                                        44.7504
        30.5004
 09 10 25  0 35  0.0000000  0  8G02G05G10G13G25G29G16G07
  -1818212.55148  -1377993.37146
                  21737852.1174                                   21737846.5784
                                                                        49.2504
        38.0004
 -22783212.80548 -17671835.33247
                  20839221.5634                                   20839217.9884
                                                                        52.2504
        42.7504
 -20242143.94948 -15700756.95346
                  20395346.0554                                   20395343.2624
                                                                        52.7504
        41.2504
  -3421155.16447  -2621164.98045
                  22274486.9614                                   22274483.5164
                                                                        45.5004
        30.5004
 -17440420.40247 -13523792.78145
                  22435555.1884                                   22435551.4574
                                                                        46.0004
        30.7504
 -14418367.74648 -11170579.19946
                  21983980.3984                                   21983977.3054
                                                                        50.0004
        37.7504
  -7422019.11747  -5746320.56244
                  23489554.4614                                   23489549.9104
                                                                        42.7504
        25.2504
 -10060005.91847  -7805161.97345
                  22887551.2424                                   22887546.9144
                                                                        44.7504
        31.5004
 09 10 25  0 35 30.0000000  0  8G02G05G10G13G25G29G16G07
  -1819191.76648  -1378756.36346
                  21737665.8444                                   21737660.4064
                                                                        48.7504
        38.2504
 -22916509.75448 -17775702.84847
                  20813855.6414                                   20813852.3364
                                                                        52.0004
        42.5004
 -20352193.70748 -15786509.49246
                  20374403.9924                                   20374400.8164
                                                                        52.7504
        41.5004
  -3426351.58247  -2625214.28145
                  22273498.7034                                   22273494.8794
                                                                        44.2504
        30.5004
 -17531296.83647 -13594606.21945
                  22418261.8284                                   22418258.4064
                                                                        46.2504
        30.5004
 -14486595.67248 -11223743.81246
                  21970997.1954                                   21970993.7544
                                                                        49.5004
        38.0004
  -7517096.28546  -5820406.69144
                  23471461.9844                                   23471457.0664
                                                                        41.5004
        25.2504
 -10208087.46947  -7920550.04745
                  22859371.8834                                   22859368.3834
                                                                        44.5004
        31.7504
 09 10 25  0 36  0.0000000  0  8G02G05G10G13G25G29G16G07
  -1819745.30548  -1379187.71546
                  21737560.2274                                   21737554.9774
                                                                        49.5004
        37.5004
 -23049300.30548 -17879176.03947
                  20788586.5314                                   20788582.9224
                                                                        52.5004
        42.7504
 -20461662.77348 -15871809.81646
                  20353572.2584                                   20353568.9884
                                                                        52.2504
        41.5004
  -3431084.90247  -2628902.25844
                  22272597.0784                                   22272594.0704
                                                                        44.0004
        29.7504
 -17621565.56647 -13664945.08245
                  22401084.6884                                   22401081.2894
                                                                        45.5004
        31.0004
 -14554202.47348 -11276424.47346
                  21958132.0004                                   21958128.5204
                                                                        49.5004
        38.2504
  -7611544.36347  -5894002.63744
                  23453489.0004                                   23453484.8164
                                                                        42.0004
        25.7504
 -10355645.92647  -8035530.45345
                  22831292.6334                                   22831288.3094
                                                                        45.0004
        31.7504
 09 10 25  0 36 30.0000000  0  8G02G05G10G13G25G29G16G07
  -1819877.96548  -1379292.22346
                  21737536.5084                                   21737531.0634
                                                                        48.7504
        37.2504
 -23181582.71548 -17982253.21547
                  20763413.9454                                   20763410.1094
                                                                        52.7504
        42.5004
 -20570551.09848 -15956657.80146
                  20332851.7344                                   20332848.5314
                                                                        52.2504
        41.2504
  -3435358.52047  -2632231.85244
                  22271783.4614                                   22271779.7154
                                                                        44.2504
        29.5004
 -17711227.69947 -13734810.68445
                  22384021.5164                                   22384017.9184
                                                                        44.2504
        30.5004
 -14621188.93048 -11328621.68446
                  21945385.1724                                   21945381.8204
                                                                        50.2504
        38.5004
  -7705363.26247  -5967108.30944
                  23435636.0164                                   23435631.4804
                                                                        43.0004
        25.7504
 -10502680.07047  -8150102.60545
                  22803312.5784                                   22803308.9184
                                                                        44.5004
        31.7504
 09 10 25  0 37  0.0000000  0  8G02G05G10G13G25G29G16G07
  -1819584.10248  -1379062.40646
                  21737591.4454                                   21737586.3634
                                                                        48.5004
        38.0004
 -23313354.23448 -18084932.19547
                  20738338.7424                                   20738335.0044
                                                                        52.5004
        42.0004
 -20678856.51648 -16041051.66446
                  20312241.8984                                   20312238.4384
                                                                        52.5004
        41.2504
  -3439175.18047  -2635205.88745
                  22271057.7034                                   22271053.3284
                                                                        44.5004
        30.0004
 -17800283.54747 -13804204.34845
                  22367074.1174                                   22367070.2544
                                                                        44.7504
        31.5004
 -14687554.26648 -11380334.92646
                  21932755.8364                                   21932752.5004
                                                                        49.5004
        38.0004
  -7798551.28146  -6039722.38744
                  23417903.2814                                   23417898.6454
                                                                        41.7504
        24.5004
 -10649185.28547  -8264262.57845
                  22775433.7734                                   22775430.2304
                                                                        44.0004
        31.7504
 09 10 25  0 37 30.0000000  0  8G02G05G10G13G25G29G16G07
  -1818873.30147  -1378508.53546
                  21737727.0084                                   21737721.5744
                                                                        47.5004
        38.0004
 -23444616.61348 -18187214.56247
                  20713360.1254                                   20713356.2114
                                                                        52.7504
        43.0004
 -20786580.12148 -16124992.12946
                  20291742.8284                                   20291739.5984
                                                                        52.5004
        41.5004
  -3442538.44947  -2637826.55945
                  22270417.4224                                   22270413.5704
                                                                        43.5004
        30.0004
 -17888734.59047 -13873126.95745
                  22350242.6804                                   22350238.4734
                                                                        45.0004
        31.2504
 -14753301.03548 -11431566.14146
                  21920244.7894                                   21920241.4184
                                                                        50.0004
        38.0004
  -7891110.09047  -6111846.21944
                  23400289.5394                                   23400284.6524
                                                                        42.0004
        25.2504
 -10795161.32047  -8378010.02345
                  22747655.1174                                   22747651.8204
                                                                        44.5004
        31.7504
 09 10 25  0 38  0.0000000  0  8G02G05G10G13G25G29G16G07
  -1817744.67648  -1377628.81246
                  21737941.2034                                   21737935.7734
                                                                        48.2504
        37.5004
 -23575367.16048 -18289098.10247
                  20688479.3054                                   20688475.2734
                                                                        53.0004
        42.5004
 -20893719.99648 -16208477.73446
                  20271354.7734                                   20271351.3484
                                                                        52.5004
        41.7504
  -3445449.78947  -2640095.00845
                  22269863.3754                                   22269859.1024
                                                                        44.5004
        30.2504
 -17976580.32047 -13941578.40645
                  22333526.1254                                   22333522.7854
                                                                        45.0004
        31.0004
 -14818429.11348 -11482315.28946
                  21907851.3524                                   21907848.2504
                                                                        49.2504
        38.0004
  -7983038.38747  -6183478.70744
                  23382796.3594                                   23382792.0314
                                                                        43.5004
        26.0004
 -10940605.23847  -8491342.98845
                  22719978.1954                                   22719974.4144
                                                                        45.7504
        31.5004
 09 10 25  0 38 30.0000000  0  8G02G05G10G13G25G29G16G07
   -240779.85548   -148824.94146
                  22038027.5944                                   22038022.3594
                                                                        48.5004
        37.7504
 -22130178.86748 -17162977.34047
                  20963489.7424                                   20963485.4344
                                                                        53.0004
        42.7504
 -19424851.06648 -15063904.49646
                  20550871.0084                                   20550867.9024
                                                                        52.7504
        41.0004
  -1872490.96947  -1414413.01244
                  22569187.5944                                   22569183.8164
                                                                        45.0004
        29.5004
 -16488394.78147 -12781953.22345
                  22616717.9304                                   22616714.8014
                                                                        44.0004
        31.2504
 -13307515.68048 -10304980.12546
                  22195368.1414                                   22195365.1214
                                                                        49.0004
        38.0004
  -6498911.75847  -5027016.43444
                  23665216.3594                                   23665211.4804
                                                                        42.0004
        25.7504
  -9510088.40247  -7376654.46145
                  22992196.4224                                   22992192.4494
                                                                        45.2504
        32.2504
 09 10 25  0 39  0.0000000  0  8G02G05G10G13G25G29G16G07
   -238821.33248   -147298.67246
                  22038400.0944                                   22038394.9654
                                                                        48.5004
        38.0004
 -22259899.93748 -17264058.65647
                  20938804.5084                                   20938800.4614
                                                                        52.7504
        42.5004
 -19530820.73848 -15146478.21146
                  20530705.9614                                   20530702.0394
                                                                        52.7504
        41.0004
  -1874505.59447  -1415983.23444
                  22568805.0784                                   22568800.6914
                                                                        45.0004
        29.7504
 -16575025.18447 -12849457.33245
                  22600232.8204                                   22600229.5824
                                                                        46.0004
        30.0004
 -13371406.83248 -10354765.41846
                  22183210.2034                                   22183207.4224
                                                                        49.5004
        38.2504
  -6589576.80147  -5097664.59844
                  23647963.5704                                   23647958.9924
                                                                        43.0004
        25.5004
  -9654459.21147  -7489151.05945
                  22964723.5554                                   22964719.2344
                                                                        46.2504
        32.0004
 09 10 25  0 39 30.0000000  0  8G02G05G10G13G25G29G16G07
   -236450.09048   -145451.13346
                  22038851.7894                                   22038846.4734
                                                                        48.2504
        37.7504
 -22389103.62948 -17364736.82847
                  20914217.6884                                   20914214.0744
                                                                        52.5004
        43.0004
 -19636203.50848 -15228594.55946
                  20510652.0784                                   20510648.6024
                                                                        52.5004
        41.5004
  -1876072.62947  -1417203.97744
                  22568505.8284                                   22568502.1914
                                                                        44.2504
        29.2504
 -16661048.47747 -12916489.21945
                  22583863.4304                                   22583860.4224
                                                                        44.5004
        31.0004
 -13434679.33648 -10404068.69946
                  22171170.1644                                   22171166.8244
                                                                        49.0004
        37.5004
  -6679608.64147  -5167819.28944
                  23630830.7814                                   23630826.5944
                                                                        43.0004
        26.5004
  -9798288.99247  -7601226.21145
                  22937353.5554                                   22937349.6724
                                                                        44.7504
        31.5004
 09 10 25  0 40  0.0000000  0  8G02G05G10G13G25G29G16G07
   -233669.45747   -143284.60946
                  22039381.2034                                   22039375.6134
                                                                        47.5004
        37.2504
 -22517789.89848 -17465011.82047
                  20889729.4694                                   20889726.0514
                                                                        53.0004
        43.0004
 -19741000.21148 -15310254.30546
                  20490709.9534                                   20490706.6914
                                                                        52.0004
        41.0004
  -1877197.43747  -1418080.08244
                  22568292.1094                                   22568288.1454
                                                                        43.2504
        29.5004
 -16746462.31647 -12983045.00045
                  22567609.9454                                   22567606.1094
                                                                        45.0004
        31.0004
 -13497334.68048 -10452891.03546
                  22159247.2114                                   22159244.1134
                                                                        49.0004
        37.7504
  -6769008.32447  -5237481.43444
                  23613818.8754                                   23613814.3404
                                                                        43.2504
        26.5004
  -9941576.89847  -7712878.99645
                  22910087.0314                                   22910083.0084
                                                                        46.0004
        32.2504
 09 10 25  0 40 30.0000000  0  8G02G05G10G13G25G29G16G07
   -230481.55547   -140800.78546
                  22039987.6564                                   22039982.1054
                                                                        47.7504
        37.5004
 -22645957.89848 -17564882.93447
                  20865339.8914                                   20865336.0234
                                                                        52.5004
        43.2504
 -19845210.55548 -15391457.16846
                  20470879.0704                                   20470875.9884
                                                                        52.2504
        41.5004
  -1877882.98847  -1418614.09444
                  22568161.5474                                   22568157.4344
                                                                        44.0004
        29.0004
 -16831270.30947 -13049129.44145
                  22551471.6954                                   22551467.9454
                                                                        44.7504
        31.5004
 -13559374.77348 -10501233.93446
                  22147441.3134                                   22147437.8674
                                                                        48.5004
        38.0004
  -6857776.02747  -5306651.18044
                  23596927.2584                                   23596922.9384
                                                                        42.5004
        25.5004
 -10084321.12147  -7824108.16845
                  22882923.6564                                   22882919.6294
                                                                        45.5004
        32.2504
 09 10 25  0 41  0.0000000  0  8G02G05G10G13G25G29G16G07
   -226886.47748   -137999.27346
                  22040671.4694                                   22040666.3404
                                                                        48.0004
        36.5004
 -22773605.41448 -17664348.52747
                  20841049.3364                                   20841045.5274
                                                                        52.2504
        43.0004
 -19948832.82048 -15472201.78147
                  20451160.6724                                   20451157.0554
                                                                        52.5004
        42.0004
  -1878130.36347  -1418806.62144
                  22568114.2194                                   22568110.3014
                                                                        43.0004
        29.0004
 -16915467.78147 -13114737.07445
                  22535448.8054                                   22535445.5474
                                                                        45.7504
        31.0004
 -13620798.81248 -10549096.82046
                  22135752.3594                                   22135749.2034
                                                                        48.5004
        37.5004
  -6945910.27047  -5375327.24244
                  23580155.6724                                   23580151.1054
                                                                        42.7504
        26.5004
 -10226518.58647  -7934911.55945
                  22855864.4924                                   22855860.6294
                                                                        45.5004
        33.0004
 09 10 25  0 41 30.0000000  0  8G02G05G10G13G25G29G16G07
   -222887.78148   -134883.59846
                  22041432.6724                                   22041427.2894
                                                                        48.0004
        37.0004
 -22900731.28148 -17763407.61747
                  20816858.0704                                   20816854.5274
                                                                        52.5004
        42.7504
 -20051866.56648 -15552487.80947
                  20431554.1564                                   20431550.6374
                                                                        52.7504
        42.0004
  -1877942.46547  -1418660.03944
                  22568149.4454                                   22568145.9534
                                                                        43.7504
        29.0004
 -16999057.63347 -13179871.59045
                  22519541.6094                                   22519537.8714
                                                                        45.7504
        31.2504
 -13681607.51648 -10596480.20346
                  22124180.6804                                   22124177.7274
                                                                        49.0004
        38.0004
  -7033411.06647  -5443509.73844
                  23563504.2194                                   23563500.6684
                                                                        43.5004
        27.0004
 -10368166.47747  -8045286.60545
                  22828909.8284                                   22828905.9344
                                                                        46.2504
        32.7504
 09 10 25  0 42  0.0000000  0  8G02G05G10G13G25G29G16G07
   -218487.74648   -131455.32046
                  22042270.2274                                   22042265.3554
                                                                        49.2504
        37.0004
 -23027334.79748 -17862059.68047
                  20792766.4144                                   20792762.7734
                                                                        53.0004
        43.2504
 -20154311.85548 -15632315.32046
                  20412059.3364                                   20412055.8164
                                                                        53.0004
        41.5004
  -1877322.23447  -1418176.64844
                  22568267.7344                                   22568263.2664
                                                                        44.7504
        26.2504
 -17082040.43747 -13244533.44945
                  22503750.6564                                   22503746.7114
                                                                        45.2504
        31.0004
 -13741802.30548 -10643385.19546
                  22112726.4614                                   22112722.9494
                                                                        49.5004
        37.5004
  -7120278.87547  -5511198.96144
                  23546973.8984                                   23546970.2344
                                                                        43.0004
        27.2504
 -10509264.46147  -8155233.57045
                  22802060.1174                                   22802055.9024
                                                                        45.5004
        31.7504
 09 10 25  0 42 30.0000000  0  8G02G05G10G13G25G29G16G07
   -213687.53948   -127714.62946
                  22043183.3754                                   22043178.3324
                                                                        48.5004
        36.7504
 -23153415.09448 -17960304.03947
                  20768773.7034                                   20768770.6414
                                                                        53.2504
        43.0004
 -20256168.54748 -15711684.14846
                  20392676.8984                                   20392673.1684
                                                                        52.2504
        41.7504
  -1876272.62147  -1417358.81244
                  22568467.2504                                   22568463.4534
                                                                        44.5004
        28.5004
 -17164415.98447 -13308722.12145
                  22488075.2344                                   22488071.3444
                                                                        44.5004
        30.5004
 -13801384.13748 -10689812.56246
                  22101387.8754                                   22101384.8874
                                                                        48.0004
        38.0004
  -7206513.89147  -5578395.10544
                  23530564.1724                                   23530560.5044
                                                                        43.0004
        26.0004
 -10649808.74247  -8264748.60245
                  22775315.5634                                   22775311.6024
                                                                        46.0004
        32.2504
 09 10 25  0 43  0.0000000  0  8G02G05G10G13G25G29G16G07
   -208488.04347   -123663.08246
                  22044172.9224                                   22044167.5514
                                                                        47.7504
        37.0004
 -23278967.85948 -18058137.36347
                  20744881.8914                                   20744878.2234
                                                                        52.2504
        43.0004
 -20357433.40648 -15790591.82446
                  20373406.8984                                   20373402.6764
                                                                        52.5004
        41.2504
  -1874793.24647  -1416206.06644
                  22568748.6414                                   22568745.0474
                                                                        44.5004
        28.5004
 -17246181.24247 -13372435.28945
                  22472515.7274                                   22472511.7584
                                                                        46.0004
        31.0004
 -13860351.15648 -10735760.87946
                  22090167.4454                                   22090164.1334
                                                                        48.2504
        37.5004
  -7292112.84447  -5645095.62144
                  23514275.0704                                   23514271.5554
                                                                        42.7504
        26.0004
 -10789794.91447  -8373828.74245
                  22748676.8054                                   22748673.3444
                                                                        47.0004
        32.5004
 09 10 25  0 43 30.0000000  0  8G02G05G10G13G25G29G16G07
   -202896.16048   -119306.05146
                  22045237.2814                                   22045232.4064
                                                                        48.2504
        36.2504
 -23403997.08648 -18155562.71947
                  20721089.4614                                   20721085.8554
                                                                        52.2504
        43.0004
 -20458111.23448 -15869042.09446
                  20354248.1644                                   20354244.6334
                                                                        52.0004
        41.5004
  -1872891.79347  -1414724.47744
                  22569110.6884                                   22569106.6414
                                                                        45.0004
        28.2504
 -17327341.40647 -13435676.95345
                  22457071.5394                                   22457067.0474
                                                                        45.2504
        30.5004
 -13918709.11348 -10781234.63346
                  22079062.0554                                   22079058.7774
                                                                        49.0004
        37.2504
  -7377081.05547  -5711304.64544
                  23498106.6884                                   23498102.4734
                                                                        42.0004
        26.0004
 -10929227.36747  -8482478.10545
                  22722144.4614                                   22722140.9844
                                                                        45.7504
        31.7504
 09 10 25  0 44  0.0000000  0  8G02G05G10G13G25G29G16G07
   -196910.84447   -114642.62546
                  22046376.5164                                   22046371.7734
                                                                        47.0004
        36.5004
 -23528499.14848 -18252577.32047
                  20697397.9774                                   20697394.2154
                                                                        52.5004
        42.7504
 -20558198.43748 -15947032.12546
                  20335202.2974                                   20335198.8794
                                                                        52.2504
        41.0004
  -1870567.89847  -1412913.81244
                  22569552.9844                                   22569549.2154
                                                                        43.0004
        28.2504
 -17407893.65647 -13498445.03545
                  22441743.0634                                   22441739.0784
                                                                        45.7504
        30.7504
 -13976455.77748 -10826232.02346
                  22068073.2734                                   22068070.1094
                                                                        48.5004
        38.0004
  -7461415.28947  -5777019.68444
                  23482058.6804                                   23482054.1884
                                                                        42.0004
        26.2504
 -11068097.54347  -8590687.98045
                  22695717.4304                                   22695714.0704
                                                                        46.5004
        31.7504
 09 10 25  0 44 30.0000000  0  8G02G05G10G13G25G29G16G07
   -190534.12147   -109674.04746
                  22047590.3204                                   22047585.0354
                                                                        47.5004
        36.5004
 -23652473.25848 -18349180.52747
                  20673806.2894                                   20673802.3404
                                                                        52.5004
        43.0004
 -20657695.40648 -16024562.40246
                  20316268.9774                                   20316265.4574
                                                                        52.5004
        41.2504
  -1867824.29747  -1410775.99644
                  22570074.7894                                   22570070.8984
                                                                        43.0004
        27.5004
 -17487838.91047 -13560740.27045
                  22426529.9384                                   22426526.1954
                                                                        46.2504
        31.2504
 -14033593.10948 -10870754.61346
                  22057200.1484                                   22057197.4774
                                                                        48.5004
        38.0004
  -7545116.26647  -5842241.24644
                  23466130.4774                                   23466126.4734
                                                                        42.0004
        26.0004
 -11206406.84047  -8698461.35945
                  22669398.2114                                   22669394.1374
                                                                        46.2504
        32.5004
 09 10 25  0 45  0.0000000  0  8G02G05G10G13G25G29G16G07
   -183766.64148   -104400.42246
                  22048877.6724                                   22048872.4494
                                                                        49.2504
        36.2504
 -23775918.02348 -18445371.34447
                  20650315.5634                                   20650311.7664
                                                                        52.2504
        42.7504
 -20756602.33248 -16101633.57846
                  20297448.0234                                   20297444.6024
                                                                        52.5004
        41.2504
  -1864662.73047  -1408312.39144
                  22570677.1804                                   22570672.8204
                                                                        45.2504
        28.5004
 -17567175.93747 -13622561.46145
                  22411432.5164                                   22411428.9024
                                                                        47.0004
        31.0004
 -14090120.98048 -10914802.30146
                  22046443.4774                                   22046440.4494
                                                                        48.5004
        37.7504
  -7628183.14147  -5906968.70744
                  23450323.6254                                   23450320.0514
                                                                        43.0004
        27.2504
 -11344152.25447  -8805795.43745
                  22643186.1884                                   22643182.0904
                                                                        46.5004
        32.0004
 09 10 25  0 45 30.0000000  0  8G02G05G10G13G25G29G16G07
   -176615.64148    -98828.36746
                  22050238.7734                                   22050233.5474
                                                                        48.0004
        36.2504
 -23898835.32448 -18541151.51247
                  20626925.3914                                   20626921.5234
                                                                        52.0004
        43.5004
 -20854919.29348 -16178244.48846
                  20278739.0944                                   20278737.1644
                                                                        52.5004
        41.5004
  -1861091.38747  -1405530.68044
                  22571356.9844                                   22571353.0234
                                                                        45.5004
        28.0004
 -17645909.83647 -13683913.65645
                  22396450.7274                                   22396447.6844
                                                                        46.0004
        31.5004
 -14146042.88348 -10958377.80146
                  22035801.8834                                   22035798.7074
                                                                        48.0004
        37.5004
  -7710618.50047  -5971204.08244
                  23434636.1094                                   23434632.7774
                                                                        42.5004
        27.0004
 -11481334.59047  -8912691.04345
                  22617081.2274                                   22617077.5204
                                                                        46.0004
        33.2504
 09 10 25  0 46  0.0000000  0  8G02G05G10G13G25G29G16G07
   -169080.25048    -92956.83245
                  22051672.8134                                   22051667.3404
                                                                        48.0004
        35.5004
 -24021219.92248 -18636515.81247
                  20603636.2504                                   20603632.7774
                                                                        52.2504
        43.2504
 -20952643.92648 -16254393.59047
                  20260142.8914                                   20260139.6024
                                                                        52.2504
        42.0004
  -1857112.68447  -1402453.90254
                  22572117.0004                                   22572114.0904
                                                                        44.0004
        29.2504
 -17724037.51647 -13744793.66045
                  22381584.9924                                   22381582.0204
                                                                        46.5004
        31.5004
 -14201358.08647 -11001480.53946
                  22025275.8674                                   22025272.4654
                                                                        47.5004
        38.2504
  -7792420.63347  -6034946.04344
                  23419070.0314                                   23419066.4454
                                                                        43.0004
        26.0004
 -11617948.74247  -9019143.67245
                  22591084.7424                                   22591080.9614
                                                                        46.7504
        32.2504
 09 10 25  0 46 30.0000000  0  8G02G05G10G13G25G29G16G07
   -161165.04347    -86789.34845
                  22053179.1414                                   22053174.3054
                                                                        47.5004
        35.5004
 -24143075.60248 -18731468.21947
                  20580447.7424                                   20580444.5234
                                                                        52.2504
        43.5004
 -21049777.83648 -16330081.66046
                  20241658.4304                                   20241655.2734
                                                                        52.2504
        41.5004
  -1852715.42247  -1399024.71144
                  22572951.6804                                   22572949.2504
                                                                        44.0004
        27.5004
 -17801558.64847 -13804795.84055
                  22366833.2194                                   22366830.1214
                                                                        46.5004
        31.0004
 -14256070.13347 -11044113.28546
                  22014864.2734                                   22014861.2704
                                                                        47.7504
        37.5004
  -7873592.43747  -6098196.79744
                  23403623.5394                                   23403620.0944
                                                                        43.0004
        27.5004
 -11753995.46947  -9125153.89545
                  22565195.7814                                   22565191.5474
                                                                        47.0004
        32.0004
 09 10 25  0 47  0.0000000  0  8G02G05G10G13G25G29G16G07
   -152870.64147    -80326.12546
                  22054757.3754                                   22054752.0474
                                                                        47.2504
        36.2504
 -24264399.36348 -18826006.18047
                  20557360.7424                                   20557357.1914
                                                                        52.5004
        42.7504
 -21146322.59448 -16404306.14857
                  20223286.1094                                   20223283.1764
                                                                        52.7504
        43.0004
  -1847918.73447  -1395287.20344
                  22573864.5234                                   22573861.6684
                                                                        43.7504
        27.2504
 -17878473.55547 -13864728.95345
                  22352196.4144                                   22352193.0824
                                                                        46.2504
        30.7504
 -14310178.87147 -11086275.89846
                  22004567.7664                                   22004564.5004
                                                                        47.5004
        38.0004
  -7954132.84447  -6160955.57844
                  23388297.1024                                   23388293.9384
                                                                        42.5004
        26.2504
 -11889472.01247  -9230719.92645
                  22539415.1954                                   22539411.0664
                                                                        46.2504
        32.7504
 09 10 25  0 47 30.0000000  0  8G02G05G10G13G25G29G16G07
   -144199.09047    -73568.61346
                  22056407.4844                                   22056402.5744
                                                                        47.5004
        36.5004
 -24385190.92648 -18920129.72347
                  20534374.8134                                   20534371.1214
                                                                        51.5004
        43.0004
 -21242279.68048 -16478084.55957
                  20205027.6094                                   20205022.4734
                                                                        52.0004
        46.2504
  -1842718.42247  -1391234.57044
                  22574854.4384                                   22574850.4224
                                                                        44.0004
        28.0004
 -17954786.35547 -13924194.27345
                  22337674.5634                                   22337672.3594
                                                                        46.5004
        30.5004
 -14363685.57848 -11127969.46146
                  21994385.4774                                   21994382.9614
                                                                        48.2504
        37.7504
  -8034041.88747  -6223222.36744
                  23373091.3754                                   23373087.3984
                                                                        42.0004
        26.5004
 -12024376.09047  -9335839.84045
                  22513743.6884                                   22513739.4454
                                                                        46.2504
        32.0004
 09 10 25  0 48  0.0000000  0  8G02G05G10G13G25G29G16G07
   1440265.98447   1161079.53946
                  22357920.9694                                   22357915.8674
                                                                        47.0004
        36.5004
 -22930025.39148 -17786234.92247
                  20811284.0944                                   20811280.3594
                                                                        51.7504
        43.0004
 -19762217.68448 -15323302.46157
                  20486673.0474                                   20486669.8164
                                                                        52.2504
        43.5004
   -261697.23847   -159268.97344
                  22875711.3524                                   22875707.7234
                                                                        42.7504
        27.0004
 -16455068.62547 -12754792.77755
                  22623060.9064                                   22623058.1844
                                                                        45.7504
        31.7504
 -12841169.14148  -9941593.02346
                  22284111.2584                                   22284108.1844
                                                                        48.0004
        38.5004
  -6537896.96146  -5057395.13744
                  23657797.7814                                   23657794.0234
                                                                        41.5004
        25.5004
 -10583281.82847  -8212909.12545
                  22787975.0234                                   22787970.7704
                                                                        46.0004
        32.5004
 09 10 25  0 48 30.0000000  0  8G02G05G10G13G25G29G16G07
   1449684.77347   1168418.87545
                  22359712.9224                                   22359708.3524
                                                                        47.5004
        35.5004
 -23049746.30548 -17879523.75847
                  20788501.6174                                   20788498.4804
                                                                        52.0004
        43.2504
 -19856987.57448 -15397148.91846
                  20468638.6954                                   20468635.4774
                                                                        52.7504
        41.5004
   -255698.68447   -154594.44144
                  22876852.5704                                   22876848.5704
                                                                        42.0004
        26.7504
 -16530168.05947 -12813310.77345
                  22608768.9614                                   22608765.7664
                                                                        45.2504
        30.5004
 -12893472.93448  -9982349.22746
                  22274158.1644                                   22274155.0474
                                                                        48.5004
        38.5004
  -6616542.16846  -5118677.10944
                  23642832.3284                                   23642828.4534
                                                                        41.2504
        25.7504
 -10717034.67247  -8317132.05945
                  22762522.2114                                   22762518.3524
                                                                        46.5004
        32.5004
 09 10 25  0 49  0.0000000  0  8G02G05G10G13G25G29G16G07
   1459472.60548   1176045.75445
                  22361575.5634                                   22361571.0234
                                                                        48.0004
        35.7504
 -23168932.98048 -17972396.64147
                  20765821.5394                                   20765817.8794
                                                                        52.0004
        42.7504
 -19951166.84048 -15470535.22746
                  20450717.1174                                   20450713.8244
                                                                        52.2504
        41.2504
   -249307.05947   -149614.13744
                  22878069.2584                                   22878065.1644
                                                                        43.7504
        26.2504
 -16604666.68747 -12871361.59045
                  22594592.4534                                   22594589.1374
                                                                        46.0004
        31.0004
 -12945178.48448 -10022639.26246
                  22264319.1334                                   22264315.8404
                                                                        48.0004
        38.2504
  -6694557.42246  -5179468.21144
                  23627986.4384                                   23627982.5594
                                                                        41.5004
        25.7504
 -10850211.03947  -8420906.02045
                  22737179.5234                                   22737176.0474
                                                                        45.5004
        32.5004
 09 10 25  0 49 30.0000000  0  8G02G05G10G13G25G29G16G07
   1469628.91447   1183959.71945
                  22363508.4774                                   22363503.5084
                                                                        47.7504
        35.5004
 -23287582.16448 -18064850.72347
                  20743243.4614                                   20743239.7544
                                                                        51.5004
        43.0004
 -20044753.34448 -15543459.58647
                  20432907.9454                                   20432904.8484
                                                                        52.0004
        42.0004
   -242522.97347   -144328.08244
                  22879360.2814                                   22879356.3404
                                                                        42.5004
        25.7504
 -16678562.43747 -12928943.35245
                  22580531.2814                                   22580527.2734
                                                                        45.5004
        30.7504
 -12996285.02048 -10062462.57846
                  22254593.4774                                   22254590.4454
                                                                        48.2504
        38.2504
  -6771941.49246  -5239767.49644
                  23613261.0704                                   23613257.0864
                                                                        41.2504
        25.5004
 -10982811.22347  -8523544.43755
                  22711948.2274                                   22711946.2814
                                                                        46.2504
        32.7504
 09 10 25  0 50  0.0000000  0  8G02G05G10G13G25G29G16G07
   1480150.59848   1192158.37545
                  22365510.8134                                   22365505.7464
                                                                        48.0004
        35.7504
 -23405694.69548 -18156886.89847
                  20720767.7344                                   20720764.0944
                                                                        51.5004
        43.2504
 -20137749.59048 -15615924.53146
                  20415211.7194                                   20415208.1644
                                                                        52.5004
        41.5004
   -235349.25947   -138738.00244
                  22880724.7194                                   22880721.5274
                                                                        42.5004
        25.7504
 -16751854.11747 -12986053.60545
                  22566583.7504                                   22566580.0044
                                                                        46.5004
        30.5004
 -13046795.70348 -10101821.65246
                  22244981.9224                                   22244978.8524
                                                                        48.2504
        38.2504
  -6848695.81646  -5299576.03944
                  23598655.0634                                   23598651.0234
                                                                        41.5004
        25.2504
 -11114823.52747  -8626410.34045
                  22686826.4844                                   22686823.1254
                                                                        46.2504
        32.2504
 09 10 25  0 50 30.0000000  0  8G02G05G10G13G25G29G16G07
   1491034.99248   1200639.66446
                  22367582.2034                                   22367576.8284
                                                                        49.0004
        36.0004
 -23523267.81648 -18248502.16447
                  20698394.1644                                   20698390.6644
                                                                        51.7504
        43.2504
 -20230153.55148 -15687927.80146
                  20397627.7734                                   20397624.6644
                                                                        52.0004
        41.0004
   -227789.73047   -132847.67644
                  22882163.9534                                   22882160.5904
                                                                        43.2504
        27.2504
 -16824544.51247 -13042696.06245
                  22552751.6884                                   22552749.5944
                                                                        46.2504
        31.0004
 -13096711.04748 -10140716.82846
                  22235483.4694                                   22235480.2384
                                                                        48.7504
        37.7504
  -6924820.46146  -5358893.92244
                  23584169.2664                                   23584164.8714
                                                                        41.5004
        26.0004
 -11246252.94947  -8728822.16845
                  22661816.5394                                   22661812.9064
                                                                        46.7504
        32.0004
 09 10 25  0 51  0.0000000  0  8G02G05G10G13G25G29G16G07
   1502281.73848   1209403.42645
                  22369722.2584                                   22369717.0904
                                                                        48.5004
        35.5004
 -23640302.11348 -18339698.37547
                  20676123.8364                                   20676120.5664
                                                                        50.7504
        42.7504
 -20321963.46948 -15759467.76247
                  20380156.9304                                   20380153.5554
                                                                        51.7504
        42.2504
   -219844.54747   -126656.50044
                  22883675.8914                                   22883672.2274
                                                                        43.5004
        26.7504
 -16896629.30547 -13098864.91445
                  22539033.6174                                   22539030.2894
                                                                        46.0004
        31.0004
 -13146031.10248 -10179148.15246
                  22226098.1564                                   22226094.9494
                                                                        48.7504
        38.0004
  -7000314.41447  -5417720.40244
                  23569802.8674                                   23569798.8674
                                                                        42.0004
        24.2504
 -11377095.30947  -8830776.38345
                  22636917.2584                                   22636913.4024
                                                                        46.7504
        32.5004
 09 10 25  0 51 30.0000000  0  8G02G05G10G13G25G29G16G07
   1513891.27048   1218448.95746
                  22371931.9224                                   22371927.0944
                                                                        48.5004
        36.0004
 -23756787.54348 -18430465.44947
                  20653956.8674                                   20653953.2114
                                                                        51.7504
        42.7504
 -20413177.69548 -15830544.75046
                  20362800.0784                                   20362797.3794
                                                                        52.2504
        41.5004
   -211513.94147   -120165.88744
                  22885262.0234                                   22885258.0354
                                                                        44.5004
        28.2504
 -16968109.26647 -13154563.91445
                  22525432.0234                                   22525428.3324
                                                                        46.5004
        30.7504
 -13194752.55948 -10217113.00446
                  22216826.9534                                   22216823.6994
                                                                        48.5004
        37.5004
  -7075173.89147  -5476052.46144
                  23555557.7814                                   23555553.1994
                                                                        43.5004
        26.2504
 -11507346.33247  -8932270.50845
                  22612131.1564                                   22612127.4454
                                                                        46.5004
        32.2504
 09 10 25  0 52  0.0000000  0  8G02G05G10G13G25G29G16G07
   1525857.96948   1227773.94945
                  22374209.4224                                   22374204.4304
                                                                        48.2504
        34.5004
 -23872735.14848 -18520814.48847
                  20631892.8754                                   20631889.3874
                                                                        52.2504
        43.5004
 -20503797.68748 -15901156.99246
                  20345555.1414                                   20345551.8244
                                                                        52.7504
        41.5004
   -202804.69147   -113379.57444
                  22886918.9224                                   22886915.5514
                                                                        43.0004
        26.5004
 -17038989.13347 -13209795.19945
                  22511944.0164                                   22511940.3284
                                                                        45.7504
        30.2504
 -13242883.38748 -10254617.53946
                  22207667.8364                                   22207664.8244
                                                                        48.7504
        38.0004
  -7149405.76246  -5533895.45344
                  23541431.4694                                   23541427.4064
                                                                        41.7504
        26.0004
 -11637009.43747  -9033306.36745
                  22587457.1334                                   22587452.8364
                                                                        46.5004
        33.0004
 09 10 25  0 52 30.0000000  0  8G02G05G10G13G25G29G16G07
   1538178.77748   1237374.73045
                  22376553.6644                                   22376548.4734
                                                                        48.0004
        35.5004
 -23988139.99648 -18610740.22347
                  20609931.7664                                   20609928.3404
                                                                        51.5004
        43.7504
 -20593828.26248 -15971311.41046
                  20328423.3524                                   20328420.3484
                                                                        52.0004
        41.5004
   -193718.14147   -106298.64144
                  22888647.5314                                   22888644.4024
                                                                        42.7504
        27.0004
 -17109267.78147 -13264557.70345
                  22498570.3364                                   22498566.7544
                                                                        46.7504
        30.7504
 -13290423.16048 -10291661.50046
                  22198621.0164                                   22198618.5784
                                                                        48.5004
        37.5004
  -7223009.24247  -5591248.82444
                  23527425.3134                                   23527421.3874
                                                                        43.0004
        26.5004
 -11766083.01247  -9133883.10945
                  22562894.6884                                   22562890.9304
                                                                        47.0004
        32.7504
 09 10 25  0 53  0.0000000  0  8G02G05G10G13G25G29G16G07
   1550852.37947   1247250.23845
                  22378965.1484                                   22378960.3714
                                                                        47.7504
        35.2504
 -24103000.50448 -18700241.71147
                  20588074.5944                                   20588071.1254
                                                                        52.2504
        43.2504
 -20683263.16048 -16041000.69946
                  20311404.5084                                   20311401.4264
                                                                        52.0004
        40.7504
   -184256.33247    -98925.32444
                  22890447.5784                                   22890444.0904
                                                                        42.0004
        25.2504
 -17178944.80147 -13318851.18445
                  22485311.0084                                   22485307.4654
                                                                        46.5004
        31.0004
 -13337372.69948 -10328245.57446
                  22189686.5864                                   22189684.2734
                                                                        48.7504
        37.5004
  -7295983.60247  -5648111.90644
                  23513538.6804                                   23513535.3164
                                                                        42.7504
        25.7504
 -11894563.26647  -9233997.86345
                  22538445.9454                                   22538442.0314
                                                                        46.5004
        32.2504
 09 10 25  0 53 30.0000000  0  8G02G05G10G13G25G29G16G07
   1563876.31347   1257398.96945
                  22381443.4614                                   22381438.9144
                                                                        46.5004
        35.0004
 -24217317.50848 -18789319.62547
                  20566320.5234                                   20566317.0704
                                                                        52.0004
        43.5004
 -20772104.70348 -16110227.26646
                  20294497.7114                                   20294494.4964
                                                                        52.0004
        41.2504
   -174424.07447    -91263.38344
                  22892318.3754                                   22892314.5044
                                                                        43.2504
        25.2504
 -17248021.30547 -13372676.38745
                  22472165.8984                                   22472161.8054
                                                                        46.5004
        30.2504
 -13383734.50048 -10364371.69146
                  22180864.6954                                   22180861.9884
                                                                        48.5004
        37.5004
  -7368330.30947  -5704485.85544
                  23499771.9144                                   23499768.0234
                                                                        43.5004
        25.2504
 -12022448.14147  -9333648.14145
                  22514110.3674                                   22514106.1644
                                                                        46.5004
        33.5004
 09 10 25  0 54  0.0000000  0  8G02G05G10G13G25G29G16G07
   1577246.46147   1267817.22345
                  22383987.9144                                   22383982.3524
                                                                        47.2504
        34.5004
 -24331091.23448 -18877974.53947
                  20544670.0784                                   20544666.8134
                                                                        51.7504
        43.7504
 -20860355.43448 -16178993.95346
                  20277704.2194                                   20277700.7974
                                                                        51.7504
        41.0004
   -164226.19147    -83317.14844
                  22894259.4144                                   22894254.9344
                                                                        43.5004
        25.0004
 -17316501.01247 -13426037.16445
                  22459134.3284                                   22459130.8364
                                                                        45.7504
        30.0004
 -13429510.50448 -10400041.37546
                  22172153.5474                                   22172150.7974
                                                                        49.0004
        37.5004
  -7440050.86747  -5760371.92244
                  23486123.8754                                   23486119.8954
                                                                        42.7504
        25.7504
 -12149739.34047  -9432836.33245
                  22489887.7664                                   22489883.7504
                                                                        46.5004
        33.0004
 09 10 25  0 54 30.0000000  0  8G02G05G10G13G25G29G16G07
   1590962.14547   1278504.40645
                  22386598.2734                                   22386593.3054
                                                                        47.2504
        35.5004
 -24444318.26648 -18966203.32447
                  20523123.7504                                   20523120.3634
                                                                        51.2504
        43.2504
 -20948012.09848 -16247297.57446
                  20261023.5474                                   20261020.4774
                                                                        51.7504
        41.7504
   -153660.62947    -75084.32044
                  22896269.8364                                   22896265.8554
                                                                        43.5004
        26.5004
 -17384381.05547 -13478930.76245
                  22446217.3524                                   22446213.4694
                                                                        46.0004
        30.7504
 -13474699.84848 -10435253.88746
                  22163554.3054                                   22163551.1804
                                                                        48.5004
        37.0004
  -7511143.78947  -5815769.00044
                  23472595.3674                                   23472590.9414
                                                                        42.2504
        24.5004
 -12276431.86747  -9531557.96145
                  22465778.8984                                   22465775.2504
                                                                        47.0004
        33.2504
 09 10 25  0 55  0.0000000  0  8G02G05G10G13G25G29G16G07
   1605022.87947   1289460.80545
                  22389273.7664                                   22389268.6374
                                                                        47.5004
        35.2504
 -24557000.94948 -19054009.46147
                  20501681.8834                                   20501678.8054
                                                                        51.2504
        43.5004
 -21035075.79348 -16315139.44947
                  20244456.0004                                   20244452.4734
                                                                        51.7504
        42.0004
   -142732.20347    -66569.14144
                  22898350.4534                                   22898346.1804
                                                                        44.2504
        27.0004
 -17451662.75447 -13531358.39145
                  22433414.1484                                   22433410.7424
                                                                        46.0004
        30.7504
 -13519304.25448 -10470010.66446
                  22155066.9924                                   22155063.3484
                                                                        48.7504
        36.7504
  -7581609.94147  -5870677.62544
                  23459185.5234                                   23459181.9184
                                                                        43.0004
        25.0004
 -12402524.29747  -9629812.32445
                  22441784.7734                                   22441780.5204
                                                                        47.0004
        34.0004
 09 10 25  0 55 30.0000000  0  9G02G21G05G10G13G25G29G16G07
   1619424.66847   1300683.16445
                  22392014.2584                                   22392009.3444
                                                                        46.5004
        35.0004
   9217314.32856   7227947.86753
                  24681416.8134                                   24681413.2074
                                                                        39.2504
        20.2504
 -24669132.56648 -19141384.02747
                  20480343.4534                                   20480340.4614
                                                                        52.0004
        43.7504
 -21121548.09048 -16382521.02346
                  20228001.0704                                   20227998.3444
                                                                        52.5004
        41.5004
   -131442.10947    -57771.55944
                  22900498.6174                                   22900494.8404
                                                                        43.5004
        26.0004
 -17518346.95747 -13583320.27345
                  22420724.9694                                   22420721.7504
                                                                        46.2504
        31.2504
 -13563326.09448 -10504313.51246
                  22146689.7584                                   22146686.3054
                                                                        49.0004
        36.7504
  -7651450.74647  -5925099.00444
                  23445895.8444                                   23445891.2544
                                                                        42.7504
        25.2504
 -12528014.84447  -9727596.71545
                  22417904.3754                                   22417900.7774
                                                                        47.5004
        32.7504
 09 10 25  0 56  0.0000000  0  9G02G21G05G10G13G25G29G16G07
   1634165.30947   1312169.59845
                  22394819.0944                                   22394814.0784
                                                                        46.2504
        34.5004
   9026592.52046   7079333.58643
                  24645124.0314                                   24645119.9024
                                                                        40.5004
        21.7504
 -24780717.62548 -19228333.73847
                  20459109.7664                                   20459106.4534
                                                                        51.0004
        43.0004
 -21207426.42648 -16449439.19946
                  20211658.5634                                   20211655.8284
                                                                        52.5004
        41.5004
   -119794.60547    -48695.85244
                  22902715.0314                                   22902711.4454
                                                                        42.5004
        27.2504
 -17584435.26247 -13634818.26245
                  22408149.1094                                   22408146.2464
                                                                        45.7504
        31.2504
 -13606766.19147 -10538163.07046
                  22138423.4694                                   22138420.4494
                                                                        47.7504
        37.0004
  -7720666.05147  -5979032.92644
                  23432724.0634                                   23432719.9884
                                                                        42.5004
        26.0004
 -12652905.58247  -9824268.49255
                  22394139.5554                                   22394135.5354
                                                                        46.7504
        35.5004
 09 10 25  0 56 30.0000000  0  9G02G21G05G10G13G25G29G16G07
   1649236.88347   1323913.66845
                  22397687.0234                                   22397682.2734
                                                                        46.2504
        35.0004
   8836001.83646   6930821.51643
                  24608855.6094                                   24608851.6804
                                                                        39.2504
        22.0004
 -24891758.58648 -19314859.17247
                  20437979.4924                                   20437976.0474
                                                                        51.7504
        43.0004
 -21292718.35548 -16515901.11346
                  20195429.0944                                   20195425.7114
                                                                        51.7504
        41.2504
   -107796.64546    -39346.78544
                  22904997.9924                                   22904994.3094
                                                                        40.2504
        24.2504
 -17649930.23447 -13685852.98845
                  22395685.4064                                   22395682.4344
                                                                        46.2504
        31.7504
 -13649631.29348 -10571564.39146
                  22130266.3914                                   22130263.6094
                                                                        48.5004
        36.7504
  -7789262.03947  -6032484.34044
                  23419670.5554                                   23419666.7074
                                                                        43.5004
        24.7504
 -12777192.07047  -9921113.80545
                  22370487.1094                                   22370483.4924
                                                                        46.7504
        33.7504
 09 10 25  0 57  0.0000000  0  9G02G21G05G10G13G25G29G16G07
   3240055.37947   2563511.69145
                  22700410.7114                                   22700406.1844
                                                                        46.2504
        34.7504
  10220970.28546   8010017.82043
                  24872405.7274                                   24872402.0274
                                                                        39.2504
        22.0004
 -23426831.73048 -18173357.77047
                  20716746.1094                                   20716742.3714
                                                                        51.0004
        43.5004
 -19801997.37148 -15354299.66847
                  20479103.6414                                   20479100.1214
                                                                        50.7504
        42.0004
   1479967.59846   1197871.66844
                  23207139.9384                                   23207136.3134
                                                                        41.2504
        24.5004
 -16139414.07847 -12508827.70745
                  22683127.3134                                   22683124.2704
                                                                        46.5004
        30.7504
 -12116501.83248  -9376918.02746
                  22422011.6484                                   22422008.5084
                                                                        49.0004
        37.5004
  -6281817.22747  -4857851.96544
                  23706527.8754                                   23706523.7934
                                                                        43.7504
        24.7504
 -11325455.90647  -8789890.63745
                  22646743.6484                                   22646739.9574
                                                                        47.5004
        33.5004
 09 10 25  0 57 30.0000000  0  9G02G21G05G10G13G25G29G16G07
   3255788.32447   2575771.02745
                  22703404.1254                                   22703399.6454
                                                                        46.5004
        34.5004
  10030653.91046   7861719.33243
                  24836190.6024                                   24836186.3054
                                                                        39.5004
        21.0004
 -23536776.43448 -18259028.30947
                  20695823.3914                                   20695819.9494
                                                                        51.5004
        43.7504
 -19886107.23848 -15419839.82846
                  20463097.7894                                   20463094.5434
                                                                        51.0004
        41.2504
   1492663.41047   1207764.50044
                  23209555.4454                                   23209552.0164
                                                                        42.5004
        24.5004
 -16203723.93447 -12558939.10945
                  22670889.7274                                   22670886.1374
                                                                        46.5004
        30.5004
 -12158215.94948  -9409422.62146
                  22414073.2814                                   22414070.4144
                                                                        49.2504
        37.5004
  -6349171.00847  -4910335.42644
                  23693710.8594                                   23693706.4844
                                                                        44.5004
        25.2504
 -11448536.32047  -8885797.39145
                  22623322.1334                                   22623318.3204
                                                                        46.5004
        34.0004
 09 10 25  0 58  0.0000000  0  9G02G21G05G10G13G25G29G16G07
   3271854.85247   2588290.60945
                  22706461.8284                                   22706456.7854
                                                                        46.5004
        34.0004
   9840483.61346   7713534.66443
                  24800001.9614                                   24799997.9224
                                                                        39.0004
        21.0004
 -23646167.82048 -18344268.17647
                  20675006.6884                                   20675003.2774
                                                                        51.2504
        43.5004
 -19969621.14848 -15484915.46946
                  20447205.7114                                   20447202.4144
                                                                        51.0004
        41.5004
   1505709.27047   1217929.39544
                  23212038.6484                                   23212034.7624
                                                                        43.0004
        24.2504
 -16267438.21147 -12608587.40245
                  22658765.5004                                   22658762.9844
                                                                        46.0004
        32.0004
 -12199351.84048  -9441477.00446
                  22406245.7344                                   22406242.6914
                                                                        48.7504
        37.5004
  -6415898.98447  -4962331.24644
                  23681012.8914                                   23681009.1334
                                                                        42.7504
        24.5004
 -11571004.74647  -8981227.40645
                  22600017.3984                                   22600013.5704
                                                                        46.5004
        34.0004
 09 10 25  0 58 30.0000000  0  9G02G21G05G10G13G25G29G16G07
   3288253.79747   2601069.38745
                  22709582.2274                                   22709576.8714
                                                                        47.5004
        34.2504
   9650463.50046   7565467.07843
                  24763842.2274                                   24763838.3444
                                                                        41.5004
        21.2504
 -23755004.14548 -18429076.27047
                  20654296.6564                                   20654293.4224
                                                                        51.5004
        43.5004
 -20052536.96148 -15549524.80546
                  20431426.6484                                   20431423.9104
                                                                        51.5004
        41.5004
   1519105.59047   1228368.39844
                  23214588.3134                                   23214584.3524
                                                                        43.2504
        26.0004
 -16330550.64147 -12657764.89545
                  22646755.5554                                   22646751.8284
                                                                        46.0004
        31.7504
 -12239907.85548  -9473079.12546
                  22398528.0784                                   22398525.7344
                                                                        48.7504
        37.7504
  -6482000.19147  -5013838.64844
                  23668434.2504                                   23668430.2034
                                                                        43.2504
        25.5004
 -11692857.43447  -9076177.46145
                  22576829.5554                                   22576825.5554
                                                                        47.0004
        33.2504
 09 10 25  0 59  0.0000000  0  9G02G21G05G10G13G25G29G16G07
   3304981.11747   2614103.80145
                  22712764.7504                                   22712759.7424
                                                                        45.7504
        34.0004
   9460594.40647   7417517.08643
                  24727712.0164                                   24727707.4804
                                                                        43.0004
        22.0004
 -23863282.46148 -18513448.76647
                  20633691.6804                                   20633688.6684
                                                                        51.7504
        43.2504
 -20134857.85248 -15613671.21546
                  20415761.7814                                   20415758.5664
                                                                        52.2504
        41.2504
   1532848.33646   1239077.38344
                  23217202.8674                                   23217199.1294
                                                                        41.5004
        25.7504
 -16393068.86347 -12706480.57445
                  22634858.5474                                   22634855.4224
                                                                        46.7504
        32.0004
 -12279887.00048  -9504231.51646
                  22390920.5634                                   22390917.7464
                                                                        48.5004
        38.0004
  -6547476.43447  -5064859.10244
                  23655974.5394                                   23655970.1994
                                                                        44.7504
        26.5004
 -11814094.03947  -9170647.29345
                  22553758.9304                                   22553754.6844
                                                                        47.5004
        34.0004
 09 10 25  0 59 30.0000000  0  9G02G21G05G10G13G25G29G16G07
   3322038.52347   2627395.31645
                  22716010.2664                                   22716005.5354
                                                                        45.2504
        33.7504
   9270881.86746   7269689.09843
                  24691610.8754                                   24691606.5274
                                                                        41.7504
        21.5004
 -23971000.25048 -18597384.45747
                  20613193.4224                                   20613189.9924
                                                                        52.0004
        43.7504
 -20216579.26648 -15677350.34446
                  20400210.8364                                   20400207.3054
                                                                        52.2504
        41.7504
   1546936.71946   1250055.06644
                  23219884.0164                                   23219880.7774
                                                                        40.0004
        25.2504
 -16454990.75847 -12754089.07055
                  22623076.2344                                   22623073.7274
                                                                        45.5004
        31.5004
 -12319288.52748  -9534934.30546
                  22383423.0704                                   22383420.2274
                                                                        49.0004
        38.0004
  -6612324.89547  -5115390.35944
                  23643635.0234                                   23643630.3794
                                                                        43.2504
        24.5004
 -11934709.61347  -9264633.18745
                  22530805.4844                                   22530802.1414
                                                                        47.2504
        33.7504
 09 10 25  1  0  0.0000000  0  9G02G21G05G10G13G25G29G16G07
   3339421.82047   2640940.54745
                  22719318.6334                                   22719314.4064
                                                                        47.7504
        34.5004
   9081326.67646   7121983.73443
                  24655539.4064                                   24655535.4024
                                                                        40.2504
        20.2504
 -24078159.01248 -18680884.80947
                  20592801.8674                                   20592798.0044
                                                                        51.5004
        43.5004
 -20297701.81648 -15740562.57447
                  20384773.7114                                   20384770.3484
                                                                        52.5004
        42.0004
   1561364.12547   1261294.56643
                  23222630.5234                                   23222628.8524
                                                                        42.0004
        23.7504
 -16516311.30947 -12801870.56245
                  22611406.5474                                   22611403.6764
                                                                        46.5004
        30.0004
 -12358115.62948  -9564786.85256
                  22376034.7894                                   22376032.1914
                                                                        48.7504
        38.0004
  -6676547.70747  -5165434.14544
                  23631413.0164                                   23631408.4844
                                                                        44.0004
        25.2504
 -12054706.15647  -9358137.48845
                  22507971.8524                                   22507967.5164
                                                                        47.0004
        32.7504
 09 10 25  1  0 30.0000000  0  9G02G21G05G10G13G25G29G16G07
   3357128.97747   2654738.44545
                  22722688.3594                                   22722683.6414
                                                                        46.2504
        34.7504
   8891929.84446   6974401.71543
                  24619497.8284                                   24619494.4534
                                                                        40.5004
        21.2504
 -24184758.04748 -18763948.94947
                  20572516.8914                                   20572513.1334
                                                                        52.0004
        43.5004
 -20378227.48048 -15803309.72346
                  20369450.1484                                   20369446.7584
                                                                        51.2504
        41.5004
   1576136.09846   1272424.83253
                  23225441.8204                                   23225439.2194
                                                                        40.2504
        23.7504
 -16577038.57447 -12849190.84845
                  22599851.1564                                   22599848.2424
                                                                        45.7504
        31.2504
 -12396369.80548  -9594596.24646
                  22368755.9844                                   22368753.6764
                                                                        48.5004
        37.5004
  -6740146.74647  -5214991.87544
                  23619311.3984                                   23619306.4264
                                                                        43.7504
        25.7504
 -12174080.13347  -9451155.99245
                  22485255.5944                                   22485251.5904
                                                                        46.7504
        33.5004
 09 10 25  1  1  0.0000000  0  9G02G21G05G10G13G25G29G16G07
   3375157.08647   2668786.18445
                  22726118.9844                                   22726114.0554
                                                                        46.0004
        34.0004
   8702693.85946   6826944.97343
                  24583487.7814                                   24583484.0394
                                                                        40.2504
        22.2504
 -24290797.04348 -18846577.00047
                  20552338.1334                                   20552334.8484
                                                                        51.2504
        43.7504
 -20458157.14148 -15865593.02046
                  20354240.3204                                   20354236.9494
                                                                        51.5004
        41.7504
   1591241.949 6
                  23228317.227
                                                                        41.500

 -16637170.61747 -12896047.21145
                  22588408.8594                                   22588405.7974
                                                                        46.7504
        31.7504
 -12434050.54348  -9623957.99246
                  22361585.6414                                   22361583.4534
                                                                        48.0004
        36.7504
  -6803122.08247  -5264063.56644
                  23607327.0004                                   23607323.0044
                                                                        43.2504
        25.7504
 -12292830.81647  -9543688.83645
                  22462658.0394                                   22462653.9574
                                                                        47.5004
        34.0004
 09 10 25  1  1 30.0000000  0  9G02G21G05G10G13G25G29G16G07
   3393501.68847   2683080.22345
                  22729609.9064                                   22729605.0554
                                                                        46.5004
        33.0004
   8513619.36346   6679614.10943
                  24547508.6804                                   24547504.0944
                                                                        40.5004
        22.2504
 -24396275.52348 -18928767.54347
                  20532265.9924                                   20532262.2664
                                                                        50.7504
        43.5004
 -20537490.91448 -15927411.40246
                  20339143.4304                                   20339140.2974
                                                                        50.0004
        41.7504
   1606685.92247   1292755.43854
                  23231254.7344                                   23231252.4064
                                                                        43.2504
        24.5004
 -16696708.91047 -12942440.01645
                  22577078.5164                                   22577075.0274
                                                                        47.0004
        31.7504
 -12471161.43048  -9652874.93446
                  22354523.2664                                   22354520.2624
                                                                        48.2504
        36.7504
  -6865476.69947  -5312651.58644
                  23595461.1414                                   23595457.2154
                                                                        43.2504
        25.2504
 -12410959.40247  -9635737.24645
                  22440179.2034                                   22440175.0554
                                                                        47.5004
        33.7504
 09 10 25  1  2  0.0000000  0  9G02G21G05G10G13G25G29G16G07
   3412162.84447   2697621.68445
                  22733161.3594                                   22733156.2194
                                                                        47.0004
        33.5004
   8324708.94546   6532411.17644
                  24511560.3134                                   24511556.4454
                                                                        40.2504
        24.5004
 -24501194.41048 -19010522.44947
                  20512300.6954                                   20512296.9654
                                                                        52.0004
        43.7504
 -20616229.19548 -15988765.67246
                  20324159.6334                                   20324156.8794
                                                                        51.5004
        41.5004
   1622455.38347   1305042.64543
                  23234256.3284                                   23234253.2894
                                                                        43.5004
        22.5004
 -16755657.21147 -12988373.78145
                  22565861.1024                                   22565857.3834
                                                                        46.5004
        31.2504
 -12507707.07847  -9681352.31246
                  22347568.7734                                   22347566.0514
                                                                        47.5004
        36.5004
  -6927211.12947  -5360756.35244
                  23583714.0704                                   23583709.4574
                                                                        42.5004
        24.0004
 -12528463.71147  -9727299.07445
                  22417818.5314                                   22417814.7114
                                                                        47.2504
        34.2504
 09 10 25  1  2 30.0000000  0  9G02G21G05G10G13G25G29G16G07
   3431138.84847   2712408.10245
                  22736772.1884                                   22736767.3364
                                                                        45.5004
        33.2504
   8135967.28946   6385339.81643
                  24475643.5634                                   24475639.5864
                                                                        41.0004
        22.5004
 -24605550.63748 -19091839.18047
                  20492442.4384                                   20492439.0234
                                                                        51.0004
        43.7504
 -20694370.16048 -16049654.39146
                  20309289.9144                                   20309286.6804
                                                                        52.0004
        41.7504
   1638555.34847   1317587.77043
                  23237320.5634                                   23237316.7774
                                                                        44.0004
        22.5004
 -16814014.77047 -13033848.48445
                  22554756.5474                                   22554754.6374
                                                                        46.0004
        31.5004
 -12543683.73048  -9709385.79346
                  22340722.4384                                   22340719.6054
                                                                        48.2504
        37.0004
  -6988323.75047  -5408376.56244
                  23572085.1484                                   23572079.6564
                                                                        43.7504
        24.0004
 -12645340.75047  -9818372.71945
                  22395577.8594                                   22395574.1024
                                                                        46.7504
        33.2504
 09 10 25  1  3  0.0000000  0  9G02G21G05G10G13G25G29G16G07
   3450426.32047   2727437.02345
                  22740442.7894                                   22740437.9024
                                                                        44.7504
        33.2504
   7947395.03546   6238400.34443
                  24439759.4694                                   24439755.5354
                                                                        41.2504
        22.7504
 -24709344.63748 -19172718.09847
                  20472691.0554                                   20472687.5234
                                                                        51.0004
        43.7504
 -20771916.60248 -16110080.41046
                  20294533.2894                                   20294530.1804
                                                                        51.0004
        41.7504
   1654983.41846   1330389.16443
                  23240445.9614                                   23240443.7854
                                                                        41.2504
        22.5004
 -16871778.84047 -13078859.58245
                  22543764.8594                                   22543762.4924
                                                                        46.2504
        30.7504
 -12579096.17648  -9736980.16846
                  22333983.5704                                   22333981.6564
                                                                        48.2504
        36.7504
  -7048816.39847  -5455513.70744
                  23560572.9924                                   23560568.6564
                                                                        44.5004
        24.2504
 -12761588.39547  -9908955.50445
                  22373457.1094                                   22373453.0234
                                                                        46.5004
        33.5004
 09 10 25  1  3 30.0000000  0  9G02G21G05G10G13G25G29G16G07
   3470019.27047   2742704.31645
                  22744170.9924                                   22744166.6914
                                                                        45.7504
        33.0004
   7758989.92246   6091591.05543
                  24403907.2734                                   24403902.8954
                                                                        40.0004
        20.0004
 -24812580.62948 -19253161.30147
                  20453045.7814                                   20453042.5944
                                                                        51.7504
        43.2504
 -20848871.20748 -16170044.97346
                  20279889.3834                                   20279886.2854
                                                                        52.0004
        41.5004
   1671731.81647   1343441.00843
                  23243632.5164                                   23243629.4574
                                                                        42.0004
        22.5004
 -16928956.84047 -13123413.64845
                  22532884.1484                                   22532881.4924
                                                                        46.5004
        31.0004
 -12613951.29348  -9764140.90646
                  22327352.3054                                   22327349.5704
                                                                        48.5004
        36.7504
  -7108694.75847  -5502172.14544
                  23549178.5234                                   23549173.9734
                                                                        43.7504
        24.7504
 -12877210.64147  -9999050.79345
                  22351454.3834                                   22351451.2194
                                                                        46.5004
        33.0004
 09 10 25  1  4  0.0000000  0  9G02G21G05G10G13G25G29G16G07
   3489917.58647   2758209.29745
                  22747957.9384                                   22747952.5084
                                                                        46.5004
        33.0004
   7570757.04346   5944915.96143
                  24368087.3134                                   24368083.2234
                                                                        40.2504
        21.5004
 -24915252.72348 -19333165.37547
                  20433507.9924                                   20433504.2234
                                                                        51.7504
        43.5004
 -20925231.93748 -16229546.69546
                  20265358.2974                                   20265355.0354
                                                                        51.7504
        41.5004
   1688797.82447   1356739.28943
                  23246879.2504                                   23246876.7114
                                                                        42.0004
        22.7504
 -16985548.88347 -13167511.96545
                  22522115.5394                                   22522113.0044
                                                                        45.7504
        32.0004
 -12648245.60948  -9790509.57556
                  22320826.5084                                   22320823.7154
                                                                        48.7504
        40.0004
  -7167956.85947  -5548350.37543
                  23537901.2814                                   23537896.7114
                                                                        42.2504
        23.7504
 -12992204.06247 -10088656.16845
                  22329572.2974                                   22329568.8714
                                                                        46.5004
        33.5004
 09 10 25  1  4 30.0000000  0  9G02G21G05G10G13G25G29G16G07
   3510124.89147   2773954.98445
                  22751803.4924                                   22751798.5274
                                                                        46.5004
        32.5004
   7382704.85246   5798381.80143
                  24332303.0634                                   24332299.2734
                                                                        41.0004
        21.5004
 -25017356.64848 -19412727.16447
                  20414078.2584                                   20414074.7344
                                                                        50.0004
        43.7504
 -21000994.26248 -16288582.46146
                  20250941.6724                                   20250938.1334
                                                                        50.2504
        41.2504
   1706185.85546   1370288.23444
                  23250189.0394                                   23250185.7154
                                                                        40.2504
        24.5004
 -17041546.04347 -13211145.29745
                  22511458.6484                                   22511456.0124
                                                                        46.2504
        31.2504
 -12681970.38748  -9816786.59446
                  22314407.6254                                   22314404.7344
                                                                        48.7504
        36.7504
  -7226597.82047  -5594044.59843
                  23526742.1804                                   23526737.3634
                                                                        43.0004
        22.7504
 -13106561.10547 -10177765.71145
                  22307811.1094                                   22307807.9534
                                                                        47.0004
        33.7504
 09 10 25  1  5  0.0000000  0  9G02G21G05G10G13G25G29G16G07
   3530633.10247   2789935.42245
                  22755706.2894                                   22755701.1374
                                                                        45.5004
        33.2504
   7194828.87546   5651984.91443
                  24296550.8754                                   24296546.9924
                                                                        41.7504
        23.7504
 -25118897.14548 -19491849.40247
                  20394755.6564                                   20394752.0904
                                                                        50.5004
        44.0004
 -21076163.66448 -16347156.00446
                  20236637.3134                                   20236633.8674
                                                                        51.7504
        41.0004
   1723888.04347   1384082.33644
                  23253557.3594                                   23253554.5004
                                                                        42.2504
        26.5004
 -17096959.89547 -13254325.11745
                  22500913.8524                                   22500911.1024
                                                                        45.7504
        30.5004
 -12715142.16848  -9842634.37946
                  22308095.1024                                   22308092.0554
                                                                        48.5004
        37.0004
  -7284624.94147  -5639260.57044
                  23515700.0634                                   23515695.6914
                                                                        43.0004
        26.0004
 -13220286.29747 -10266382.67245
                  22286169.8984                                   22286166.0944
                                                                        47.0004
        33.5004
 09 10 25  1  5 30.0000000  0  9G02G21G05G10G13G25G29G16G07
   3551439.18847   2806148.29745
                  22759664.6484                                   22759660.5594
                                                                        46.0004
        32.5004
   7007130.25847   5505726.27044
                  24260833.3524                                   24260830.0784
                                                                        42.0004
        26.5004
 -25219876.08248 -19570534.53947
                  20375540.4694                                   20375536.7194
                                                                        50.5004
        43.7504
 -21150741.57048 -16405268.60246
                  20222445.2584                                   20222442.2934
                                                                        50.7504
        41.5004
   1741897.92246   1398114.96144
                  23256985.7814                                   23256983.7624
                                                                        41.5004
        24.0004
 -17151787.70347 -13297046.71945
                  22490479.4144                                   22490476.7544
                                                                        46.0004
        31.5004
 -12747760.85948  -9868051.23446
                  22301887.7424                                   22301884.7544
                                                                        49.5004
        36.7504
  -7342040.10947  -5683999.70344
                  23504774.7034                                   23504769.7624
                                                                        43.2504
        25.5004
 -13333380.37547 -10354508.03945
                  22264649.1024                                   22264644.8834
                                                                        47.0004
        33.2504
 09 10 25  1  6  0.0000000  0  9G02G21G05G10G13G25G29G16G07
   3572535.42647   2822587.10245
                  22763679.3594                                   22763674.6724
                                                                        45.7504
        33.2504
   6819606.97747   5359604.25044
                  24225148.5784                                   24225145.3634
                                                                        42.5004
        25.2504
 -25320296.66848 -19648784.53547
                  20356430.7114                                   20356427.5864
                                                                        50.5004
        43.7504
 -21224733.02048 -16462924.29346
                  20208365.2034                                   20208362.0704
                                                                        50.7504
        41.5004
   1760216.71146   1412390.94943
                  23260470.1414                                   23260466.9614
                                                                        39.7504
        22.2504
 -17206039.17647 -13339319.94145
                  22480155.3754                                   22480152.3324
                                                                        46.5004
        31.5004
 -12779832.03148  -9893041.49646
                  22295784.4534                                   22295781.4844
                                                                        48.2504
        36.7504
  -7398849.07047  -5728266.48044
                  23493964.0784                                   23493959.3554
                                                                        43.5004
        24.5004
 -13445845.22347 -10442142.68445
                  22243247.7114                                   22243243.9064
                                                                        47.5004
        33.5004
 09 10 25  1  6 30.0000000  0  9G02G21G05G10G13G25G29G16G07
   5169341.46947   4066851.23845
                  23067541.6024                                   23067536.7154
                                                                        46.2504
        33.0004
   8207690.73046   6441228.00843
                  24489292.2114                                   24489288.2894
                                                                        41.0004
        22.7504
 -23844730.36748 -18498992.39147
                  20637221.9534                                   20637218.1414
                                                                        50.5004
        43.2504
 -19722712.94148 -15292519.27746
                  20494190.0004                                   20494187.0664
                                                                        51.0004
        41.2504
   3354254.59846   2654498.16843
                  23563804.8134                                   23563801.7734
                                                                        39.0004
        21.7504
 -15684289.96147 -12153541.08645
                  22769734.3834                                   22769731.3914
                                                                        45.2504
        30.5004
 -11235933.58648  -8690003.57046
                  22589578.1484                                   22589575.2664
                                                                        48.2504
        36.5004
  -5879627.44146  -4544457.41844
                  23783062.0784                                   23783058.1524
                                                                        41.0004
        24.7504
 -11982253.56647  -9301681.22745
                  22521759.3054                                   22521755.4844
                                                                        47.5004
        34.0004
 09 10 25  1  7  0.0000000  0  9G02G21G05G10G13G25G29G16G07
   5191018.44947   4083742.13345
                  23071667.1484                                   23071662.0044
                                                                        46.5004
        33.2504
   8020532.21946   6295390.16043
                  24453677.1484                                   24453672.9344
                                                                        41.0004
        22.5004
 -23944023.62948 -18576363.50047
                  20618326.7664                                   20618322.9694
                                                                        50.7504
        43.7504
 -19795525.33248 -15349256.44146
                  20480334.7974                                   20480331.8444
                                                                        50.5004
        41.5004
   3373177.20746   2669243.79743
                  23567406.0634                                   23567402.7304
                                                                        39.5004
        21.7504
 -15737382.75847 -12194911.82045
                  22759631.2734                                   22759627.3364
                                                                        45.2504
        30.2504
 -11266908.87148  -8714140.21546
                  22583683.8444                                   22583681.0664
                                                                        48.0004
        36.7504
  -5935218.99647  -4587775.56244
                  23772483.4304                                   23772479.4654
                                                                        42.0004
        25.0004
 -12093451.74647  -9388329.18445
                  22500599.0864                                   22500595.0664
                                                                        47.0004
        34.0004
 09 10 25  1  7 30.0000000  0  9G02G21G05G10G13G25G29G16G07
   5212985.26647   4100859.40245
                  23075846.8054                                   23075841.8134
                                                                        46.2504
        32.5004
   7833561.00046   6149698.49243
                  24418097.6644                                   24418093.7114
                                                                        40.5004
        21.7504
 -24042749.50848 -18653292.73847
                  20599539.8674                                   20599536.1094
                                                                        51.7504
        43.7504
 -19867746.39148 -15405532.35946
                  20466591.4924                                   20466588.2504
                                                                        51.2504
        41.2504
   3392399.07446   2684222.06643
                  23571063.5944                                   23571059.9384
                                                                        40.5004
        22.5004
 -15789896.31247 -12235831.35544
                  22749637.7344                                   22749633.8164
                                                                        46.2504
        29.2504
 -11297337.32448  -8737850.86346
                  22577893.5554                                   22577890.9924
                                                                        48.5004
        36.2504
  -5990202.42647  -4630619.82844
                  23762020.3444                                   23762016.5984
                                                                        42.7504
        24.5004
 -12204011.82047  -9474479.21145
                  22479559.6724                                   22479556.0984
                                                                        46.7504
        34.0004
 09 10 25  1  8  0.0000000  0  9G02G21G05G10G13G25G29G16G07
   5235236.56347   4118197.84045
                  23080081.2664                                   23080076.7114
                                                                        46.2504
        32.2504
   7646777.80146   6004153.14143
                  24382553.8914                                   24382549.7074
                                                                        41.2504
        21.0004
 -24140913.02748 -18729783.73847
                  20580859.9694                                   20580856.5164
                                                                        49.7504
        43.5004
 -19939378.71948 -15461349.69146
                  20452960.1954                                   20452957.1604
                                                                        50.5004
        41.5004
   3411918.16046   2699432.17643
                  23574777.6954                                   23574773.9494
                                                                        39.0004
        22.5004
 -15841832.33247 -12276300.77045
                  22739755.1094                                   22739751.1994
                                                                        47.0004
        30.5004
 -11327221.04348  -8761136.73446
                  22572206.5864                                   22572203.8834
                                                                        48.0004
        36.5004
  -6044579.28947  -4672991.39544
                  23751672.7194                                   23751668.6094
                                                                        43.0004
        24.7504
 -12313935.92647  -9560134.10945
                  22458641.4064                                   22458637.3984
                                                                        47.2504
        33.5004
 09 10 25  1  8 30.0000000  0  9G02G21G05G10G13G25G29G16G07
   5257768.60247   4135755.21545
                  23084368.5944                                   23084363.9924
                                                                        45.5004
        32.0004
   7460182.51647   5858754.26243
                  24347045.9224                                   24347041.6454
                                                                        42.5004
        22.0004
 -24238516.75848 -18805838.59847
                  20562286.3914                                   20562283.2034
                                                                        51.7504
        43.5004
 -20010425.16048 -15516710.55546
                  20439440.5864                                   20439437.2344
                                                                        51.7504
        41.5004
   3431728.28546   2714868.75043
                  23578547.1174                                   23578543.6134
                                                                        41.2504
        23.0004
 -15893195.95747 -12316324.86745
                  22729980.6954                                   22729977.4654
                                                                        46.0004
        31.0004
 -11356565.16048  -8784002.43046
                  22566623.4774                                   22566620.3484
                                                                        48.0004
        36.0004
  -6098354.01647  -4714893.78943
                  23741440.0084                                   23741435.6054
                                                                        43.2504
        23.7504
 -12423224.75447  -9645294.10545
                  22437844.5474                                   22437840.7734
                                                                        47.2504
        34.0004
 09 10 25  1  9  0.0000000  0  9G02G21G05G10G13G25G29G16G07
   5280577.52747   4153528.31645
                  23088709.5004                                   23088704.7194
                                                                        44.7504
        32.0004
   7273776.31347   5713502.60243
                  24311574.0634                                   24311569.5984
                                                                        43.0004
        22.5004
 -24335558.45748 -18881455.84447
                  20543820.1484                                   20543816.6564
                                                                        50.7504
        44.0004
 -20080887.03948 -15571615.89546
                  20426032.1094                                   20426028.7544
                                                                        50.2504
        41.5004
   3451826.19946   2730529.58643
                  23582371.8204                                   23582367.9924
                                                                        40.5004
        22.7504
 -15943986.89147 -12355902.09844
                  22720315.6254                                   22720311.9964
                                                                        46.2504
        29.5004
 -11385371.39848  -8806448.48446
                  22561141.4224                                   22561138.4384
                                                                        48.0004
        36.7504
  -6151528.60547  -4756328.57844
                  23731320.8364                                   23731317.1804
                                                                        43.2504
        25.2504
 -12531878.26247  -9729959.13745
                  22417168.3204                                   22417164.6214
                                                                        47.7504
        33.5004
 09 10 25  1  9 30.0000000  0  9G02G21G05G10G13G25G29G16G07
   5303662.10947   4171516.43445
                  23093102.4224                                   23093097.4024
                                                                        44.5004
        32.0004
   7087562.11347   5568400.72744
                  24276138.2894                                   24276134.7234
                                                                        43.0004
        24.0004
 -24432036.62948 -18956633.82847
                  20525461.3364                                   20525457.7934
                                                                        51.0004
        43.7504
 -20150764.90648 -15626066.53546
                  20412735.0704                                   20412731.7584
                                                                        50.5004
        41.5004
   3472209.53946   2746412.44543
                  23586250.8524                                   23586247.2854
                                                                        41.2504
        23.7504
 -15994207.02747 -12395034.69944
                  22710758.8674                                   22710755.1724
                                                                        44.5004
        29.5004
 -11413642.60247  -8828477.81246
                  22555761.2194                                   22555758.6454
                                                                        47.5004
        36.7504
  -6204103.33247  -4797295.94944
                  23721316.7664                                   23721313.0084
                                                                        42.5004
        26.2504
 -12639894.64547  -9814127.69545
                  22396613.6724                                   22396609.7304
                                                                        47.0004
        34.5004
 09 10 25  1 10  0.0000000  0  9G02G21G05G10G13G25G29G16G07
   5327019.31347   4189716.48045
                  23097546.6804                                   23097542.0864
                                                                        43.5004
        32.2504
   6901542.41847   5423450.32844
                  24240740.2814                                   24240736.3364
                                                                        43.0004
        26.0004
 -24527951.21548 -19031372.63747
                  20507209.4384                                   20507205.8014
                                                                        51.5004
        44.0004
 -20220057.44948 -15680060.83646
                  20399549.1024                                   20399545.7734
                                                                        50.7504
        41.5004
   3492877.08647   2762517.11743
                  23590183.8054                                   23590179.8014
                                                                        42.2504
        22.7504
 -16043856.71147 -12433722.71544
                  22701311.0004                                   22701307.1454
                                                                        45.0004
        28.5004
 -11441380.19548  -8850091.67246
                  22550483.3204                                   22550480.7274
                                                                        48.0004
        36.7504
  -6256078.94147  -4837796.46544
                  23711426.4384                                   23711422.1954
                                                                        44.0004
        24.5004
 -12747275.22347  -9897802.12945
                  22376180.3914                                   22376177.0314
                                                                        47.0004
        34.2504
 09 10 25  1 10 30.0000000  0 10G02G21G05G10G13G15G25G29G16G07
   5350646.40247   4208126.95745
                  23102043.2194                                   23102039.1414
                                                                        43.7504
        31.5004
   6715718.40646   5278652.63344
                  24205378.7974                                   24205375.0744
                                                                        41.2504
        25.5004
 -24623304.27748 -19105673.62947
                  20489064.5474                                   20489060.7114
                                                                        51.5004
        43.5004
 -20288767.37948 -15733601.18446
                  20386474.2344                                   20386470.8014
                                                                        50.0004
        41.7504
   3513824.24646   2778839.52743
                  23594169.3834                                   23594165.5664
                                                                        40.7504
        21.2504
  12355654.03957   9648668.85254
                  24407362.9224                                   24407360.9144
                                                                        43.0004
        27.7504
 -16092939.16447 -12471968.82844
                  22691970.3134                                   22691966.9384
                                                                        45.2504
        29.5004
 -11468586.58247  -8871291.29346
                  22545305.3524                                   22545302.9144
                                                                        47.0004
        36.0004
  -6307458.40647  -4877832.38344
                  23701648.7424                                   23701644.9454
                                                                        43.5004
        26.7504
 -12854015.10548  -9980975.89145
                  22355868.3204                                   22355865.1294
                                                                        48.2504
        34.5004
 09 10 25  1 11  0.0000000  0 10G02G21G05G10G13G15G25G29G16G07
   5374537.12947   4226742.96945
                  23106589.6254                                   23106585.0664
                                                                        43.7504
        30.7504
   6530087.75846   5134005.39544
                  24170054.6254                                   24170051.0084
                                                                        40.5004
        26.2504
 -24718097.66048 -19179538.64547
                  20471025.5394                                   20471022.1604
                                                                        51.0004
        44.0004
 -20356898.71948 -15786690.39846
                  20373509.2424                                   20373505.9964
                                                                        51.0004
        41.5004
   3535044.77746   2795375.02343
                  23598207.6094                                   23598203.6844
                                                                        40.7504
        20.5004
  12154864.64146   9492209.99244
                  24369152.6174                                   24369150.9304
                                                                        40.7504
        27.2504
 -16141458.94947 -12509776.36744
                  22682737.3444                                   22682734.1994
                                                                        44.7504
        29.7504
 -11495268.12147  -8892082.09446
                  22540228.2734                                   22540225.5744
                                                                        47.7504
        36.5004
  -6358246.93447  -4917407.89844
                  23691984.1564                                   23691980.2194
                                                                        44.5004
        26.5004
 -12960119.21947 -10063653.83245
                  22335677.1174                                   22335673.2114
                                                                        47.2504
        33.7504
 09 10 25  1 11 30.0000000  0 10G02G21G05G10G13G15G25G29G16G07
   5398689.48047   4245563.13345
                  23111185.7114                                   23111180.9924
                                                                        43.2504
        31.0004
   6344653.22346   4989511.08244
                  24134766.8524                                   24134763.4734
                                                                        40.2504
        24.0004
 -24812331.71948 -19252967.63347
                  20453093.4614                                   20453090.3634
                                                                        50.5004
        43.5004
 -20424452.89848 -15839330.07046
                  20360653.9844                                   20360650.7974
                                                                        50.0004
        41.7504
   3556535.68046   2812121.10543
                  23602297.6024                                   23602293.2814
                                                                        41.5004
        21.2504
  11954212.20346   9335857.87544
                  24330970.0314                                   24330967.6054
                                                                        41.7504
        26.5004
 -16189417.68447 -12547146.75845
                  22673611.5474                                   22673608.0514
                                                                        45.7504
        30.2504
 -11521427.13348  -8912465.81246
                  22535250.8204                                   22535247.6294
                                                                        48.7504
        36.2504
  -6408446.03547  -4956524.20344
                  23682431.3984                                   23682428.4494
                                                                        44.5004
        25.5004
 -13065588.49648 -10145837.50045
                  22315606.6644                                   22315603.2704
                                                                        48.5004
        34.0004
 09 10 25  1 12  0.0000000  0 10G02G21G05G10G13G15G25G29G16G07
   5423099.87547   4264584.52745
                  23115830.8284                                   23115825.9454
                                                                        45.5004
        32.5004
   6159416.13746   4845170.55544
                  24099518.1334                                   24099513.3754
                                                                        39.7504
        24.5004
 -24906006.70348 -19325961.09447
                  20435267.6414                                   20435264.1254
                                                                        50.7504
        44.0004
 -20491429.93448 -15891519.73846
                  20347908.4304                                   20347905.2504
                                                                        50.5004
        41.5004
   3578294.13747   2829075.69543
                  23606438.0554                                   23606434.1484
                                                                        42.0004
        22.0004
  11753697.70747   9179612.66844
                  24292814.4304                                   24292810.9494
                                                                        45.0004
        27.5004
 -16236817.15647 -12584081.34044
                  22664591.5004                                   22664587.6564
                                                                        45.0004
        29.7504
 -11547066.06648  -8932444.41046
                  22530371.8134                                   22530368.8984
                                                                        48.0004
        36.0004
  -6458057.29747  -4995182.47744
                  23672990.7734                                   23672987.1804
                                                                        44.0004
        26.0004
 -13170421.74248 -10227525.64145
                  22295657.3364                                   22295653.7704
                                                                        48.0004
        34.5004
 09 10 25  1 12 30.0000000  0 10G02G21G05G10G13G15G25G29G16G07
   5447767.65247   4283806.18045
                  23120524.5394                                   23120520.2194
                                                                        44.0004
        31.0004
   5974380.95746   4700987.30143
                  24064307.2034                                   24064302.7664
                                                                        41.5004
        22.5004
 -24999121.51648 -19398518.00047
                  20417548.5314                                   20417545.2664
                                                                        51.0004
        44.2504
 -20557829.23848 -15943259.36746
                  20335273.1484                                   20335270.0354
                                                                        51.7504
        41.5004
   3600319.75046   2846238.55943
                  23610629.8524                                   23610625.6094
                                                                        40.7504
        22.0004
  11553325.99247   9023478.38744
                  24254684.8984                                   24254680.9534
                                                                        45.0004
        27.0004
 -16283656.97347 -12620580.05944
                  22655678.4304                                   22655674.6174
                                                                        44.2504
        29.0004
 -11572183.09848  -8952015.71946
                  22525591.9304                                   22525588.8244
                                                                        48.0004
        36.2504
  -6507079.77747  -5033381.91444
                  23663662.4774                                   23663658.8364
                                                                        44.2504
        26.0004
 -13274615.75447 -10308715.75045
                  22275830.1484                                   22275826.3674
                                                                        47.5004
        33.5004
 09 10 25  1 13  0.0000000  0 10G02G21G05G10G13G15G25G29G16G07
   5472695.54747   4303230.34045
                  23125268.2114                                   23125263.4924
                                                                        44.0004
        31.5004
   5789554.79747   4556966.84844
                  24029136.2194                                   24029131.5164
                                                                        42.2504
        24.7504
 -25091669.32848 -19470632.99647
                  20399936.8594                                   20399933.7424
                                                                        51.2504
        44.0004
 -20623646.35248 -15994545.40246
                  20322748.5634                                   20322745.3634
                                                                        51.7504
        41.5004
   3622614.88746   2863611.50443
                  23614871.9304                                   23614868.0514
                                                                        38.7504
        22.7504
  11353106.18847   8867463.11744
                  24216584.2114                                   24216580.1804
                                                                        44.5004
        25.2504
 -16329932.61747 -12656638.89144
                  22646872.3914                                   22646868.8134
                                                                        45.5004
        29.5004
 -11596776.59047  -8971178.94546
                  22520911.4064                                   22520908.1724
                                                                        47.2504
        36.0004
  -6555510.02047  -5071119.82044
                  23654446.5864                                   23654442.6684
                                                                        44.0004
        25.0004
 -13378164.94948 -10389403.40645
                  22256125.5004                                   22256121.3444
                                                                        48.0004
        34.7504
 09 10 25  1 13 30.0000000  0 10G02G21G05G10G13G15G25G29G16G07
   5497882.83247   4322856.55545
                  23130061.6414                                   23130057.1564
                                                                        45.5004
        31.5004
   5604941.82447   4413112.61344
                  23994005.3134                                   23994001.2194
                                                                        43.0004
        24.7504
 -25183648.92648 -19542305.28947
                  20382433.7894                                   20382430.1764
                                                                        50.5004
        44.5004
 -20688880.21548 -16045377.01246
                  20310334.8204                                   20310331.8244
                                                                        51.0004
        41.2504
   3645177.49246   2881192.61343
                  23619164.9924                                   23619161.7624
                                                                        40.5004
        21.7504
  11153040.84847   8711568.41844
                  24178512.1094                                   24178509.5314
                                                                        42.5004
        25.2504
 -16375644.20747 -12692258.15644
                  22638173.4924                                   22638170.1054
                                                                        46.2504
        29.5004
 -11620847.77348  -8989935.52745
                  22516330.5314                                   22516327.7704
                                                                        48.0004
        35.2504
  -6603348.05547  -5108396.25444
                  23645343.3444                                   23645339.6094
                                                                        44.5004
        26.0004
 -13481066.81248 -10469586.64845
                  22236543.6644                                   22236539.7704
                                                                        48.2504
        34.0004
 09 10 25  1 14  0.0000000  0 10G02G21G05G10G13G15G25G29G16G07
   5523328.70347   4342684.48045
                  23134903.5004                                   23134899.0704
                                                                        44.7504
        30.2504
   5420545.10547   4269426.81644
                  23958915.8594                                   23958911.8014
                                                                        42.7504
        24.5004
 -25275058.43448 -19613533.36747
                  20365039.1954                                   20365035.6294
                                                                        50.0004
        43.5004
 -20753530.76648 -16095754.32446
                  20298032.4924                                   20298029.4494
                                                                        49.5004
        41.2504
   3668007.02346   2898981.72343
                  23623509.1094                                   23623506.1024
                                                                        38.5004
        21.2504
  10953132.80546   8555796.15644
                  24140470.6254                                   24140468.1604
                                                                        41.0004
        27.7504
 -16420792.37147 -12727438.44544
                  22629582.4844                                   22629578.2304
                                                                        46.5004
        29.2504
 -11644396.96148  -9008285.39545
                  22511849.5634                                   22511846.1174
                                                                        48.2504
        35.5004
  -6650594.05147  -5145211.27344
                  23636352.5084                                   23636349.1604
                                                                        44.5004
        24.5004
 -13583319.93448 -10549264.42245
                  22217085.6564                                   22217081.8554
                                                                        48.5004
        34.2504
 09 10 25  1 14 30.0000000  0 10G02G21G05G10G13G15G25G29G16G07
   5549032.67647   4362713.59845
                  23139795.0394                                   23139790.3444
                                                                        44.7504
        30.5004
   5236368.99647   4125913.02344
                  23923867.5944                                   23923864.3714
                                                                        42.0004
        25.0004
 -25365896.68448 -19684316.48847
                  20347753.3594                                   20347749.6914
                                                                        50.2504
        43.5004
 -20817594.66048 -16145673.88746
                  20285841.0394                                   20285838.2664
                                                                        50.7504
        41.5004
   3691103.21546   2916978.84043
                  23627904.5474                                   23627901.7074
                                                                        41.0004
        21.5004
  10753386.55546   8400149.85945
                  24102459.9844                                   24102458.2154
                                                                        41.2504
        30.2504
 -16465377.06247 -12762180.10245
                  22621098.2344                                   22621094.2304
                                                                        44.7504
        30.5004
 -11667424.65647  -9026228.99645
                  22507467.0164                                   22507464.0234
                                                                        47.2504
        35.5004
  -6697247.40647  -5181564.52344
                  23627475.0704                                   23627470.8404
                                                                        43.5004
        26.0004
 -13684921.13348 -10628434.18445
                  22197751.7034                                   22197747.7234
                                                                        48.0004
        34.5004
 09 10 25  1 15  0.0000000  0 10G02G21G05G10G13G15G25G29G16G07
   5574989.00447   4382939.32045
                  23144734.1414                                   23144729.7194
                                                                        44.5004
        30.7504
   5052412.16847   3982570.07844
                  23888861.8524                                   23888858.2584
                                                                        43.0004
        26.5004
 -25456166.96548 -19754657.16047
                  20330575.3444                                   20330571.8484
                                                                        49.7504
        44.0004
 -20881077.91448 -16195141.12547
                  20273760.8754                                   20273757.5474
                                                                        50.0004
        42.0004
   3714459.47746   2935178.60243
                  23632349.3444                                   23632345.5084
                                                                        41.2504
        22.0004
  10553801.30147   8244629.05545
                  24064480.7194                                   24064477.8634
                                                                        43.0004
        31.5004
 -16509403.43447 -12796487.45744
                  22612721.4614                                   22612717.8364
                                                                        45.5004
        29.7504
 -11689935.72347  -9043770.05146
                  22503183.5634                                   22503180.4534
                                                                        47.0004
        36.0004
  -6743312.72747  -5217459.45344
                  23618708.9384                                   23618705.0164
                                                                        44.0004
        25.0004
 -13785873.02748 -10707097.98445
                  22178541.3914                                   22178537.4574
                                                                        48.0004
        34.0004
 09 10 25  1 15 30.0000000  0 10G02G21G05G10G13G15G25G29G16G07
   7176615.35947   5630959.93445
                  23449513.6024                                   23449509.0784
                                                                        44.5004
        30.2504
   6444104.06347   5067005.28944
                  24153692.7274                                   24153688.6564
                                                                        44.2504
        26.2504
 -23970443.36748 -18596950.29347
                  20613298.8674                                   20613295.4024
                                                                        51.0004
        43.7504
 -19368558.16848 -15016554.27046
                  20561583.6484                                   20561580.5004
                                                                        50.2504
        41.5004
   5313493.53147   4181179.29743
                  23936635.5004                                   23936631.2584
                                                                        42.0004
        20.5004
  11929806.73447   9316841.14144
                  24326326.2274                                   24326322.4884
                                                                        43.7504
        29.5004
 -14977445.71147 -11602753.39545
                  22904242.5554                                   22904239.6094
                                                                        45.0004
        30.0004
 -10136510.57047  -7833308.86745
                  22798790.9144                                   22798787.2544
                                                                        47.2504
        35.2504
  -5213369.14846  -4025295.51244
                  23909847.0554                                   23909842.7504
                                                                        41.7504
        25.0004
 -12310751.01248  -9557652.28545
                  22459247.7664                                   22459243.9884
                                                                        48.2504
        34.0004
 09 10 25  1 16  0.0000000  0 10G02G21G05G10G13G15G25G29G16G07
   7203073.93447   5651577.21144
                  23454548.5784                                   23454543.7304
                                                                        45.0004
        29.5004
   6260597.35547   4924013.09844
                  24118772.2734                                   24118768.3524
                                                                        43.0004
        26.5004
 -24059570.74648 -18666400.36347
                  20596339.0234                                   20596335.5474
                                                                        51.0004
        43.5004
 -19430877.51648 -15065114.86746
                  20549725.0474                                   20549721.4224
                                                                        51.0004
        41.2504
   5337366.77046   4199781.81343
                  23941178.6254                                   23941174.1374
                                                                        39.7504
        20.2504
  11730554.84047   9161579.93044
                  24288409.6484                                   24288406.0354
                                                                        43.5004
        28.5004
 -15020350.00847 -11636184.98045
                  22896077.8754                                   22896074.5124
                                                                        45.5004
        30.2504
 -10157990.41848  -7850046.40646
                  22794703.1484                                   22794699.7074
                                                                        48.0004
        36.0004
  -5258258.95747  -4060274.48044
                  23901305.2344                                   23901300.6454
                                                                        44.5004
        26.0004
 -12410397.76247  -9635299.00445
                  22440285.6954                                   22440281.5314
                                                                        47.0004
        35.0004
 09 10 25  1 16 30.0000000  0 10G02G21G05G10G13G15G25G29G16G07
   7229776.02347   5672384.23044
                  23459629.9064                                   23459624.9304
                                                                        44.0004
        29.2504
   6077315.71946   4781196.38744
                  24083894.8914                                   24083890.4924
                                                                        41.2504
        25.2504
 -24148129.41048 -18735406.71947
                  20579486.6334                                   20579482.6484
                                                                        51.2504
        43.5004
 -19492619.83648 -15113226.18046
                  20537975.7584                                   20537972.6454
                                                                        50.5004
        41.0004
   5361491.19946   4218579.98843
                  23945768.7504                                   23945765.6174
                                                                        39.5004
        20.5004
  11531468.53146   9006447.73844
                  24250524.5554                                   24250520.5124
                                                                        41.5004
        25.0004
 -15062700.65247 -11669185.32845
                  22888018.7504                                   22888015.1484
                                                                        45.2504
        30.7504
 -10178961.73847  -7866387.69145
                  22790712.5864                                   22790709.4574
                                                                        47.5004
        35.7504
  -5302566.60547  -4094799.82044
                  23892873.1254                                   23892868.8984
                                                                        42.5004
        24.5004
 -12509394.44948  -9712439.07445
                  22421446.7274                                   22421442.8674
                                                                        48.5004
        34.7504
 09 10 25  1 17  0.0000000  0 10G02G21G05G10G13G15G25G29G16G07
   7256719.44147   5693379.24244
                  23464756.5394                                   23464751.4104
                                                                        43.7504
        29.5004
   5894260.88347   4638556.37544
                  24049060.4064                                   24049055.9224
                                                                        43.7504
        24.5004
 -24236120.37948 -18803970.66047
                  20562742.1564                                   20562738.3524
                                                                        50.5004
        44.0004
 -19553784.46148 -15160886.77746
                  20526336.5314                                   20526333.6454
                                                                        50.5004
        41.0004
   5385863.78946   4237571.42643
                  23950407.1484                                   23950403.4884
                                                                        38.5004
        22.0004
  11332550.72346   8851446.88344
                  24212672.1484                                   24212667.5744
                                                                        40.7504
        24.7504
 -15104498.60247 -11701754.77744
                  22880064.2584                                   22880060.7934
                                                                        47.0004
        29.5004
 -10199426.73847  -7882334.45745
                  22786818.0704                                   22786815.4024
                                                                        46.7504
        35.5004
  -5346294.23847  -4128873.11743
                  23884552.0474                                   23884547.6564
                                                                        44.2504
        22.7504
 -12607741.15648  -9789072.82845
                  22402731.2894                                   22402727.9454
                                                                        48.5004
        34.5004
