     2.11           OBSERVATION DATA    G (GPS)             RINEX VERSION / TYPE
teqc  2019Feb25                         20221121 12:28:05UTCPGM / RUN BY / DATE
OSX ker:10.11.6|Core i5|gcc 4.3 -m64|OSX ker:10.10+|=+      COMMENT
BIT 2 OF LLI FLAGS DATA COLLECTED UNDER A/S CONDITION       COMMENT
04712791                                                    MARKER NAME
2791                                                        MARKER NUMBER
-Unknown-           -Unknown-                               OBSERVER / AGENCY
0220400471          TRIMBLE R7          2.30                REC # / TYPE / VERS
-Unknown-           TRM39105.00     NONE                    ANT # / TYPE
  1449461.1956 -1709240.5290  5952443.4259                  APPROX POSITION XYZ
        0.0000        0.0000        0.0000                  ANTENNA: DELTA H/E/N
     1     1                                                WAVELENGTH FACT L1/2
    20    L1    L2    L5    L6    L7    L8    C1    P1    C2# / TYPES OF OBSERV
          P2    C5    C6    C7    C8    S1    S2    S5    S6# / TYPES OF OBSERV
          S7    S8                                          # / TYPES OF OBSERV
    30.0000                                                 INTERVAL
    15                                                      LEAP SECONDS
Forced Modulo Decimation to 30 seconds                      COMMENT
 SNR is mapped to RINEX snr flag value [0-9]                COMMENT
  L1 & L2: min(max(int(snr_dBHz/6), 0), 9)                  COMMENT
teqc edited: Beidou # 1 - 37 excluded                       COMMENT
  2009    10     6    23     9   30.0000000     GPS         TIME OF FIRST OBS
                                                            END OF HEADER
 09 10  6 23  9 30.0000000  0  8G04G12G13G17G20G23G30G31
   -112909.28158    -53776.62157
                  20556495.4064                                   20556491.9454
                                                                        51.2504
        42.0004
    -46836.25457    -22462.31655
                  22958304.3914                                   22958300.2194
                                                                        46.7504
        34.5004
   -216997.03557   -104173.24254
                  23251491.9924                                   23251488.2154
                                                                        45.5004
        29.5004
     18955.53557      6006.02055
                  23775232.9614                                   23775228.6844
                                                                        42.7504
        30.0004
       -91.58257      -620.58254
                  22982719.7734                                   22982715.4264
                                                                        45.2504
        27.7504
   -144190.84058    -71091.98055
                  22016343.4534                                   22016337.3324
                                                                        48.5004
        35.2504
   -113259.89857    -53619.97755
                  22542984.6884                                   22542981.7234
                                                                        43.0004
        30.5004
   -111905.37557    -54253.77355
                  23670561.3834                                   23670557.3634
                                                                        44.5004
        30.2504
 09 10  6 23 10  0.0000000  0  9G02G04G12G13G17G20G23G30G31
   -361483.20758   -209536.14856
                  21769140.5634                                   21769134.4844
                                                                        51.7504
        39.7504
   -215737.85248   -133902.76246
                  20536927.9534                                   20536924.3164
                                                                        50.7504
        41.5004
    -90748.71547    -56679.82045
                  22949948.0634                                   22949944.1024
                                                                        47.0004
        34.5004
   -417240.62947   -260207.36744
                  23213387.3984                                   23213382.8014
                                                                        45.7504
        28.0004
     32768.85947     16769.60945
                  23777861.7274                                   23777857.2424
                                                                        43.7504
        32.0004
     -2986.97747     -2876.71544
                  22982168.6564                                   22982164.3714
                                                                        45.0004
        27.7504
   -274762.92248   -172836.45745
                  21991496.3754                                   21991490.0044
                                                                        48.7504
        35.2504
   -215704.69547   -133447.03945
                  22523489.9384                                   22523486.8594
                                                                        43.2504
        31.0004
   -215595.19147   -135051.07044
                  23650829.9774                                   23650825.9494
                                                                        44.0004
        29.2504
 09 10  6 23 10 30.0000000  0  9G02G04G12G13G17G20G23G30G31
   -539707.61348   -348412.31646
                  21735225.6644                                   21735219.4964
                                                                        52.0004
        39.5004
   -318517.36348   -213990.68047
                  20517369.4534                                   20517366.0824
                                                                        50.0004
        42.2504
   -134651.76247    -90889.99645
                  22941593.4384                                   22941589.3054
                                                                        46.5004
        34.2504
   -617673.30547   -416388.60544
                  23175246.1884                                   23175241.9384
                                                                        46.2504
        29.2504
     46248.61747     27273.30545
                  23780426.5784                                   23780422.4304
                                                                        44.7504
        30.5004
     -6095.68047     -5299.12944
                  22981577.0784                                   22981572.3914
                                                                        45.0004
        26.5004
   -405250.01647   -274514.74246
                  21966665.5784                                   21966659.0554
                                                                        47.5004
        36.0004
   -317987.43047   -213147.77345
                  22504026.0234                                   22504023.2234
                                                                        43.2504
        30.7504
   -319204.93047   -215785.87944
                  23631113.6954                                   23631109.2704
                                                                        44.2504
        28.2504
 09 10  6 23 11  0.0000000  0  9G02G04G12G13G17G20G23G30G31
   -717640.44948   -487061.24246
                  21701366.1884                                   21701360.3244
                                                                        51.0004
        39.5004
   -420804.56248   -293694.99247
                  20497904.8834                                   20497901.2974
                                                                        52.5004
        42.0004
   -178103.84447   -124748.71945
                  22933325.0784                                   22933320.7504
                                                                        46.7504
        35.0004
   -817849.43047   -572370.06644
                  23137154.4384                                   23137150.4384
                                                                        46.0004
        27.7504
     59836.19947     37860.99645
                  23783011.7974                                   23783008.1724
                                                                        43.5004
        30.5004
     -8976.64547     -7544.04344
                  22981028.9774                                   22981024.6254
                                                                        44.2504
        26.5004
   -535207.26648   -375780.17246
                  21941935.6414                                   21941929.1844
                                                                        49.7504
        36.0004
   -419664.71947   -292376.80545
                  22484677.4454                                   22484674.6994
                                                                        44.0004
        30.7504
   -422291.43447   -296113.03944
                  23611496.9144                                   23611492.8204
                                                                        44.0004
        29.2504
 09 10  6 23 11 30.0000000  0  9G02G04G12G13G17G20G23G30G31
   -895125.60248   -625361.37146
                  21667591.5864                                   21667585.7034
                                                                        51.0004
        39.7504
   -522444.99648   -372895.36747
                  20478563.6094                                   20478559.9264
                                                                        50.7504
        42.0004
   -220952.97347   -158137.68045
                  22925171.0784                                   22925167.1374
                                                                        46.5004
        35.0004
  -1017611.49647   -728029.08244
                  23099140.8204                                   23099137.2074
                                                                        46.2504
        29.0004
     73683.65247     48651.16844
                  23785647.3834                                   23785643.5704
                                                                        44.5004
        29.7504
    -11477.98047     -9493.14144
                  22980552.9224                                   22980548.6094
                                                                        44.5004
        27.0004
   -664479.01247   -476511.44145
                  21917336.0704                                   21917330.2504
                                                                        47.0004
        35.7504
   -520582.05547   -371013.72745
                  22465474.1024                                   22465470.7974
                                                                        45.5004
        31.5004
   -524699.79746   -375911.79344
                  23592009.5864                                   23592004.7544
                                                                        41.5004
        28.5004
 09 10  6 23 12  0.0000000  0  9G02G04G12G13G17G20G23G30G31
  -1072087.22348   -763253.53146
                  21633916.9384                                   21633910.9774
                                                                        51.7504
        39.5004
   -623365.02348   -451534.39847
                  20459359.0944                                   20459355.4924
                                                                        52.2504
        42.2504
   -263127.44147   -191000.90245
                  22917145.5004                                   22917141.3094
                                                                        45.7504
        34.0004
  -1216882.96947   -883305.89544
                  23061221.0634                                   23061216.8984
                                                                        46.0004
        28.0004
     87861.91047     59699.08644
                  23788344.9304                                   23788341.4384
                                                                        43.0004
        28.0004
    -13528.58647    -11090.97744
                  22980162.5554                                   22980158.0434
                                                                        44.5004
        26.7504
   -792990.60948   -576650.32845
                  21892881.2974                                   21892874.6334
                                                                        49.0004
        35.5004
   -620665.92647   -449001.22745
                  22446428.5164                                   22446425.6484
                                                                        44.5004
        30.5004
   -626356.44147   -455124.78544
                  23572664.9144                                   23572659.9924
                                                                        43.2504
        28.0004
 09 10  6 23 12 30.0000000  0  9G02G04G12G13G17G20G23G30G31
  -1248482.54348   -900704.32846
                  21600349.6804                                   21600343.7664
                                                                        52.2504
        39.0004
   -723523.76648   -529580.14146
                  20440299.5234                                   20440295.8444
                                                                        50.7504
        41.7504
   -304588.60947   -223308.21945
                  22909255.8134                                   22909251.6294
                                                                        45.5004
        34.0004
  -1415619.04347  -1038165.09844
                  23023402.5314                                   23023398.8164
                                                                        46.0004
        28.7504
    102409.19547     71034.61744
                  23791113.5314                                   23791109.0824
                                                                        43.7504
        27.5004
    -15090.16847    -12307.75044
                  22979865.4144                                   22979861.0784
                                                                        45.2504
        26.0004
   -920700.35948   -676164.48045
                  21868578.4224                                   21868572.2074
                                                                        48.0004
        35.5004
   -719875.37947   -526307.24245
                  22427549.4144                                   22427546.3714
                                                                        44.2504
        31.7504
   -727220.51247   -533720.11744
                  23553471.1564                                   23553466.5204
                                                                        44.2504
        28.5004
 09 10  6 23 13  0.0000000  0  9G02G04G12G13G17G20G23G30G31
  -1424284.61348  -1037692.88746
                  21566895.9614                                   21566889.6564
                                                                        51.7504
        39.2504
   -822896.16048   -607013.17246
                  20421389.5474                                   20421386.0784
                                                                        50.2504
        41.7504
   -345313.17247   -255041.60245
                  22901505.9064                                   22901501.8674
                                                                        46.5004
        34.0004
  -1613792.84847  -1192586.39844
                  22985691.6804                                   22985687.5124
                                                                        46.2504
        28.2504
    117348.81647     82675.90244
                  23793956.1724                                   23793951.8284
                                                                        45.7504
        27.2504
    -16140.14547    -13125.96144
                  22979665.6484                                   22979661.4224
                                                                        45.2504
        27.7504
  -1047581.85248   -775033.19545
                  21844434.0314                                   21844427.5594
                                                                        48.0004
        35.5004
   -818185.49247   -602912.53545
                  22408841.3444                                   22408838.8834
                                                                        43.5004
        31.5004
   -827266.53546   -611678.06244
                  23534432.9384                                   23534428.5944
                                                                        41.7504
        26.7504
 09 10  6 23 13 30.0000000  0  9G02G04G12G13G17G20G23G30G31
  -1599479.80948  -1174208.56646
                  21533557.5084                                   21533551.3984
                                                                        52.0004
        40.2504
   -921470.43448   -683824.25847
                  20402631.4774                                   20402627.4024
                                                                        50.0004
        42.2504
   -385291.57447   -286193.59045
                  22893898.1484                                   22893894.1174
                                                                        45.0004
        34.2504
  -1811388.57047  -1346556.93744
                  22948090.2584                                   22948086.3524
                                                                        46.5004
        29.7504
    132689.81647     94629.88745
                  23796875.9384                                   23796871.9384
                                                                        45.2504
        31.0004
    -16668.68447    -13537.82844
                  22979564.8134                                   22979560.5554
                                                                        45.0004
        26.2504
  -1173622.40648   -873246.57045
                  21820449.7424                                   21820443.1094
                                                                        49.5004
        35.2504
   -915584.81647   -678808.16445
                  22390306.6334                                   22390304.6294
                                                                        43.5004
        30.7504
   -926483.32847   -688989.83644
                  23515552.2974                                   23515547.9614
                                                                        44.2504
        27.5004
 09 10  6 23 14  0.0000000  0  9G02G04G12G13G17G20G23G30G31
  -1774061.47748  -1310246.42246
                  21500335.6954                                   21500329.8484
                                                                        52.0004
        39.7504
  -1019241.65248   -760009.57446
                  20384026.0634                                   20384022.5824
                                                                        51.7504
        41.7504
   -424521.41847   -316762.35945
                  22886433.5084                                   22886429.3204
                                                                        47.7504
        34.0004
  -2008399.30147  -1500071.97744
                  22910600.3284                                   22910596.5354
                                                                        46.5004
        28.7504
    148434.80947    106898.64845
                  23799871.7274                                   23799868.0704
                                                                        44.5004
        31.0004
    -16673.36347    -13541.48844
                  22979563.8444                                   22979560.0004
                                                                        44.5004
        27.2504
  -1298815.89548   -970799.94545
                  21796625.6884                                   21796619.2464
                                                                        49.2504
        35.5004
  -1012068.30147   -753990.14845
                  22371947.2274                                   22371944.0664
                                                                        43.7504
        31.2504
  -1024865.39847   -765651.25844
                  23496831.1414                                   23496826.5124
                                                                        43.7504
        28.5004
 09 10  6 23 14 30.0000000  0  9G02G04G12G13G17G20G23G30G31
  -1948026.39148  -1445803.48846
                  21467231.5084                                   21467225.5004
                                                                        51.7504
        39.5004
  -1116209.33648   -835568.78146
                  20365573.8594                                   20365570.2974
                                                                        52.7504
        41.5004
   -463004.10547   -346748.87145
                  22879109.8984                                   22879106.0744
                                                                        46.5004
        35.0004
  -2204819.98847  -1653126.82444
                  22873222.7274                                   22873218.8324
                                                                        46.7504
        29.5004
    164581.90247    119480.77045
                  23802945.1254                                   23802941.2274
                                                                        45.2504
        30.7504
    -16156.22747    -13138.55544
                  22979662.3054                                   22979658.1024
                                                                        44.2504
        27.2504
  -1423160.96148  -1067692.20345
                  21772963.8594                                   21772957.3444
                                                                        48.7504
        35.5004
  -1107635.37147   -828458.02045
                  22353761.3594                                   22353758.3834
                                                                        44.5004
        31.5004
  -1122411.95747   -841661.55144
                  23478268.6254                                   23478263.9384
                                                                        43.7504
        28.2504
 09 10  6 23 15  0.0000000  0  9G02G04G12G13G17G20G23G30G31
  -2121380.13348  -1580884.30546
                  21434243.0634                                   21434237.4184
                                                                        52.2504
        40.0004
  -1212380.90648   -910507.71547
                  20347272.9454                                   20347269.0434
                                                                        51.2504
        42.0004
   -500749.10547   -376160.53545
                  22871927.5084                                   22871923.4264
                                                                        46.5004
        34.0004
  -2400655.96947  -1805726.07044
                  22835956.3674                                   22835951.5474
                                                                        45.7504
        29.0004
    181121.41047    132368.68444
                  23806091.9384                                   23806088.0204
                                                                        43.5004
        28.5004
    -15126.73847    -12336.34844
                  22979858.3364                                   22979854.6724
                                                                        43.7504
        25.0004
  -1546663.51648  -1163927.98845
                  21749462.0554                                   21749455.8874
                                                                        48.7504
        35.0004
  -1202293.77347   -902217.84045
                  22335748.3984                                   22335745.5864
                                                                        45.2504
        31.2504
  -1219130.62547   -917026.74644
                  23459863.6564                                   23459858.8484
                                                                        42.2504
        27.7504
 09 10  6 23 15 30.0000000  0  9G02G04G12G13G17G20G23G30G31
   -718696.05948   -487883.72746
                  21701164.8444                                   21701158.9534
                                                                        52.0004
        40.5004
    267665.99248    242775.59446
                  20628916.2974                                   20628912.6954
                                                                        49.5004
        41.7504
   1037662.02747    822601.39145
                  23164677.4304                                   23164673.1214
                                                                        46.0004
        34.0004
  -1020478.81247   -730263.36744
                  23098594.9454                                   23098591.1214
                                                                        45.7504
        29.5004
   1773469.78147   1373159.57444
                  24109105.6174                                   24109101.8134
                                                                        43.2504
        27.2504
   1561831.43447   1216462.13344
                  23279943.1724                                   23279939.3914
                                                                        44.0004
        25.7504
    -93899.85248    -31904.35945
                  22025913.8524                                   22025907.4494
                                                                        48.0004
        35.2504
    279378.64147    252332.12145
                  22617701.0864                                   22617697.9734
                                                                        43.2504
        31.5004
    260400.85547    235854.89144
                  23741408.6414                                   23741404.3444
                                                                        42.7504
        28.7504
 09 10  6 23 16  0.0000000  0  9G02G04G12G13G17G20G23G30G31
   -890821.81248   -622007.69946
                  21668410.4384                                   21668404.6454
                                                                        52.7504
        39.5004
    173086.33248    169077.13746
                  20610918.5394                                   20610914.6484
                                                                        49.7504
        41.2504
   1001386.09047    794334.45345
                  23157774.0704                                   23157769.9534
                                                                        46.2504
        33.0004
  -1215136.80147   -881945.01244
                  23061553.0164                                   23061548.6214
                                                                        46.0004
        29.2504
   1790786.83647   1386653.29744
                  24112402.0784                                   24112397.0664
                                                                        44.5004
        29.0004
   1563877.79347   1218056.67244
                  23280333.1564                                   23280329.0164
                                                                        43.5004
        26.2504
   -215715.38347   -126825.53945
                  22002733.0164                                   22002726.7854
                                                                        47.2504
        35.5004
    186536.79347    179987.70745
                  22600034.2344                                   22600031.3094
                                                                        43.5004
        31.0004
    165337.96946    161779.91844
                  23723318.8984                                   23723314.5984
                                                                        41.2504
        28.2504
 09 10  6 23 16 30.0000000  0  9G02G04G12G13G17G20G23G30G31
  -1062333.71548   -755653.33246
                  21635773.0474                                   21635767.2814
                                                                        52.0004
        39.0004
     79299.53948     95996.51647
                  20593071.3284                                   20593067.7664
                                                                        50.7504
        42.0004
    965838.62547    766635.15245
                  23151009.7274                                   23151005.7424
                                                                        45.2504
        33.7504
  -1409204.10247  -1033166.48444
                  23024623.2974                                   23024619.4614
                                                                        45.7504
        28.5004
   1808486.13747   1400444.95744
                  24115769.6174                                   24115765.2774
                                                                        45.5004
        29.5004
   1566426.14847   1220042.37544
                  23280818.5394                                   23280813.6994
                                                                        43.2504
        25.5004
   -336688.87147   -221090.55545
                  21979712.6804                                   21979706.1484
                                                                        47.7504
        35.7504
     94599.93447    108348.51645
                  22582539.0554                                   22582536.1334
                                                                        45.2504
        31.0004
     71099.98047     88347.71544
                  23705386.5084                                   23705381.7344
                                                                        43.7504
        28.7504
 09 10  6 23 17  0.0000000  0  9G02G04G12G13G17G20G23G30G31
  -1233236.09448   -888824.00446
                  21603251.4064                                   21603245.4924
                                                                        52.2504
        40.2504
    -13700.91848     23528.58246
                  20575373.8834                                   20575370.4144
                                                                        50.0004
        41.7504
    931010.54347    739496.34445
                  23144381.8834                                   23144377.8364
                                                                        45.2504
        33.7504
  -1602684.03947  -1183930.22744
                  22987805.8134                                   22987801.5394
                                                                        46.2504
        29.2504
   1826559.22347   1414527.92644
                  24119208.5554                                   24119204.2544
                                                                        43.7504
        28.0004
   1569467.57447   1222412.27344
                  23281396.8674                                   23281392.4924
                                                                        44.0004
        25.5004
   -456826.00448   -314703.89545
                  21956851.2344                                   21956844.6684
                                                                        49.0004
        35.5004
      3561.45347     37409.31645
                  22565215.0004                                   22565212.2544
                                                                        43.5004
        31.0004
    -22320.02047     15552.90644
                  23687609.0704                                   23687604.7274
                                                                        43.7504
        28.7504
 09 10  6 23 17 30.0000000  0  9G02G04G12G13G17G20G23G30G31
  -1403532.26248  -1021522.31646
                  21570844.9064                                   21570838.9064
                                                                        53.0004
        40.0004
   -105920.36748    -48330.76246
                  20557825.2034                                   20557821.9384
                                                                        52.0004
        41.7504
    896894.51647    712912.39545
                  23137890.1484                                   23137886.1764
                                                                        46.0004
        34.2504
  -1795577.96147  -1334236.85945
                  22951098.5784                                   22951094.7584
                                                                        47.0004
        30.0004
   1844997.96547   1428895.77044
                  24122717.5314                                   24122713.2234
                                                                        42.5004
        26.7504
   1572994.59047   1225160.53944
                  23282068.3524                                   23282063.9654
                                                                        42.7504
        25.7504
   -576130.81648   -407668.65645
                  21934148.3984                                   21934141.9184
                                                                        48.7504
        35.2504
    -86583.57847    -32833.55945
                  22548061.3284                                   22548058.2234
                                                                        46.5004
        30.7504
   -114926.76247    -56608.21144
                  23669986.7974                                   23669982.1024
                                                                        43.5004
        28.7504
 09 10  6 23 18  0.0000000  0  9G02G04G12G13G17G20G23G30G31
  -1573226.48448  -1153751.53946
                  21538553.2344                                   21538547.5944
                                                                        51.7504
        40.5004
   -197365.06648   -119586.39847
                  20540423.7034                                   20540420.4614
                                                                        53.0004
        42.0004
    863482.21947    686876.79345
                  23131532.1024                                   23131527.8444
                                                                        46.7504
        34.0004
  -1987890.35547  -1484090.59445
                  22914503.4924                                   22914498.7234
                                                                        47.2504
        31.2504
   1863794.16047   1443542.12144
                  24126294.2114                                   24126290.2274
                                                                        42.5004
        28.0004
   1576998.68047   1228280.55144
                  23282830.2664                                   23282825.9414
                                                                        42.5004
        24.5004
   -694608.70748   -499989.08245
                  21911602.5864                                   21911595.9964
                                                                        49.2504
        35.0004
   -175842.25447   -102385.71945
                  22531076.1564                                   22531072.8594
                                                                        47.0004
        31.2504
   -206726.86747   -128140.75044
                  23652517.7194                                   23652513.2344
                                                                        43.0004
        29.2504
 09 10  6 23 18 30.0000000  0  9G02G04G12G13G17G20G23G30G31
  -1742320.42648  -1285513.03146
                  21506375.5784                                   21506369.9694
                                                                        52.7504
        40.2504
   -288039.10248   -190241.48047
                  20523169.4694                                   20523165.6484
                                                                        51.0004
        42.0004
    830767.61747    661384.84445
                  23125307.0394                                   23125302.8594
                                                                        46.0004
        34.0004
  -2179621.23047  -1633491.05545
                  22878017.1644                                   22878014.0044
                                                                        46.2504
        30.5004
   1882941.67247   1458462.21944
                  24129938.3444                                   24129933.7934
                                                                        44.0004
        28.0004
   1581473.44146   1231767.38744
                  23283681.1884                                   23283677.4844
                                                                        41.7504
        25.0004
   -812262.68447   -591667.50045
                  21889213.8364                                   21889207.5514
                                                                        47.5004
        35.5004
   -264218.84447   -171250.55145
                  22514258.5394                                   22514255.2114
                                                                        47.2504
        31.5004
   -297724.09847   -199047.70744
                  23635201.5784                                   23635197.0904
                                                                        43.5004
        29.0004
 09 10  6 23 19  0.0000000  0  9G02G04G12G13G17G20G23G30G31
  -1910814.69148  -1416807.23046
                  21474312.4144                                   21474306.4574
                                                                        53.0004
        40.5004
   -377945.16448   -260298.15247
                  20506061.0554                                   20506057.5554
                                                                        52.0004
        42.0004
    798745.90247    636432.79745
                  23119213.3364                                   23119209.2584
                                                                        46.7504
        34.2504
  -2370770.99647  -1782438.92644
                  22841642.6334                                   22841638.9694
                                                                        46.0004
        29.7504
   1902435.50047   1473652.20344
                  24133647.2894                                   24133643.0744
                                                                        43.7504
        28.2504
   1586414.74246   1235617.83644
                  23284621.3444                                   23284618.3674
                                                                        41.7504
        25.5004
   -929094.44548   -682705.23045
                  21866981.1334                                   21866975.2114
                                                                        48.2504
        35.7504
   -351716.17247   -239430.27745
                  22497608.3594                                   22497605.0394
                                                                        47.5004
        31.2504
   -387921.37547   -269331.33244
                  23618037.6174                                   23618033.3714
                                                                        44.5004
        29.0004
 09 10  6 23 19 30.0000000  0  9G02G04G12G13G17G20G23G30G31
  -2078716.23848  -1547639.62146
                  21442361.7424                                   21442355.6844
                                                                        52.7504
        41.0004
   -467092.10248   -329763.25846
                  20489096.7734                                   20489092.9494
                                                                        51.5004
        41.7504
    767405.90247    612012.00045
                  23113249.4614                                   23113245.3984
                                                                        46.2504
        33.2504
  -2561344.61747  -1930937.75044
                  22805377.9224                                   22805373.5044
                                                                        46.2504
        28.7504
   1922264.14547   1489103.08244
                  24137421.2664                                   24137416.1254
                                                                        44.7504
        28.5004
   1591810.33247   1239822.23044
                  23285648.6484                                   23285644.6844
                                                                        43.0004
        26.5004
  -1045112.17648   -773108.64545
                  21844903.7734                                   21844897.5004
                                                                        48.7504
        35.2504
   -438343.53147   -306932.09045
                  22481123.7894                                   22481120.2584
                                                                        47.0004
        31.2504
   -477327.48447   -338998.44545
                  23601024.0784                                   23601019.8914
                                                                        44.7504
        30.2504
 09 10  6 23 20  0.0000000  0  9G02G04G12G13G17G20G23G30G31
  -2246026.48848  -1678011.23046
                  21410523.4774                                   21410517.7194
                                                                        52.0004
        40.5004
   -555483.50048   -398639.60946
                  20472276.2584                                   20472272.4384
                                                                        52.0004
        41.7504
    736742.16047    588118.20345
                  23107413.7974                                   23107409.8324
                                                                        46.0004
        33.5004
  -2751342.63748  -2078987.96545
                  22769222.6414                                   22769218.2344
                                                                        48.0004
        30.2504
   1942422.46547   1504810.85244
                  24141256.4534                                   24141252.1724
                                                                        43.7504
        29.0004
   1597654.95347   1244376.60244
                  23286761.0004                                   23286756.6804
                                                                        43.0004
        25.5004
  -1160318.37948   -862879.71145
                  21822980.6564                                   21822974.2624
                                                                        49.2504
        35.0004
   -524104.55147   -373758.81645
                  22464803.3444                                   22464800.5554
                                                                        46.5004
        31.0004
   -565946.15247   -408051.93044
                  23584160.0394                                   23584156.4144
                                                                        44.0004
        29.0004
 09 10  6 23 20 30.0000000  0  9G02G04G12G13G17G20G23G30G31
  -2412749.10948  -1807924.95346
                  21378797.3524                                   21378791.5514
                                                                        53.0004
        40.5004
   -643125.45348   -466932.04746
                  20455598.6334                                   20455594.8634
                                                                        52.5004
        41.5004
    706746.37947    564744.85245
                  23101705.7344                                   23101702.1414
                                                                        44.5004
        33.5004
  -2940767.91047  -2226591.93045
                  22733176.2194                                   22733171.5594
                                                                        47.7504
        30.2504
   1962902.34047   1520769.16044
                  24145153.8284                                   24145150.2344
                                                                        43.2504
        27.7504
   1603940.38747   1249274.37944
                  23287957.1094                                   23287952.2464
                                                                        42.2504
        24.2504
  -1274717.50848   -952021.89145
                  21801211.6334                                   21801204.8754
                                                                        49.7504
        35.5004
   -609005.28947   -439915.18445
                  22448647.5474                                   22448644.0514
                                                                        45.5004
        31.0004
   -653783.20747   -476496.34444
                  23567445.8984                                   23567441.5204
                                                                        42.7504
        28.2504
 09 10  6 23 21  0.0000000  0  9G02G04G12G13G17G20G23G30G31
  -2578887.15648  -1937383.18046
                  21347182.0944                                   21347176.7464
                                                                        52.7504
        40.5004
   -730023.02348   -534644.41447
                  20439062.5554                                   20439058.9344
                                                                        49.5004
        42.2504
    677411.73447    541886.69145
                  23096123.8364                                   23096119.7734
                                                                        44.7504
        33.0004
  -3129622.80947  -2373751.59045
                  22697237.6484                                   22697233.7704
                                                                        47.2504
        30.2504
   1983695.92247   1536971.90244
                  24149110.4064                                   24149107.1644
                                                                        42.7504
        27.5004
   1610659.44146   1254509.93044
                  23289234.5864                                   23289230.7894
                                                                        41.5004
        25.0004
  -1388314.48048  -1040539.03146
                  21779594.7894                                   21779588.2074
                                                                        50.5004
        36.0004
   -693051.33247   -505405.57845
                  22432654.2504                                   22432650.9924
                                                                        43.7504
        31.7504
   -740843.82047   -544335.75844
                  23550878.8134                                   23550873.9804
                                                                        42.0004
        28.7504
 09 10  6 23 21 30.0000000  0  9G02G04G12G13G17G20G23G30G31
  -2744441.44548  -2066386.52746
                  21315678.3754                                   21315672.4804
                                                                        52.5004
        40.5004
   -816179.23848   -601779.16447
                  20422667.6484                                   20422663.8834
                                                                        52.0004
        42.5004
    648733.03547    519539.64845
                  23090666.5474                                   23090663.1054
                                                                        43.7504
        33.0004
  -3317906.96147  -2520466.61345
                  22661408.4224                                   22661404.6174
                                                                        47.7504
        30.0004
   2004798.57847   1553415.48844
                  24153126.2734                                   24153122.3404
                                                                        42.5004
        26.0004
   1617807.32046   1260079.79743
                  23290595.4844                                   23290590.8324
                                                                        40.7504
        23.0004
  -1501110.90648  -1128432.32046
                  21758130.1484                                   21758123.9344
                                                                        49.5004
        36.5004
   -776246.10947   -570232.73845
                  22416822.7664                                   22416819.5124
                                                                        47.5004
        32.0004
   -827130.95747   -611572.43744
                  23534458.6954                                   23534454.3134
                                                                        43.2504
        29.2504
 09 10  6 23 22  0.0000000  0  9G02G04G12G13G17G20G23G30G31
  -2909417.28548  -2194939.13746
                  21284284.3914                                   21284278.4224
                                                                        53.0004
        40.5004
   -901601.66448   -668342.14847
                  20406412.2664                                   20406408.6294
                                                                        52.5004
        42.5004
    620700.51247    497696.14845
                  23085332.2814                                   23085328.1994
                                                                        46.0004
        33.5004
  -3505624.60947  -2666740.29745
                  22625687.5784                                   22625683.1684
                                                                        47.7504
        30.5004
   2026200.67247   1570092.45744
                  24157199.0474                                   24157194.7154
                                                                        44.0004
        27.0004
   1625374.09446   1265976.01244
                  23292035.4064                                   23292031.1254
                                                                        40.5004
        24.2504
  -1613113.32848  -1215706.89546
                  21736816.7894                                   21736810.5704
                                                                        50.0004
        36.0004
   -858597.14547   -634402.39845
                  22401151.5164                                   22401148.6844
                                                                        47.5004
        31.0004
   -912652.15247   -678212.29744
                  23518184.2194                                   23518180.0004
                                                                        44.2504
        29.0004
 09 10  6 23 22 30.0000000  0  8G02G04G12G13G20G23G30G31
  -3073814.60948  -2323040.97746
                  21253000.3984                                   21252995.1724
                                                                        53.0004
        40.5004
   -986292.23848   -734334.80147
                  20390296.1564                                   20390292.2154
                                                                        52.5004
        42.0004
    593310.11747    476353.00045
                  23080119.5784                                   23080115.9694
                                                                        46.0004
        33.2504
  -3692775.01647  -2812572.25845
                  22590073.8444                                   22590070.3284
                                                                        46.5004
        30.2504
   1633355.70346   1272195.39544
                  23293553.6094                                   23293550.0204
                                                                        41.5004
        24.5004
  -1724323.21148  -1302363.94545
                  21715654.1884                                   21715647.5514
                                                                        50.0004
        35.5004
   -940106.53947   -697916.21145
                  22385641.1644                                   22385637.6294
                                                                        47.0004
        30.0004
   -997409.68447   -744257.10544
                  23502055.3834                                   23502051.0824
                                                                        44.2504
        29.0004
 09 10  6 23 23  0.0000000  0  8G02G04G12G13G20G23G30G31
  -3237636.39548  -2450694.32046
                  21221826.5234                                   21221820.6524
                                                                        53.0004
        40.5004
  -1070255.98048   -799761.05146
                  20374318.3524                                   20374314.4734
                                                                        51.7504
        41.7504
    566554.81347    455504.75045
                  23075028.4454                                   23075024.5394
                                                                        46.2504
        33.5004
  -3879358.70347  -2957962.17245
                  22554568.1884                                   22554564.2734
                                                                        46.5004
        31.0004
   1641744.92646   1278732.43044
                  23295150.2504                                   23295146.9884
                                                                        39.7504
        26.2504
  -1834744.51248  -1388406.47345
                  21694641.7424                                   21694635.4884
                                                                        50.0004
        35.5004
  -1020780.03147   -760778.60245
                  22370289.0314                                   22370286.1134
                                                                        47.0004
        31.5004
  -1081408.87947   -809711.01644
                  23486071.0084                                   23486066.6134
                                                                        42.7504
        29.7504
 09 10  6 23 23 30.0000000  0  8G02G04G12G13G20G23G30G31
  -1825454.59848  -1350292.90646
                  21490555.7734                                   21490549.8634
                                                                        52.2504
        40.2504
    421929.45748    362980.78147
                  20658271.9304                                   20658268.1764
                                                                        52.0004
        42.2504
   2115853.13347   1662750.19145
                  23369850.2814                                   23369846.2074
                                                                        46.0004
        33.2504
  -2489946.53147  -1875303.10545
                  22818964.3204                                   22818960.7894
                                                                        47.0004
        30.2504
   3225959.38346   2513185.21144
                  23596616.9454                                   23596613.0004
                                                                        40.7504
        25.0004
   -368952.82848   -246231.25046
                  21973572.4844                                   21973566.4694
                                                                        49.5004
        36.2504
    474804.64147    404612.09445
                  22654889.5474                                   22654886.4264
                                                                        47.0004
        31.2504
    410773.08647    353028.19544
                  23770023.8364                                   23770018.8134
                                                                        42.0004
        28.7504
 09 10  6 23 24  0.0000000  0  8G02G04G12G13G20G23G30G31
  -1988115.39848  -1477041.50846
                  21459602.3204                                   21459596.4304
                                                                        52.5004
        40.5004
    339421.35548    298688.66447
                  20642571.1254                                   20642567.4574
                                                                        52.5004
        42.5004
   2090363.95347   1642888.55145
                  23364999.8914                                   23364995.8244
                                                                        46.5004
        33.5004
  -2675384.82447  -2019800.03545
                  22783676.6174                                   22783672.0004
                                                                        47.0004
        30.2504
   3235160.22746   2520354.65244
                  23598367.4384                                   23598363.8714
                                                                        41.2504
        26.2504
   -477791.66048   -331040.72745
                  21952861.1174                                   21952854.9964
                                                                        50.2504
        35.5004
    395804.62148    343053.64145
                  22639856.4384                                   22639853.2424
                                                                        48.0004
        31.0004
    328293.22347    288758.11344
                  23754328.1724                                   23754323.4304
                                                                        43.5004
        28.2504
 09 10  6 23 24 30.0000000  0  8G02G04G12G13G20G23G30G31
  -2150199.75448  -1603340.98846
                  21428758.7814                                   21428752.8554
                                                                        52.5004
        41.2504
    257634.65648    234958.83647
                  20627007.6724                                   20627003.8954
                                                                        51.2504
        42.2504
   2065497.93847   1623512.41445
                  23360267.8364                                   23360264.2734
                                                                        45.0004
        33.0004
  -2860253.71947  -2163853.55945
                  22748497.1334                                   22748493.1054
                                                                        47.5004
        31.2504
   3244757.00846   2527832.68044
                  23600194.0704                                   23600190.0824
                                                                        41.0004
        26.0004
   -585845.02348   -415238.14846
                  21932299.4924                                   21932292.8714
                                                                        49.5004
        36.2504
    317633.47347    282141.02745
                  22624980.5084                                   22624977.4924
                                                                        44.0004
        30.7504
    246565.96547    225074.55144
                  23738776.1564                                   23738771.6564
                                                                        43.7504
        27.2504
 09 10  6 23 25  0.0000000  0  8G02G04G12G13G20G23G30G31
  -2311712.52348  -1729195.11346
                  21398023.7584                                   21398018.0474
                                                                        52.5004
        41.0004
    176561.17648    171784.72747
                  20611579.8834                                   20611576.0634
                                                                        52.7504
        42.2504
   2041245.14547   1604614.12545
                  23355652.6804                                   23355648.8054
                                                                        46.5004
        33.2504
  -3044556.86347  -2307466.34845
                  22713425.2344                                   22713420.8834
                                                                        47.0004
        30.0004
   3254740.37946   2535612.02743
                  23602093.4774                                   23602089.1804
                                                                        40.0004
        22.0004
   -693118.95748   -498828.17646
                  21911885.8364                                   21911879.4964
                                                                        50.7504
        36.5004
    240283.53547    221868.35945
                  22610261.5704                                   22610258.7464
                                                                        46.5004
        30.5004
    165583.90247    161971.60944
                  23723366.2194                                   23723361.2114
                                                                        44.5004
        28.0004
 09 10  6 23 25 30.0000000  0  8G02G04G12G13G20G23G30G31
  -2472659.57048  -1854608.34846
                  21367396.3754                                   21367390.9184
                                                                        51.2504
        40.0004
     96192.73848    109159.94147
                  20596286.3204                                   20596282.4144
                                                                        51.2504
        42.2504
   2017595.34847   1586185.70345
                  23351152.3754                                   23351147.9024
                                                                        45.2504
        32.2504
  -3228299.73447  -2450642.71145
                  22678460.2734                                   22678455.8794
                                                                        45.5004
        30.7504
   3265099.91046   2543684.43443
                  23604064.8674                                   23604060.5944
                                                                        40.7504
        22.7504
   -799621.43048   -581817.09846
                  21891619.1334                                   21891612.8874
                                                                        49.0004
        36.0004
    163745.96147    162228.58645
                  22595697.0864                                   22595694.4024
                                                                        47.0004
        30.0004
     85338.47747     99442.67244
                  23708095.8524                                   23708090.8984
                                                                        44.0004
        29.0004
 09 10  6 23 26  0.0000000  0  8G02G04G12G13G20G23G30G31
  -2633045.66848  -1979584.51646
                  21336876.0474                                   21336870.0434
                                                                        52.2504
        40.5004
     16522.56648     47079.23047
                  20581125.6254                                   20581122.0204
                                                                        51.7504
        42.2504
   1994539.83247   1568220.34045
                  23346764.8754                                   23346761.2304
                                                                        46.2504
        32.0004
  -3411485.31647  -2593384.86344
                  22643601.2274                                   22643597.0514
                                                                        46.2504
        29.5004
   3275826.91046   2552043.15243
                  23606106.0084                                   23606101.7664
                                                                        41.5004
        22.5004
   -905358.39848   -664209.57046
                  21871497.6414                                   21871491.6724
                                                                        50.5004
        36.0004
     88013.93847    103216.53945
                  22581286.0704                                   22581283.1484
                                                                        43.5004
        31.2504
      5822.84447     37482.44944
                  23692964.4694                                   23692959.7894
                                                                        44.5004
        27.0004
 09 10  6 23 26 30.0000000  0  8G02G04G12G13G20G23G30G31
  -2792874.91048  -2104126.77046
                  21306461.6884                                   21306455.8524
                                                                        52.5004
        41.0004
    -62455.43048    -14462.09047
                  20566096.7424                                   20566092.6334
                                                                        52.2504
        42.0004
   1972070.42247   1550711.68045
                  23342489.4144                                   23342485.1724
                                                                        46.0004
        33.2504
  -3594116.24647  -2735694.55145
                  22608847.5784                                   22608843.5664
                                                                        46.2504
        31.5004
   3286913.07047   2560681.77744
                  23608216.0704                                   23608211.2854
                                                                        42.2504
        25.2504
  -1010335.03548   -746009.59046
                  21851521.9614                                   21851515.4654
                                                                        50.0004
        36.2504
     13081.08247     44827.26645
                  22567026.5944                                   22567023.9924
                                                                        47.7504
        31.5004
    -72969.36747    -23914.04744
                  23677971.0234                                   23677966.5514
                                                                        44.5004
        29.0004
 09 10  6 23 27  0.0000000  0  8G02G04G12G13G20G23G30G31
  -2952141.36348  -2228230.47346
                  21276154.1724                                   21276148.5354
                                                                        52.5004
        40.5004
   -140737.86748    -75461.41446
                  20551199.7814                                   20551196.2584
                                                                        52.2504
        41.7504
   1950188.41047   1533660.72345
                  23338325.3054                                   23338321.4574
                                                                        45.5004
        33.0004
  -3776186.07047  -2877567.01645
                  22574201.1334                                   22574197.0084
                                                                        47.0004
        32.2504
   3298360.14147   2569601.62944
                  23610393.9694                                   23610389.5084
                                                                        42.5004
        25.5004
  -1114546.90648   -827213.60946
                  21831690.7584                                   21831684.4774
                                                                        50.0004
        36.2504
    -61049.64547    -12936.87145
                  22552919.8054                                   22552917.1564
                                                                        46.2504
        30.5004
   -151034.69147    -84744.17244
                  23663115.8054                                   23663110.5864
                                                                        44.0004
        28.0004
 09 10  6 23 27 30.0000000  0  8G02G04G12G13G20G23G30G31
  -3110852.97348  -2351901.83646
                  21245952.3364                                   21245946.7544
                                                                        52.0004
        41.0004
   -218334.84048   -135926.61747
                  20536433.4844                                   20536430.0394
                                                                        52.7504
        42.2504
   1928881.69147   1517058.06345
                  23334270.6644                                   23334267.0594
                                                                        47.0004
        33.0004
  -3957701.58647  -3019007.55145
                  22539659.3674                                   22539655.7624
                                                                        47.5004
        31.5004
   3310155.95347   2578793.17644
                  23612638.3134                                   23612634.8284
                                                                        42.2504
        26.0004
  -1218003.87148   -907829.44945
                  21812003.5704                                   21811997.3874
                                                                        50.0004
        35.5004
   -134389.12947    -70084.45345
                  22538963.5084                                   22538961.2934
                                                                        46.7504
        31.0004
   -228383.72747   -145016.17244
                  23648396.2734                                   23648392.1914
                                                                        44.5004
        27.5004
 09 10  6 23 28  0.0000000  0  8G02G04G12G13G20G23G30G31
  -3269010.27748  -2475141.25446
                  21215856.0234                                   21215850.5164
                                                                        51.5004
        40.7504
   -295249.55148   -195860.12146
                  20521797.0314                                   20521793.4304
                                                                        52.5004
        41.5004
   1908145.01247   1500899.58645
                  23330324.8284                                   23330321.3094
                                                                        46.5004
        32.2504
  -4138662.94547  -3160016.33645
                  22505223.1254                                   22505219.4494
                                                                        47.0004
        31.0004
   3322295.33246   2588252.43444
                  23614948.4384                                   23614944.6684
                                                                        40.5004
        24.5004
  -1320707.52348   -987858.26245
                  21792459.7504                                   21792453.3444
                                                                        50.7504
        35.5004
   -206941.13347   -126618.46545
                  22525157.3594                                   22525154.8164
                                                                        45.0004
        30.7504
   -305019.52747   -204732.33244
                  23633813.2344                                   23633808.7234
                                                                        45.0004
        28.5004
 09 10  6 23 28 30.0000000  0  8G02G04G12G13G20G23G30G31
  -3426617.64148  -2597952.17246
                  21185864.4924                                   21185858.7544
                                                                        52.0004
        41.5004
   -371488.32848   -255266.98047
                  20507289.6954                                   20507286.0474
                                                                        52.7504
        42.2504
   1887970.03147   1485178.82445
                  23326485.3594                                   23326481.7934
                                                                        45.5004
        32.0004
  -4319072.56247  -3300595.16444
                  22470892.3594                                   22470888.1604
                                                                        47.7504
        29.7504
   3334770.78146   2597973.56343
                  23617322.7194                                   23617318.8754
                                                                        40.0004
        22.7504
  -1422663.26248  -1067304.33245
                  21773058.1334                                   21773052.0594
                                                                        49.5004
        35.7504
   -278711.79747   -182543.65245
                  22511499.8834                                   22511497.3634
                                                                        47.2504
        31.2504
   -380948.48047   -263897.75444
                  23619364.8834                                   23619359.7074
                                                                        44.7504
        28.5004
 09 10  6 23 29  0.0000000  0  8G02G04G12G13G20G23G30G31
  -3583675.66448  -2720335.05146
                  21155977.2974                                   21155971.2734
                                                                        51.7504
        41.0004
   -447054.02048   -314149.32447
                  20492909.7504                                   20492906.3284
                                                                        53.0004
        42.0004
   1868351.59047   1469891.73845
                  23322752.3594                                   23322748.0434
                                                                        46.2504
        31.7504
  -4498930.60947  -3440744.21545
                  22436666.7424                                   22436662.6294
                                                                        46.7504
        31.7504
   3347576.85546   2607952.35943
                  23619759.6024                                   23619754.8754
                                                                        39.0004
        21.5004
  -1523873.75848  -1146169.60545
                  21753798.5004                                   21753792.4654
                                                                        50.5004
        35.5004
   -349704.91447   -237862.94145
                  22497990.5314                                   22497987.7544
                                                                        47.0004
        31.5004
   -456173.68747   -322514.79744
                  23605049.3524                                   23605045.1254
                                                                        44.5004
        29.5004
 09 10  6 23 29 30.0000000  0  8G02G04G12G13G20G23G30G31
  -3740185.78148  -2842291.03546
                  21126194.3054                                   21126188.4184
                                                                        51.7504
        40.7504
   -521950.80548   -372510.45746
                  20478657.3364                                   20478654.2304
                                                                        51.7504
        41.7504
   1849283.75047   1455033.66445
                  23319124.1804                                   23319119.7274
                                                                        46.2504
        31.7504
  -4678237.29747  -3580463.65645
                  22402545.8134                                   22402541.4454
                                                                        47.5004
        31.5004
   3360708.14546   2618184.55143
                  23622257.4694                                   23622253.1454
                                                                        38.2504
        22.0004
  -1624341.90248  -1224456.45345
                  21734679.9534                                   21734673.6914
                                                                        50.0004
        35.7504
   -419925.00447   -292579.93045
                  22484628.1174                                   22484625.2034
                                                                        45.7504
        30.7504
   -530699.23447   -380586.68044
                  23590868.0084                                   23590863.2154
                                                                        44.0004
        28.7504
 09 10  6 23 30  0.0000000  0  8G02G04G12G13G20G23G30G31
  -3896149.21548  -2963820.99246
                  21096515.5864                                   21096509.8634
                                                                        51.2504
        41.5004
   -596182.28148   -430353.13747
                  20464531.7894                                   20464527.7584
                                                                        52.5004
        42.2504
   1830761.13747   1440600.48445
                  23315599.1414                                   23315595.0044
                                                                        47.0004
        31.7504
  -4856993.43447  -3719754.19145
                  22368529.8204                                   22368525.2894
                                                                        47.2504
        31.5004
   3374158.96946   2628665.68443
                  23624817.7894                                   23624813.4924
                                                                        40.5004
        22.0004
  -1724070.56648  -1302167.02046
                  21715702.1254                                   21715695.7734
                                                                        49.5004
        36.0004
   -489375.91847   -346697.51645
                  22471412.0474                                   22471409.0784
                                                                        46.7504
        32.0004
   -604529.38347   -438116.67244
                  23576818.1024                                   23576814.1094
                                                                        44.2504
        29.0004
 09 10  6 23 30 30.0000000  0  8G02G04G12G13G20G23G30G31
  -4051568.41048  -3084926.84446
                  21066940.1414                                   21066934.2544
                                                                        51.0004
        40.5004
   -669753.27748   -487681.16447
                  20450531.5554                                   20450527.9224
                                                                        53.0004
        42.0004
   1812776.52047   1426586.48045
                  23312177.0164                                   23312173.0704
                                                                        47.0004
        32.5004
  -5035200.14148  -3858616.58245
                  22334618.2664                                   22334613.8554
                                                                        48.0004
        31.5004
   3387922.85546   2639390.75044
                  23627437.1484                                   23627432.6054
                                                                        40.5004
        25.0004
  -1823063.91448  -1379304.64545
                  21696864.3594                                   21696857.9384
                                                                        49.7504
        35.5004
   -558063.23847   -400220.12945
                  22458341.3284                                   22458338.3484
                                                                        46.0004
        30.5004
   -677668.55547   -495108.23444
                  23562900.3364                                   23562896.3914
                                                                        43.7504
        28.7504
 09 10  6 23 31  0.0000000  0  8G02G04G12G13G20G23G30G31
  -4206442.22348  -3205607.67646
                  21037468.6724                                   21037462.5904
                                                                        51.5004
        41.0004
   -742665.05948   -544495.52747
                  20436656.6174                                   20436653.3754
                                                                        52.0004
        42.2504
   1795327.00447   1412989.45345
                  23308856.2274                                   23308852.2544
                                                                        47.2504
        33.0004
  -5212855.37547  -3997049.22345
                  22300811.5004                                   22300807.5234
                                                                        47.5004
        32.0004
   3401996.68446   2650357.26244
                  23630115.6884                                   23630111.3714
                                                                        41.2504
        25.5004
  -1921322.73048  -1455870.03945
                  21678166.3054                                   21678159.9884
                                                                        49.2504
        35.5004
   -625988.69947   -453149.09045
                  22445415.6094                                   22445412.9574
                                                                        46.0004
        30.2504
   -750118.36947   -551562.62444
                  23549114.5234                                   23549109.2974
                                                                        43.7504
        29.2504
 09 10  6 23 31 30.0000000  0  8G02G04G12G13G20G23G30G31
  -4360772.83248  -3325865.25046
                  21008100.5864                                   21008094.5704
                                                                        51.2504
        41.5004
   -814921.94948   -600799.61347
                  20422906.5004                                   20422903.2154
                                                                        52.5004
        42.0004
   1778406.21147   1399804.42645
                  23305636.3204                                   23305632.0944
                                                                        47.2504
        32.7504
  -5389959.81247  -4135052.52745
                  22267109.2344                                   22267105.4734
                                                                        47.0004
        31.7504
   3416374.46946   2661560.68043
                  23632851.2034                                   23632847.6054
                                                                        38.7504
        22.7504
  -2018849.93748  -1531865.36346
                  21659607.6564                                   21659601.2624
                                                                        49.5004
        36.5004
   -693157.10247   -505488.14545
                  22432634.2734                                   22432631.0824
                                                                        46.0004
        31.2504
   -821883.25847   -607483.30144
                  23535457.3834                                   23535452.8404
                                                                        43.5004
        27.7504
 09 10  6 23 32  0.0000000  0  8G02G04G12G13G20G23G30G31
  -2939136.07848  -2218096.31646
                  21278628.8284                                   21278623.1024
                                                                        50.5004
        41.0004
    688894.82048    571005.62547
                  20709073.6954                                   20709070.1804
                                                                        53.0004
        42.0004
   3337429.09447   2614627.43045
                  23602308.4774                                   23602304.9304
                                                                        47.0004
        32.5004
  -3991088.37948  -3045022.85245
                  22533305.5164                                   22533301.6134
                                                                        48.2504
        32.0004
   5006470.46146   3900596.44543
                  23935436.3984                                   23935433.4734
                                                                        40.5004
        22.0004
   -540224.78548   -379689.87945
                  21940980.3054                                   21940974.2154
                                                                        49.0004
        35.5004
    815849.72747    670361.32445
                  22719788.3834                                   22719785.4414
                                                                        44.5004
        31.0004
    682455.39847    564728.61344
                  23821723.2344                                   23821718.7384
                                                                        44.0004
        29.0004
 09 10  6 23 32 30.0000000  0  8G02G04G12G13G20G23G30G31
  -3092381.52748  -2337508.30547
                  21249467.3364                                   21249461.2304
                                                                        51.0004
        42.0004
    617938.80548    515715.19147
                  20695571.2194                                   20695567.7934
                                                                        53.2504
        42.0004
   3321550.45347   2602254.48045
                  23599286.8834                                   23599283.2384
                                                                        47.7504
        32.0004
  -4167090.87948  -3182167.67645
                  22499813.5634                                   22499809.4264
                                                                        49.2504
        32.2504
   5021441.99646   3912262.51243
                  23938285.6564                                   23938281.4384
                                                                        41.2504
        21.5004
   -636295.50448   -454550.23445
                  21922699.3284                                   21922692.6914
                                                                        48.2504
        35.5004
    750185.05147    619193.98845
                  22707292.6644                                   22707290.1334
                                                                        44.7504
        31.0004
    612050.79747    509867.93844
                  23808325.6174                                   23808321.2814
                                                                        44.5004
        28.5004
 09 10  6 23 33  0.0000000  0  8G02G04G12G13G20G23G30G31
  -3245081.03948  -2456494.93046
                  21220409.3984                                   21220403.6884
                                                                        50.5004
        41.2504
    547633.08248    460931.53546
                  20682192.3364                                   20682189.0944
                                                                        53.2504
        41.7504
   3306189.96547   2590285.25845
                  23596363.8284                                   23596360.2704
                                                                        47.2504
        32.0004
  -4342537.30148  -3318879.21545
                  22466427.4224                                   22466422.8204
                                                                        48.5004
        32.5004
   5036708.21146   3924158.29343
                  23941190.5554                                   23941186.3754
                                                                        40.5004
        21.2504
   -731637.16848   -528842.44545
                  21904556.2424                                   21904550.1134
                                                                        49.0004
        35.7504
    685271.19147    568611.73845
                  22694940.3834                                   22694937.3874
                                                                        44.5004
        31.0004
    542325.99647    455536.90244
                  23795057.6644                                   23795053.3914
                                                                        44.7504
        27.5004
 09 10  6 23 33 30.0000000  0  8G02G04G12G13G20G23G30G31
  -3397235.77048  -2575057.09446
                  21191454.9844                                   21191449.3284
                                                                        50.7504
        41.0004
    477974.33648    406652.03146
                  20668936.8524                                   20668933.1414
                                                                        53.2504
        41.7504
   3291342.35247   2578715.70745
                  23593538.4534                                   23593534.2704
                                                                        47.0004
        31.0004
  -4517427.38748  -3455157.15645
                  22433146.8524                                   22433142.7814
                                                                        48.5004
        32.7504
   5052264.12147   3936279.84043
                  23944150.8984                                   23944146.6374
                                                                        43.2504
        23.0004
   -826252.20348   -602568.46145
                  21886551.3754                                   21886545.3094
                                                                        50.0004
        35.7504
    621104.37147    518611.58245
                  22682729.9064                                   22682726.8054
                                                                        45.0004
        30.2504
    473276.87147    401732.40244
                  23781917.5704                                   23781913.6804
                                                                        45.0004
        29.0004
 09 10  6 23 34  0.0000000  0  8G02G04G12G13G20G23G30G31
  -3548843.74648  -2693193.19546
                  21162605.5704                                   21162599.7704
                                                                        51.0004
        41.5004
    408962.01248    352876.41447
                  20655803.8524                                   20655800.6724
                                                                        53.5004
        42.0004
   3277004.36347   2567543.23845
                  23590810.5634                                   23590806.4844
                                                                        47.2504
        31.2504
  -4691758.85948  -3590999.91045
                  22399972.7894                                   22399968.3324
                                                                        48.5004
        32.7504
   5068106.71147   3948624.72743
                  23947165.6094                                   23947161.1914
                                                                        42.2504
        22.5004
   -920140.31248   -675727.89845
                  21868685.2734                                   21868679.0904
                                                                        48.0004
        35.7504
    557683.08647    469192.37145
                  22670661.1564                                   22670658.1254
                                                                        45.0004
        31.0004
    404903.06347    348454.13744
                  23768906.8594                                   23768902.3554
                                                                        45.0004
        28.5004
 09 10  6 23 34 30.0000000  0  8G02G04G12G13G20G23G30G31
  -3699909.73848  -2810906.96946
                  21133858.3984                                   21133852.6374
                                                                        51.5004
        41.7504
    340588.36348    299598.23847
                  20642792.7274                                   20642789.8674
                                                                        53.2504
        42.5004
   3263167.06347   2556760.89145
                  23588176.7974                                   23588172.6844
                                                                        46.5004
        31.0004
  -4865535.52048  -3726410.33245
                  22366904.0554                                   22366900.2424
                                                                        49.0004
        32.2504
   5084227.47747   3961186.43843
                  23950233.3134                                   23950229.2734
                                                                        42.5004
        22.0004
  -1013308.80548   -748326.68045
                  21850955.8204                                   21850949.3324
                                                                        49.5004
        35.7504
    494999.60947    420348.06345
                  22658732.9844                                   22658729.5634
                                                                        44.7504
        30.5004
    337197.07847    295696.22744
                  23756022.5314                                   23756018.4774
                                                                        45.5004
        28.7504
 09 10  6 23 35  0.0000000  0  8G02G04G12G13G20G23G30G31
  -3850429.09048  -2928194.79346
                  21105215.4144                                   21105209.8204
                                                                        50.7504
        41.5004
    272855.75048    246819.50447
                  20629903.9384                                   20629900.7774
                                                                        53.2504
        42.2504
   3249831.04347   2546369.17245
                  23585638.8204                                   23585634.9534
                                                                        46.2504
        30.5004
  -5038751.54348  -3861383.87145
                  22333942.5474                                   22333938.3444
                                                                        48.2504
        31.5004
   5100627.13747   3973965.47743
                  23953353.2664                                   23953349.9964
                                                                        42.5004
        22.5004
  -1105754.06648   -820361.95345
                  21833364.2194                                   21833357.3594
                                                                        48.7504
        35.5004
    433055.81347    372080.16845
                  22646945.0784                                   22646942.1994
                                                                        44.7504
        30.5004
    270160.91447    243460.27744
                  23743266.5944                                   23743262.0664
                                                                        45.0004
        29.5004
 09 10  6 23 35 30.0000000  0  8G02G04G12G13G20G23G30G31
  -4000403.34448  -3045057.85546
                  21076676.3284                                   21076670.3164
                                                                        50.5004
        41.2504
    205760.32448    194537.35547
                  20617136.0784                                   20617132.9384
                                                                        53.2504
        42.0004
   3236990.05547   2536363.22345
                  23583195.6334                                   23583191.2274
                                                                        46.5004
        31.0004
  -5211407.89848  -3995921.29745
                  22301086.6724                                   22301082.4964
                                                                        48.5004
        32.0004
   5117299.74246   3986957.07443
                  23956526.1484                                   23956522.9024
                                                                        41.5004
        22.5004
  -1197479.85548   -891836.63345
                  21815909.0944                                   21815902.6914
                                                                        48.2504
        35.0004
    371846.93047    324384.93445
                  22635297.6564                                   22635294.8094
                                                                        46.0004
        30.7504
    203790.14147    191742.79744
                  23730636.3674                                   23730631.7424
                                                                        45.0004
        29.2504
 09 10  6 23 36  0.0000000  0  8G02G04G12G13G20G23G30G31
  -4149835.05148  -3161498.14146
                  21048240.5084                                   21048234.4774
                                                                        49.7504
        41.0004
    139296.84048    142747.62947
                  20604488.5474                                   20604484.9694
                                                                        53.0004
        42.5004
   3224637.47747   2526737.86745
                  23580845.0234                                   23580841.3364
                                                                        47.2504
        32.2504
  -5383505.86348  -4130023.59445
                  22268337.3364                                   22268333.3244
                                                                        48.7504
        32.2504
   5134238.94146   4000156.39843
                  23959749.8754                                   23959746.4924
                                                                        40.2504
        21.2504
  -1288490.20348   -962753.75845
                  21798590.5084                                   21798584.4454
                                                                        49.7504
        35.2504
    311367.35247    277258.01645
                  22623788.6024                                   22623785.5634
                                                                        45.2504
        30.0004
    138079.68047    140539.84444
                  23718132.1644                                   23718127.4264
                                                                        45.0004
        28.0004
 09 10  6 23 36 30.0000000  0  8G02G04G12G13G20G23G30G31
  -4298717.81248  -3277510.65646
                  21019908.5314                                   21019903.4104
                                                                        51.5004
        41.7504
     73469.64848     91453.69147
                  20591962.0164                                   20591958.7194
                                                                        53.5004
        42.2504
   3212774.66847   2517494.09445
                  23578587.3134                                   23578583.7584
                                                                        47.0004
        31.5004
  -5555038.35948  -4263685.33645
                  22235695.8364                                   22235692.0434
                                                                        48.0004
        33.5004
   5151447.00846   4013565.30543
                  23963025.0944                                   23963020.5474
                                                                        40.5004
        21.2504
  -1378780.73448  -1033110.03946
                  21781409.0004                                   21781402.4654
                                                                        49.5004
        36.0004
    251620.22347    230701.81344
                  22612419.3674                                   22612415.8244
                                                                        45.5004
        29.7504
     73033.13347     89854.22344
                  23705754.1414                                   23705749.7464
                                                                        45.2504
        28.5004
 09 10  6 23 37  0.0000000  0  8G02G04G12G13G20G23G30G31
  -4447054.05148  -3393097.30146
                  20991681.3284                                   20991675.4804
                                                                        51.7504
        41.0004
      8273.62948     40651.59447
                  20579555.6334                                   20579552.2074
                                                                        53.0004
        42.5004
   3201395.46547   2508627.16845
                  23576422.2814                                   23576418.4024
                                                                        46.0004
        32.0004
  -5726006.18448  -4396906.99645
                  22203161.9844                                   22203157.3874
                                                                        48.7504
        32.5004
   5168917.70346   4027178.73043
                  23966348.7734                                   23966345.7114
                                                                        40.5004
        20.2504
  -1468355.34048  -1102908.47346
                  21764363.0864                                   21764356.9774
                                                                        49.5004
        36.7504
    192600.35247    184712.31344
                  22601188.1024                                   22601184.8134
                                                                        46.0004
        29.7504
      8645.64847     39682.16844
                  23693501.2344                                   23693496.7234
                                                                        45.2504
        27.5004
 09 10  6 23 37 30.0000000  0  8G02G04G12G13G20G23G30G31
  -4594842.43748  -3508257.05146
                  20963558.2974                                   20963552.3054
                                                                        51.5004
        41.0004
    -56292.35548     -9659.57046
                  20567269.5474                                   20567265.7544
                                                                        53.0004
        41.7504
   3190496.43047   2500134.42645
                  23574348.6094                                   23574344.3714
                                                                        45.7504
        31.2504
  -5896407.62548  -4529687.30145
                  22170735.6564                                   22170731.2624
                                                                        48.2504
        33.0004
   5186648.36346   4040994.70343
                  23969723.1644                                   23969719.8714
                                                                        40.5004
        22.5004
  -1557214.47748  -1172149.40646
                  21747453.8914                                   21747448.0004
                                                                        50.0004
        36.5004
    134305.71547    139287.94144
                  22590094.9064                                   22590091.1134
                                                                        46.2504
        28.7504
    -55084.62947     -9977.79344
                  23681374.2194                                   23681369.4024
                                                                        44.5004
        27.5004
 09 10  6 23 38  0.0000000  0  8G02G04G12G13G20G23G30G31
  -4742083.17248  -3622990.03547
                  20935539.3984                                   20935533.6214
                                                                        52.2504
        42.0004
   -120231.32448    -59482.16047
                  20555102.1334                                   20555098.4694
                                                                        52.7504
        42.5004
   3180072.70747   2492012.07845
                  23572364.7034                                   23572360.8404
                                                                        45.7504
        31.2504
  -6066241.97748  -4662025.71145
                  22138417.2734                                   22138412.6914
                                                                        49.2504
        32.2504
   5204634.99246   4055010.26243
                  23973146.1954                                   23973142.5634
                                                                        41.5004
        22.5004
  -1645360.29348  -1240834.47745
                  21730680.3054                                   21730674.0354
                                                                        50.5004
        35.7504
     76733.08247     94426.16844
                  22579139.0164                                   22579136.0474
                                                                        46.2504
        29.7504
   -118160.64547    -59127.94144
                  23669371.1334                                   23669366.8244
                                                                        43.2504
        28.2504
 09 10  6 23 38 30.0000000  0  8G02G04G12G13G20G23G30G31
  -4888777.07048  -3737296.93746
                  20907624.3134                                   20907618.3364
                                                                        52.5004
        41.7504
   -183545.97348   -108818.23047
                  20543053.5394                                   20543049.8014
                                                                        52.7504
        42.0004
   3170119.35247   2484256.21545
                  23570470.5084                                   23570466.8404
                                                                        46.2504
        32.0004
  -6235509.34048  -4793922.39845
                  22106206.9384                                   22106202.5864
                                                                        49.2504
        32.2504
   5222872.82446   4069221.59043
                  23976616.6254                                   23976612.9774
                                                                        41.7504
        22.0004
  -1732795.33248  -1308965.59845
                  21714042.1564                                   21714035.6604
                                                                        49.2504
        35.5004
     19878.41847     50123.83645
                  22568320.5004                                   22568316.6954
                                                                        45.5004
        30.5004
   -180585.60547   -107770.77044
                  23657491.9454                                   23657487.3484
                                                                        43.0004
        27.7504
 09 10  6 23 39  0.0000000  0  8G02G04G12G13G20G23G30G31
  -5034921.80548  -3851175.92646
                  20879814.1414                                   20879808.0664
                                                                        51.7504
        41.2504
   -246237.07048   -157668.41047
                  20531123.8984                                   20531120.3984
                                                                        53.2504
        42.0004
   3160634.32847   2476865.33645
                  23568665.8054                                   23568661.7774
                                                                        45.2504
        30.7504
  -6404206.16848  -4925374.50445
                  22074105.0394                                   22074100.6684
                                                                        49.5004
        32.5004
   5241359.96546   4083627.08243
                  23980134.3204                                   23980130.5634
                                                                        38.5004
        18.5004
  -1819519.39848  -1376542.74646
                  21697538.7664                                   21697532.9224
                                                                        50.0004
        36.5004
    -36259.37947      6380.12944
                  22557637.7584                                   22557633.7664
                                                                        45.7504
        29.7504
   -242360.34847   -155906.91844
                  23645737.0004                                   23645731.9184
                                                                        43.0004
        27.5004
 09 10  6 23 39 30.0000000  0  8G02G04G12G13G20G23G30G31
  -5180515.88348  -3964625.84446
                  20852108.3594                                   20852102.4964
                                                                        51.7504
        41.5004
   -308305.29348   -206033.23446
                  20519312.4844                                   20519308.7464
                                                                        52.5004
        41.7504
   3151614.72747   2469837.09444
                  23566949.0084                                   23566945.1334
                                                                        45.2504
        29.2504
  -6572330.07048  -5056380.16845
                  22042112.0164                                   22042107.9654
                                                                        49.2504
        33.2504
   5260094.32046   4098225.28142
                  23983700.0394                                   23983695.7344
                                                                        39.7504
        17.2504
  -1905532.51248  -1443565.90646
                  21681171.3674                                   21681165.0984
                                                                        49.5004
        36.0004
    -91681.78147    -36806.14144
                  22547090.9304                                   22547087.7274
                                                                        45.5004
        28.5004
   -303485.90247   -203537.25044
                  23634104.5784                                   23634099.6484
                                                                        43.5004
        26.0004
 09 10  6 23 40  0.0000000  0  8G02G04G12G13G20G23G30G31
  -5325562.70348  -4077649.33647
                  20824506.7664                                   20824501.0944
                                                                        53.0004
        42.0004
   -369756.66448   -253917.41046
                  20507618.9304                                   20507615.4534
                                                                        53.2504
        41.7504
   3143052.73047   2463165.42245
                  23565319.7034                                   23565315.6454
                                                                        45.5004
        31.0004
  -6739883.30148  -5186941.13745
                  22010227.1644                                   22010223.1914
                                                                        49.0004
        33.2504
   5279068.02046   4113010.01643
                  23987310.3594                                   23987306.6094
                                                                        39.7504
        19.2504
  -1990840.12948  -1510039.33645
                  21664937.3674                                   21664931.4454
                                                                        50.0004
        35.7504
   -146395.29747    -79440.04344
                  22536678.9774                                   22536676.0314
                                                                        47.0004
        29.2504
   -363968.25447   -250666.36744
                  23622594.8054                                   23622590.5704
                                                                        43.0004
        26.7504
 09 10  6 23 40 30.0000000  0  8G02G04G12G13G20G23G30G31
  -3894635.05948  -2962640.78146
                  21096803.2274                                   21096797.2114
                                                                        52.5004
        41.7504
   1144830.53148    926280.39547
                  20795835.3914                                   20795831.4144
                                                                        53.0004
        42.0004
   4710366.41847   3684448.80945
                  23863569.6024                                   23863565.6024
                                                                        45.5004
        30.7504
  -5331437.39548  -4089450.84845
                  22278246.2894                                   22278242.2194
                                                                        48.7504
        32.7504
   6873699.75446   5355580.23443
                  24290758.4384                                   24290754.5634
                                                                        38.5004
        19.5004
   -500019.10548   -348360.61745
                  21948631.7194                                   21948625.3634
                                                                        50.5004
        35.5004
   1375020.67247   1106078.91444
                  22826194.7974                                   22826192.1414
                                                                        46.0004
        29.5004
   1151613.53947    930306.44944
                  23911001.2344                                   23910996.4264
                                                                        43.2504
        25.2504
 09 10  6 23 41  0.0000000  0  8G02G04G12G13G20G23G30G31
  -4038583.18748  -3074808.14146
                  21069410.8914                                   21069405.0554
                                                                        53.0004
        41.5004
   1084609.42648    879354.85946
                  20784375.5164                                   20784372.1024
                                                                        53.0004
        41.7504
   4702710.37547   3678483.03545
                  23862113.0234                                   23862109.1994
                                                                        46.0004
        31.0004
  -5497843.16048  -4219117.77745
                  22246580.1564                                   22246575.8524
                                                                        49.2504
        32.7504
   6893145.69146   5370732.84843
                  24294458.9384                                   24294455.2544
                                                                        40.7504
        22.2504
   -583917.19148   -413735.73045
                  21932666.1564                                   21932659.3984
                                                                        50.7504
        35.7504
   1321719.02347   1064545.18844
                  22816052.4454                                   22816048.7274
                                                                        46.0004
        29.5004
   1092412.55147    884175.80944
                  23899735.0314                                   23899731.0634
                                                                        43.0004
        25.5004
 09 10  6 23 41 30.0000000  0  8G02G04G12G13G20G23G30G31
  -4181980.95748  -3186546.65646
                  21042123.0084                                   21042117.0354
                                                                        52.7504
        41.7504
   1025000.54748    832906.38746
                  20773032.4844                                   20773028.8164
                                                                        52.7504
        41.5004
   4695501.58647   3672865.76644
                  23860741.0084                                   23860737.3794
                                                                        46.0004
        29.5004
  -5663672.25048  -4348335.21145
                  22215023.9064                                   22215019.5474
                                                                        50.0004
        33.5004
   6912822.58246   5386065.45744
                  24298203.8134                                   24298199.9964
                                                                        41.5004
        25.0004
   -667112.72348   -478563.41445
                  21916834.2504                                   21916828.1884
                                                                        50.0004
        35.0004
   1269119.59847   1023558.66444
                  22806042.5784                                   22806039.4654
                                                                        45.7504
        29.7504
   1033849.19547    838542.09044
                  23888591.1334                                   23888586.4144
                                                                        43.0004
        26.2504
 09 10  6 23 42  0.0000000  0  8G02G04G12G13G20G23G30G31
  -4324827.65648  -3297855.74646
                  21014940.4144                                   21014934.5234
                                                                        52.2504
        41.5004
    966001.95748    786933.43046
                  20761805.4774                                   20761801.9024
                                                                        52.7504
        41.5004
   4688736.23047   3667594.02345
                  23859453.5704                                   23859449.6174
                                                                        45.5004
        30.5004
  -5828923.61748  -4477102.45345
                  22183577.5704                                   22183573.0904
                                                                        49.0004
        33.5004
   6932727.40646   5401575.64543
                  24301991.7504                                   24301987.7934
                                                                        41.7504
        22.7504
   -749606.91448   -542844.60945
                  21901136.1564                                   21901130.1764
                                                                        50.0004
        35.2504
   1217219.60247    983117.12144
                  22796166.3444                                   22796163.0784
                                                                        45.5004
        29.2504
    975921.08647    793403.28544
                  23877567.6884                                   23877562.6724
                                                                        42.5004
        26.5004
 09 10  6 23 42 30.0000000  0  8G02G04G12G13G20G23G30G31
  -4467122.68748  -3408734.98047
                  20987862.4384                                   20987856.5704
                                                                        51.0004
        42.2504
    907612.09448    741434.84047
                  20750694.2894                                   20750690.4024
                                                                        53.0004
        42.0004
   4682411.02747   3662665.28145
                  23858249.8134                                   23858245.9734
                                                                        45.5004
        30.5004
  -5993595.48848  -4605418.17245
                  22152241.6174                                   22152237.1214
                                                                        49.5004
        33.5004
   6952856.90646   5417260.84043
                  24305822.3594                                   24305818.0984
                                                                        39.5004
        19.5004
   -831400.52748   -606579.85546
                  21885571.6094                                   21885565.5204
                                                                        50.0004
        36.2504
   1166016.44547    943218.55144
                  22786423.0554                                   22786420.0274
                                                                        44.0004
        29.7504
    918626.01647    748757.82044
                  23866664.5234                                   23866660.4654
                                                                        42.7504
        26.5004
 09 10  6 23 43  0.0000000  0  8G02G04G12G13G20G23G30G31
  -4608862.16448  -3519181.32046
                  20960890.2114                                   20960884.4414
                                                                        52.2504
        41.7504
    849831.89548    696411.28946
                  20739698.7274                                   20739695.4574
                                                                        52.7504
        41.5004
   4676525.13747   3658078.84444
                  23857129.6414                                   23857126.0944
                                                                        45.0004
        29.7504
  -6157683.34848  -4733278.78545
                  22121016.5394                                   22121012.1914
                                                                        49.0004
        33.0004
   6973211.25046   5433121.31642
                  24309694.8834                                   24309691.2894
                                                                        38.2504
        16.7504
   -912492.23848   -669768.21145
                  21870140.3594                                   21870133.8404
                                                                        50.2504
        35.7504
   1115510.50847    903863.24245
                  22776812.2194                                   22776809.0164
                                                                        46.0004
        30.0004
    861964.96547    704606.37544
                  23855882.6334                                   23855877.8594
                                                                        42.0004
        27.5004
 09 10  6 23 43 30.0000000  0  8G02G04G12G13G20G23G30G31
  -4750048.40248  -3629196.57046
                  20934023.3984                                   20934017.6174
                                                                        51.5004
        41.5004
    792656.77048    651859.23846
                  20728818.8134                                   20728815.5594
                                                                        52.5004
        41.7504
   4671071.80547   3653829.47345
                  23856092.6804                                   23856088.2034
                                                                        45.5004
        30.5004
  -6321189.06248  -4860685.82845
                  22089902.2504                                   22089898.0434
                                                                        49.0004
        33.0004
   6993784.32846   5449152.25842
                  24313609.6804                                   24313606.2734
                                                                        38.2504
        16.7504
   -992886.46148   -732413.06245
                  21854841.9694                                   21854835.3484
                                                                        50.0004
        35.0004
   1065696.50447    865047.11744
                  22767332.6644                                   22767329.2074
                                                                        45.0004
        29.7504
    805932.75046    660944.91844
                  23845220.0164                                   23845215.3484
                                                                        41.5004
        27.5004
 09 10  6 23 44  0.0000000  0  8G02G04G12G13G20G23G30G31
  -4890682.39848  -3738781.48447
                  20907261.8134                                   20907256.0744
                                                                        52.0004
        42.0004
    736083.05548    607775.79747
                  20718053.1094                                   20718049.8284
                                                                        53.2504
        42.2504
   4666045.99647   3649913.30545
                  23855136.1174                                   23855132.4264
                                                                        45.5004
        30.0004
  -6484112.08648  -4987638.79345
                  22058898.8444                                   22058894.8634
                                                                        49.7504
        34.0004
   7014571.29346   5465349.93443
                  24317566.3984                                   24317561.5824
                                                                        40.7504
        19.2504
  -1072585.64548   -794516.29345
                  21839675.4454                                   21839669.3874
                                                                        50.0004
        35.7504
   1016570.03547    826766.75445
                  22757984.3674                                   22757980.9024
                                                                        44.7504
        30.5004
    750525.97747    617770.79744
                  23834676.7504                                   23834671.5274
                                                                        44.7504
        28.5004
 09 10  6 23 44 30.0000000  0  8G02G04G12G13G20G23G30G31
  -5030759.93748  -3847932.80947
                  20880605.8444                                   20880599.9534
                                                                        52.2504
        42.5004
    680112.30548    564162.22746
                  20707402.1724                                   20707399.0124
                                                                        53.7504
        41.0004
   4661447.00847   3646329.70744
                  23854260.7114                                   23854256.9224
                                                                        45.7504
        29.5004
  -6646447.39548  -5114133.80545
                  22028007.8594                                   22028003.8874
                                                                        49.0004
        35.0004
   7035572.70346   5481714.83243
                  24321562.3364                                   24321558.2034
                                                                        41.5004
        21.5004
  -1151587.93048   -856076.51645
                  21824641.8674                                   21824635.6484
                                                                        50.0004
        35.5004
    968131.84447    789022.73445
                  22748766.8134                                   22748763.5904
                                                                        45.7504
        30.5004
    695744.94147    575084.27044
                  23824252.1724                                   23824246.9654
                                                                        45.2504
        28.5004
 09 10  6 23 45  0.0000000  0  8G02G04G12G13G20G23G30G31
  -5170282.16448  -3956651.39146
                  20854055.7274                                   20854049.4924
                                                                        51.5004
        41.5004
    624741.13348    521015.85546
                  20696865.6334                                   20696862.0044
                                                                        53.7504
        41.7504
   4657269.67647   3643074.66445
                  23853465.6094                                   23853462.1214
                                                                        43.7504
        30.0004
  -6808195.02748  -5240170.91045
                  21997228.2424                                   21997224.2664
                                                                        48.7504
        33.2504
   7056783.41046   5498242.64143
                  24325598.4384                                   24325594.6724
                                                                        40.7504
        22.7504
  -1229896.09048   -917095.83245
                  21809740.7114                                   21809733.8204
                                                                        49.7504
        35.0004
    920377.76247    751811.81345
                  22739678.9614                                   22739676.1884
                                                                        45.2504
        31.0004
    641586.66847    532883.02044
                  23813946.2734                                   23813941.6484
                                                                        46.0004
        29.0004
 09 10  6 23 45 30.0000000  0  7G02G04G12G13G23G30G31
  -5309248.90248  -4064937.13746
                  20827611.0004                                   20827604.9344
                                                                        51.7504
        41.7504
    569966.96548    478334.67646
                  20686442.1094                                   20686438.8134
                                                                        53.7504
        41.7504
   4653509.57447   3640144.68844
                  23852749.8984                                   23852746.1804
                                                                        43.5004
        28.5004
  -6969354.28948  -5365749.50045
                  21966560.5784                                   21966556.3754
                                                                        49.0004
        33.5004
  -1307512.35948   -977576.02345
                  21794970.3754                                   21794963.8324
                                                                        49.2504
        35.0004
    873304.42247    715131.31645
                  22730721.1564                                   22730718.4494
                                                                        44.5004
        30.5004
    588047.87147    491164.46544
                  23803758.0554                                   23803753.4224
                                                                        45.5004
        28.7504
 09 10  6 23 46  0.0000000  0  7G02G04G12G13G23G30G31
  -5447657.65248  -4172788.09847
                  20801272.8444                                   20801267.0394
                                                                        51.0004
        42.0004
    515789.39548    436118.38746
                  20676132.6174                                   20676129.2034
                                                                        53.2504
        41.2504
   4650164.62547   3637538.13344
                  23852113.7034                                   23852109.6174
                                                                        44.5004
        29.0004
  -7129922.10948  -5490867.21545
                  21936005.4144                                   21936001.4654
                                                                        49.7504
        33.5004
  -1384436.68748  -1037517.05545
                  21780332.0634                                   21780325.5904
                                                                        49.0004
        34.7504
    826910.23047    678980.04744
                  22721892.6804                                   22721889.7074
                                                                        44.5004
        29.2504
    535127.83647    449928.08644
                  23793688.0704                                   23793683.4804
                                                                        45.0004
        29.2504
 09 10  6 23 46 30.0000000  0  7G02G04G12G13G23G30G31
  -5585505.53148  -4280202.02746
                  20775041.3444                                   20775035.5704
                                                                        51.2504
        41.7504
    462209.17248    394367.55546
                  20665936.6724                                   20665933.2274
                                                                        53.7504
        41.2504
   4647234.03947   3635254.53144
                  23851556.2664                                   23851552.0004
                                                                        44.5004
        29.5004
  -7289894.51248  -5615521.02745
                  21905563.8364                                   21905559.4024
                                                                        49.7504
        33.7504
  -1460667.55948  -1096917.76645
                  21765825.7194                                   21765819.5234
                                                                        48.5004
        34.7504
    781195.31347    643358.06645
                  22713193.5944                                   22713190.4654
                                                                        44.0004
        30.5004
    482826.89847    409174.07844
                  23783735.0704                                   23783731.0354
                                                                        44.5004
        29.2504
 09 10  6 23 47  0.0000000  0  7G02G04G12G13G23G30G31
  -5722786.10548  -4387173.93047
                  20748917.8594                                   20748911.8204
                                                                        51.0004
        42.0004
    409229.82048    353084.91847
                  20655855.1484                                   20655851.8484
                                                                        53.0004
        42.0004
   4644719.39547   3633295.09044
                  23851077.6954                                   23851073.6484
                                                                        45.5004
        29.5004
  -7449263.79348  -5739704.79345
                  21875236.7504                                   21875232.3634
                                                                        49.5004
        33.7504
  -1536200.94547  -1155774.96145
                  21751452.4614                                   21751446.4184
                                                                        47.5004
        35.0004
    736162.79747    608267.79345
                  22704624.6174                                   22704621.5124
                                                                        45.0004
        30.0004
    431148.39147    368905.07844
                  23773901.0394                                   23773897.1454
                                                                        44.0004
        28.7504
 09 10  6 23 47 30.0000000  0  7G02G04G12G13G23G30G31
  -5859501.48048  -4493705.42647
                  20722901.4224                                   20722895.8014
                                                                        51.7504
        42.2504
    356846.79348    312266.93846
                  20645886.7584                                   20645883.6484
                                                                        53.0004
        41.7504
   4642614.27047   3631654.72345
                  23850677.5164                                   23850673.5004
                                                                        44.5004
        30.5004
  -7608031.99648  -5863420.28945
                  21845024.2424                                   21845019.8984
                                                                        49.5004
        34.2504
  -1611040.86348  -1214091.69145
                  21737210.5784                                   21737204.6644
                                                                        48.7504
        35.0004
    691806.86347    573704.66845
                  22696183.8054                                   22696180.9414
                                                                        45.2504
        30.5004
    380087.27747    329117.19944
                  23764184.1644                                   23764180.1484
                                                                        44.5004
        28.0004
 09 10  6 23 48  0.0000000  0  8G02G04G12G13G29G23G30G31
  -5995656.87948  -4599800.58247
                  20696992.0784                                   20696986.0514
                                                                        51.7504
        42.5004
    305052.02048    271907.35946
                  20636030.7344                                   20636027.3284
                                                                        53.5004
        41.7504
   4640908.93447   3630325.87544
                  23850352.6174                                   23850348.9384
                                                                        44.0004
        28.0004
  -7766203.32848  -5986670.73845
                  21814925.0704                                   21814921.2854
                                                                        49.5004
        34.2504
   6051340.45357   4755394.14854
                  24288384.1254                                   24288381.4924
                                                                        42.7504
        26.2504
  -1685194.91048  -1271874.03145
                  21723099.6564                                   21723092.9224
                                                                        49.7504
        35.0004
    648118.85247    539662.02345
                  22687870.0474                                   22687867.0864
                                                                        45.2504
        30.2504
    329635.51647    289804.12544
                  23754583.7974                                   23754579.7154
                                                                        44.0004
        28.7504
 09 10  6 23 48 30.0000000  0  8G02G04G12G13G29G23G30G31
  -6131257.49248  -4705463.43047
                  20671187.8284                                   20671182.2234
                                                                        51.2504
        42.2504
    253837.99248    232000.27346
                  20626285.1954                                   20626281.6484
                                                                        53.2504
        41.5004
   4639594.00447   3629301.18844
                  23850102.5084                                   23850098.5004
                                                                        44.0004
        29.2504
  -7923781.64148  -6109458.99645
                  21784939.3834                                   21784934.3244
                                                                        50.0004
        34.0004
   5858983.61347   4605505.71944
                  24251779.9304                                   24251777.0124
                                                                        42.0004
        26.5004
  -1758670.62148  -1329127.86345
                  21709117.5784                                   21709111.2304
                                                                        49.0004
        34.7504
    605090.45747    506133.39545
                  22679681.7584                                   22679679.0124
                                                                        44.2504
        30.0004
    279784.74647    250959.37944
                  23745097.1884                                   23745093.0394
                                                                        42.0004
        28.7504
 09 10  6 23 49  0.0000000  0  8G02G04G12G13G29G23G30G31
  -6266308.43748  -4810697.93047
                  20645488.7504                                   20645482.8204
                                                                        50.7504
        42.0004
    203196.85248    192539.61747
                  20616648.5394                                   20616645.0704
                                                                        53.5004
        42.0004
   4638659.91047   3628573.28544
                  23849924.7034                                   23849920.8954
                                                                        44.0004
        28.2504
  -8080771.36748  -6231788.64845
                  21755064.7344                                   21755060.4534
                                                                        49.2504
        34.0004
   5666902.50046   4455832.14144
                  24215228.1884                                   24215225.2304
                                                                        41.5004
        27.0004
  -1831475.06648  -1385858.59445
                  21695263.5164                                   21695257.2974
                                                                        48.5004
        35.0004
    562712.77047    473111.76244
                  22671618.1334                                   22671614.4064
                                                                        44.7504
        29.2504
    230526.91447    212576.62144
                  23735724.0164                                   23735719.5204
                                                                        43.2504
        28.5004
 09 10  6 23 49 30.0000000  0  8G02G04G12G13G29G23G30G31
  -4825384.74648  -3687900.27047
                  20919687.3594                                   20919681.7814
                                                                        51.5004
        42.0004
   1728548.34048   1381125.18046
                  20906913.2424                                   20906909.6564
                                                                        52.0004
        41.5004
   6213522.94147   4855739.25844
                  24149611.3834                                   24149607.4734
                                                                        44.2504
        28.5004
  -6661746.05148  -5126054.44945
                  22025095.8364                                   22025092.2344
                                                                        49.0004
        35.0004
   7050525.26246   5533979.77043
                  24478522.2734                                   24478519.7384
                                                                        40.0004
        23.7504
   -328187.37148   -214465.60245
                  21981329.7034                                   21981323.6094
                                                                        49.5004
        35.0004
   2096404.17247   1668195.87944
                  22963469.7974                                   22963466.5784
                                                                        44.5004
        28.5004
   1757281.18446   1402255.25844
                  24026255.6724                                   24026251.1414
                                                                        40.5004
        26.7504
 09 10  6 23 50  0.0000000  0  8G02G04G12G13G29G23G30G31
  -4959330.73448  -3792273.78547
                  20894198.3754                                   20894192.5004
                                                                        51.5004
        42.0004
   1679050.92248   1342555.75846
                  20897494.2664                                   20897490.8014
                                                                        53.2504
        41.7504
   6213343.39547   4855599.41844
                  24149577.0634                                   24149573.4804
                                                                        45.0004
        29.2504
  -6817551.00048  -5247460.85545
                  21995447.3984                                   21995443.1454
                                                                        50.2504
        34.7504
   6859004.93446   5384743.23444
                  24442077.3914                                   24442074.7194
                                                                        39.5004
        25.2504
   -399649.70748   -270150.49645
                  21967731.0004                                   21967724.6484
                                                                        49.0004
        34.7504
   2055323.13747   1636184.67644
                  22955652.3284                                   22955648.7544
                                                                        43.5004
        28.5004
   1709205.79347   1364793.90644
                  24017107.0314                                   24017103.1374
                                                                        42.7504
        27.2504
 09 10  6 23 50 30.0000000  0  8G02G04G12G13G29G23G30G31
  -5092714.08248  -3896208.87547
                  20868816.3984                                   20868810.5784
                                                                        51.7504
        42.2504
   1630131.75848   1304436.97346
                  20888185.0784                                   20888181.5394
                                                                        52.0004
        41.7504
   6213544.48047   4855756.19544
                  24149615.1414                                   24149611.4494
                                                                        45.2504
        29.7504
  -6972752.42648  -5368397.10545
                  21965914.1414                                   21965909.7274
                                                                        49.7504
        34.7504
   6667776.55946   5235734.19144
                  24405687.9844                                   24405684.8404
                                                                        40.7504
        25.5004
   -470434.37148   -325307.38345
                  21954261.0314                                   21954254.6374
                                                                        49.5004
        35.0004
   2014895.33647   1604682.45344
                  22947959.1884                                   22947955.7664
                                                                        43.0004
        28.7504
   1661727.21346   1327797.62744
                  24008072.5554                                   24008067.8014
                                                                        40.0004
        26.0004
 09 10  6 23 51  0.0000000  0  8G02G04G12G13G29G23G30G31
  -5225532.60548  -3999703.87547
                  20843541.8674                                   20843536.0944
                                                                        51.0004
        42.2504
   1581790.16448   1266768.17646
                  20878986.1884                                   20878981.9804
                                                                        53.2504
        41.7504
   6214124.41847   4856208.08244
                  24149725.6024                                   24149721.5204
                                                                        45.7504
        29.0004
  -7127346.63748  -5488860.10945
                  21936495.5634                                   21936491.3244
                                                                        49.7504
        34.2504
   6476843.27346   5086955.05144
                  24369353.9454                                   24369351.1604
                                                                        41.0004
        26.2504
   -540541.00447   -379935.93045
                  21940920.2584                                   21940914.0394
                                                                        47.2504
        35.5004
   1975119.57447   1573688.32844
                  22940390.0084                                   22940386.7424
                                                                        44.0004
        29.0004
   1614844.69947   1291265.84044
                  23999151.0394                                   23999146.3244
                                                                        43.7504
        26.5004
 09 10  6 23 51 30.0000000  0  8G02G04G12G13G29G23G30G31
  -5357787.10548  -4102759.34047
                  20818374.5784                                   20818369.0394
                                                                        52.0004
        42.0004
   1534022.69148   1229546.77347
                  20869896.3054                                   20869892.4494
                                                                        53.2504
        42.0004
   6215077.78547   4856951.03144
                  24149906.8134                                   24149902.4804
                                                                        45.2504
        28.5004
  -7281334.41848  -5608850.57445
                  21907192.6334                                   21907187.8014
                                                                        50.0004
        35.5004
   6286205.47346   4938406.14544
                  24333076.6884                                   24333074.0314
                                                                        39.7504
        24.5004
   -609972.94148   -434038.77045
                  21927707.3984                                   21927701.1374
                                                                        48.7504
        35.0004
   1935991.18847   1543198.62944
                  22932944.3364                                   22932941.3204
                                                                        44.7504
        28.7504
   1568554.51247   1255195.60944
                  23990342.2734                                   23990337.3914
                                                                        43.0004
        25.5004
 09 10  6 23 52  0.0000000  0  8G02G04G12G13G29G23G30G31
  -5489473.28948  -4205371.91447
                  20793315.3674                                   20793310.2274
                                                                        51.0004
        42.0004
   1486831.37148   1192774.37146
                  20860916.0164                                   20860912.4734
                                                                        53.5004
        41.7504
   6216404.68047   4857985.07044
                  24150159.5704                                   24150155.2274
                                                                        44.7504
        28.5004
  -7434710.35248  -5728364.28545
                  21878006.1414                                   21878001.7304
                                                                        49.2504
        34.7504
   6095868.50446   4790091.61744
                  24296856.8524                                   24296853.4654
                                                                        41.2504
        25.0004
   -678728.23848   -487614.37145
                  21914624.3524                                   21914617.6454
                                                                        48.7504
        34.7504
   1897511.30947   1513214.25844
                  22925622.1724                                   22925618.8284
                                                                        44.5004
        28.5004
   1522857.60547   1219587.64144
                  23981646.8674                                   23981641.2274
                                                                        43.2504
        26.0004
 09 10  6 23 52 30.0000000  0  8G02G04G12G13G29G23G30G31
  -5620594.11348  -4307543.97347
                  20768364.1884                                   20768358.6524
                                                                        51.5004
        42.2504
   1440209.99648   1156446.03147
                  20852043.9844                                   20852040.6524
                                                                        53.5004
        42.0004
   6218097.62947   4859304.31644
                  24150481.3594                                   24150477.3054
                                                                        44.5004
        28.7504
  -7587476.98048  -5847403.25045
                  21848935.5084                                   21848931.5274
                                                                        49.5004
        35.2504
   5905830.09446   4642009.59444
                  24260694.3364                                   24260690.8094
                                                                        41.7504
        26.7504
   -746811.87148   -540666.51245
                  21901668.2034                                   21901662.0944
                                                                        48.5004
        34.7504
   1859673.21547   1483730.01245
                  22918421.1954                                   22918418.4774
                                                                        44.2504
        30.0004
   1477747.77347   1184437.14144
                  23973062.6024                                   23973057.1454
                                                                        43.2504
        25.5004
 09 10  6 23 53  0.0000000  0  8G02G04G12G13G29G23G30G31
  -5751147.32048  -4409273.73447
                  20743520.4774                                   20743515.1174
                                                                        52.5004
        42.2504
   1394158.61748   1120561.84446
                  20843280.8594                                   20843277.5394
                                                                        53.2504
        41.2504
   6220155.03547   4860907.51644
                  24150873.0634                                   24150869.3164
                                                                        43.7504
        27.5004
  -7739630.71148  -5965964.65645
                  21819981.7274                                   21819977.5004
                                                                        49.0004
        34.5004
   5716094.31346   4494163.54744
                  24224588.4844                                   24224585.5204
                                                                        41.7504
        25.5004
   -814223.60548   -593195.14145
                  21888839.8754                                   21888833.5984
                                                                        49.5004
        35.2504
   1822475.86347   1454745.05544
                  22911342.6094                                   22911340.1374
                                                                        44.5004
        28.7504
   1433224.89147   1149744.00444
                  23964589.5944                                   23964584.9614
                                                                        42.7504
        25.7504
 09 10  6 23 53 30.0000000  0  9G02G04G12G13G29G10G23G30G31
  -5881130.50448  -4510559.30947
                  20718785.6094                                   20718779.9264
                                                                        51.7504
        42.5004
   1348676.93448   1085121.55546
                  20834626.0554                                   20834622.5314
                                                                        52.5004
        41.5004
   6222574.82847   4862793.05544
                  24151333.0784                                   24151329.5824
                                                                        43.7504
        28.5004
  -7891168.39848  -6084045.98445
                  21791144.7274                                   21791140.9144
                                                                        49.0004
        35.0004
   5526664.26247   4346555.72744
                  24188541.1414                                   24188538.4694
                                                                        42.0004
        26.5004
   7606476.26257   5942278.86754
                  24123189.1174                                   24123186.8634
                                                                        42.5004
        26.0004
   -880963.70348   -645200.43445
                  21876139.7114                                   21876133.5904
                                                                        49.2504
        35.0004
   1785917.98447   1426258.37544
                  22904387.0234                                   22904383.2974
                                                                        45.0004
        29.5004
   1389287.90647   1115507.37944
                  23956229.2034                                   23956224.2114
                                                                        43.0004
        26.0004
 09 10  6 23 54  0.0000000  0  9G02G04G12G13G29G10G23G30G31
  -6010545.14548  -4611401.86747
                  20694159.0314                                   20694153.2344
                                                                        52.0004
        42.0004
   1303761.19948   1050122.30546
                  20826079.1724                                   20826075.3634
                                                                        53.5004
        41.2504
   6225350.69547   4864955.95344
                  24151861.7974                                   24151858.1684
                                                                        44.2504
        28.0004
  -8042090.77348  -6201647.91445
                  21762425.4774                                   21762421.2734
                                                                        49.5004
        35.2504
   5337540.01246   4199186.23843
                  24152551.3914                                   24152548.9774
                                                                        41.5004
        23.0004
   7398412.68447   5780151.41044
                  24083595.7504                                   24083593.2304
                                                                        43.5004
        26.0004
   -947035.28948   -696684.75845
                  21863567.2504                                   21863560.6914
                                                                        48.7504
        34.7504
   1749994.94147   1398266.35545
                  22897550.5234                                   22897547.7464
                                                                        45.5004
        30.0004
   1345932.52047   1081723.96944
                  23947978.3984                                   23947974.5274
                                                                        42.7504
        27.5004
 09 10  6 23 54 30.0000000  0  9G02G04G12G13G29G10G23G30G31
  -6139395.40648  -4711804.64547
                  20669639.3914                                   20669634.0234
                                                                        51.5004
        42.7504
   1259404.21948   1015558.43846
                  20817638.0394                                   20817634.7194
                                                                        52.7504
        41.0004
   6228474.51247   4867389.97744
                  24152456.6174                                   24152452.4654
                                                                        44.0004
        28.0004
  -8192401.34448  -6318772.98445
                  21733822.2814                                   21733818.3484
                                                                        49.2504
        35.7504
   5148718.32046   4052052.52344
                  24116618.9454                                   24116617.5124
                                                                        41.0004
        24.7504
   7190533.83246   5618167.84444
                  24044038.4614                                   24044035.1484
                                                                        41.0004
        24.5004
  -1012445.15648   -747653.40645
                  21851119.7584                                   21851113.4384
                                                                        48.5004
        35.2504
   1714698.42247   1370762.53944
                  22890834.2504                                   22890830.8554
                                                                        44.5004
        29.0004
   1303151.28547   1048387.94544
                  23939837.7274                                   23939833.1254
                                                                        42.7504
        28.2504
 09 10  6 23 55  0.0000000  0  9G02G04G12G13G29G10G23G30G31
  -6267676.96148  -4811764.27747
                  20645228.1484                                   20645222.1524
                                                                        52.0004
        42.2504
   1215607.78148    981431.35946
                  20809303.5864                                   20809300.3134
                                                                        52.0004
        41.5004
   6231946.53947   4870095.31644
                  24153117.1414                                   24153113.5354
                                                                        45.0004
        28.0004
  -8342095.12948  -6435417.40645
                  21705336.5084                                   21705332.1484
                                                                        49.7504
        35.2504
   4960204.42246   3905158.63344
                  24080747.3594                                   24080745.0474
                                                                        41.5004
        28.5004
   6982845.67246   5456333.12544
                  24004515.3054                                   24004513.3984
                                                                        40.7504
        24.0004
  -1077191.62548   -798105.19945
                  21838798.6884                                   21838792.6884
                                                                        49.0004
        34.5004
   1680029.43847   1343747.77044
                  22884236.8284                                   22884233.6724
                                                                        45.2504
        29.2504
   1260945.49246   1015500.32844
                  23931805.9224                                   23931801.6724
                                                                        40.0004
        28.0004
 09 10  6 23 55 30.0000000  0  9G02G04G12G13G29G10G23G30G31
  -6395384.06648  -4911276.27347
                  20620926.4064                                   20620920.2894
                                                                        52.5004
        42.7504
   1172375.01248    947743.46546
                  20801076.8834                                   20801073.5164
                                                                        53.0004
        41.5004
   6235768.14147   4873072.96144
                  24153844.5784                                   24153840.7424
                                                                        44.2504
        28.2504
  -8491165.63348  -6551576.19145
                  21676969.3754                                   21676964.9574
                                                                        49.5004
        35.2504
   4772005.34047   3758510.03544
                  24044934.1414                                   24044931.4064
                                                                        43.0004
        27.5004
   6775354.85947   5294652.55944
                  23965031.7424                                   23965028.4264
                                                                        43.2504
        27.0004
  -1141270.98048   -848037.18745
                  21826605.0474                                   21826598.7934
                                                                        48.2504
        34.5004
   1645990.03547   1317223.57044
                  22877758.4774                                   22877755.6684
                                                                        44.7504
        29.2504
   1219317.91847    983063.27044
                  23923884.3204                                   23923880.3364
                                                                        43.0004
        27.2504
 09 10  6 23 56  0.0000000  0  9G02G04G12G13G29G10G23G30G31
  -6522516.74248  -5010340.67247
                  20596734.1884                                   20596728.3014
                                                                        52.0004
        42.7504
   1129703.21948    914492.74646
                  20792956.5234                                   20792953.3834
                                                                        53.0004
        41.7504
   6239935.07447   4876319.80144
                  24154637.4694                                   24154633.5354
                                                                        43.0004
        27.5004
  -8639612.01648  -6667248.64845
                  21648720.9694                                   21648716.2544
                                                                        48.5004
        35.2504
   4584122.48847   3612107.84044
                  24009181.8364                                   24009178.4804
                                                                        43.2504
        28.7504
   6568060.24247   5133124.18444
                  23925585.0394                                   23925581.5744
                                                                        43.5004
        27.5004
  -1204685.64148   -897451.22745
                  21814537.5164                                   21814531.1024
                                                                        48.7504
        35.5004
   1612576.52347   1291187.07844
                  22871401.0234                                   22871397.6844
                                                                        45.5004
        28.7504
   1178265.41847    951074.31344
                  23916072.4844                                   23916068.2544
                                                                        42.7504
        27.7504
 09 10  6 23 56 30.0000000  0  9G02G04G12G13G29G10G23G30G31
  -6649071.22748  -5108954.52347
                  20572651.2584                                   20572645.5084
                                                                        52.0004
        42.5004
   1087593.54348    881680.00446
                  20784943.3674                                   20784940.2194
                                                                        52.0004
        41.7504
   6244447.04747   4879835.60244
                  24155495.6484                                   24155492.3324
                                                                        42.0004
        27.0004
  -8787430.16448  -6782431.66445
                  21620591.7034                                   21620587.8674
                                                                        48.7504
        35.5004
   4396560.60247   3465955.75044
                  23973489.6414                                   23973486.5744
                                                                        43.0004
        27.7504
   6360968.07447   4971753.72744
                  23886176.4614                                   23886173.4534
                                                                        43.7504
        26.5004
  -1267434.00848   -946346.06645
                  21802597.3364                                   21802591.3164
                                                                        49.0004
        35.0004
   1579788.86747   1265638.31344
                  22865160.7584                                   22865157.9184
                                                                        45.5004
        28.7504
   1137788.30546    919533.69544
                  23908370.0554                                   23908365.7154
                                                                        40.5004
        28.0004
 09 10  6 23 57  0.0000000  0  9G02G04G12G13G29G10G23G30G31
  -6775044.99648  -5207115.87147
                  20548679.1564                                   20548673.3164
                                                                        52.0004
        42.5004
   1046046.00448    849305.30546
                  20777037.4144                                   20777033.9534
                                                                        52.7504
        41.5004
   6249302.40247   4883618.85544
                  24156419.8674                                   24156415.8754
                                                                        43.0004
        28.7504
  -8934616.20748  -6897122.07845
                  21592583.4384                                   21592579.0204
                                                                        49.7504
        35.0004
   4209323.54346   3320056.73044
                  23937859.1804                                   23937856.0704
                                                                        41.5004
        25.7504
   6154081.82847   4810543.77344
                  23846807.2344                                   23846804.0784
                                                                        42.7504
        25.5004
  -1329515.65248   -994721.36745
                  21790783.5784                                   21790777.0904
                                                                        49.5004
        35.0004
   1547626.39147   1240576.67644
                  22859041.0164                                   22859037.7664
                                                                        44.5004
        28.5004
   1097886.60247    888441.48044
                  23900776.6954                                   23900772.5634
                                                                        43.0004
        27.2504
 09 10  6 23 57 30.0000000  0  9G02G04G12G13G29G10G23G30G31
  -6900439.15248  -5304825.58647
                  20524817.6024                                   20524811.4494
                                                                        52.0004
        42.2504
   1005056.82448    817365.69146
                  20769237.1414                                   20769233.8404
                                                                        53.5004
        41.5004
   6254495.85547   4887665.67644
                  24157408.4924                                   24157405.2854
                                                                        43.0004
        28.5004
  -9081170.82848  -7011320.52745
                  21564694.8594                                   21564690.3754
                                                                        50.0004
        35.5004
   4022411.23846   3174410.69544
                  23902291.1484                                   23902287.8204
                                                                        39.5004
        24.5004
   5947400.87546   4649493.82443
                  23807476.8594                                   23807474.0594
                                                                        41.5004
        22.5004
  -1390934.13348  -1042579.90645
                  21779095.9144                                   21779089.5234
                                                                        50.0004
        34.5004
   1516084.17647   1215998.35244
                  22853038.6174                                   22853035.4494
                                                                        44.5004
        28.5004
   1058555.66047    857793.98044
                  23893292.4844                                   23893288.1564
                                                                        43.5004
        27.5004
 09 10  6 23 58  0.0000000  0  9G02G04G12G13G29G10G23G30G31
  -5449823.34048  -4174475.59847
                  20800860.5634                                   20800854.6604
                                                                        52.2504
        42.5004
   2540051.34448   2013465.31646
                  21061336.9144                                   21061333.5474
                                                                        52.7504
        41.5004
   7835449.45347   6119577.62544
                  24458253.6644                                   24458250.0164
                                                                        43.2504
        28.5004
  -7651661.86748  -5897417.37945
                  21836721.7274                                   21836717.0704
                                                                        50.0004
        35.5004
   5411257.74246   4256628.72744
                  24166579.3204                                   24166576.5434
                                                                        39.2504
        24.7504
   7316359.22747   5716214.54744
                  24067981.4614                                   24067977.8794
                                                                        42.5004
        25.5004
    123736.79348    137683.15245
                  22067328.0084                                   22067321.5904
                                                                        49.5004
        34.5004
   3060586.24647   2419506.49244
                  23146947.6024                                   23146944.6094
                                                                        45.0004
        27.7504
   2595220.40247   2055195.08644
                  24185710.4454                                   24185705.7114
                                                                        43.0004
        27.2504
 09 10  6 23 58 30.0000000  0  9G02G04G12G13G29G10G23G30G31
  -5574047.34848  -4271273.51247
                  20777221.4924                                   20777215.8014
                                                                        52.2504
        42.2504
   2500182.18848   1982398.44146
                  21053750.2194                                   21053746.7894
                                                                        53.5004
        41.0004
   7841317.27747   6124150.00044
                  24459370.8364                                   24459366.9734
                                                                        44.0004
        28.0004
  -7796940.28548  -6010621.28145
                  21809076.1564                                   21809071.2934
                                                                        50.0004
        34.7504
   5225010.20346   4111500.71544
                  24131138.2584                                   24131134.7934
                                                                        40.7504
        25.5004
   7110102.41047   5555495.04344
                  24028732.1334                                   24028728.9774
                                                                        42.2504
        26.2504
     63648.52048     90861.11745
                  22055893.4064                                   22055887.3754
                                                                        49.5004
        35.2504
   3030285.11347   2395895.21544
                  23141181.2424                                   23141178.5864
                                                                        44.5004
        27.7504
   2557033.22347   2025438.85544
                  24178443.4454                                   24178439.3914
                                                                        42.7504
        27.0004
 09 10  6 23 59  0.0000000  0  9G02G04G12G13G29G10G23G30G31
  -5697687.99648  -4367616.84847
                  20753693.4614                                   20753687.7734
                                                                        52.2504
        42.5004
   2460866.91848   1951763.16446
                  21046268.5554                                   21046264.9454
                                                                        52.7504
        41.0004
   7847513.63747   6128978.32844
                  24460549.3444                                   24460546.0664
                                                                        42.5004
        27.0004
  -7941581.56248  -6123328.73845
                  21781551.5004                                   21781547.2894
                                                                        50.0004
        35.2504
   5039094.78146   3966631.53544
                  24095759.8984                                   24095757.0554
                                                                        41.2504
        26.7504
   6904056.81347   5394940.12544
                  23989522.7814                                   23989519.6684
                                                                        42.2504
        28.2504
      4219.62948     44552.87545
                  22044584.3754                                   22044578.1254
                                                                        49.0004
        34.7504
   3000596.99247   2372761.59044
                  23135531.8674                                   23135528.6644
                                                                        44.0004
        28.0004
   2519411.10946   1996122.94144
                  24171283.8364                                   24171279.5744
                                                                        41.7504
        24.2504
 09 10  6 23 59 30.0000000  0  9G02G04G12G13G29G10G23G30G31
  -5820744.60548  -4463505.12147
                  20730276.4774                                   20730270.5634
                                                                        51.7504
        42.7504
   2422104.33248   1921558.58246
                  21038892.6094                                   21038888.8754
                                                                        53.0004
        41.2504
   7854035.35247   6134060.09844
                  24461790.9384                                   24461787.4694
                                                                        43.5004
        27.2504
  -8085583.99648  -6235538.45745
                  21754148.7814                                   21754144.7584
                                                                        49.5004
        35.0004
   4853514.03546   3822023.11744
                  24060444.5634                                   24060441.9304
                                                                        41.2504
        28.0004
   6698224.72746   5234551.68844
                  23950353.9534                                   23950350.5704
                                                                        41.2504
        27.2504
    -54550.99648     -1242.40245
                  22033400.7274                                   22033394.7344
                                                                        48.7504
        34.7504
   2971519.03547   2350103.42644
                  23129998.7424                                   23129995.1254
                                                                        44.2504
        29.0004
   2482352.05146   1967245.75844
                  24164231.4224                                   24164227.2504
                                                                        41.5004
        25.0004
