     2.11           OBSERVATION DATA    G (GPS)             RINEX VERSION / TYPE
teqc  2019Feb25                         20221121 12:28:19UTCPGM / RUN BY / DATE
OSX ker:10.11.6|Core i5|gcc 4.3 -m64|OSX ker:10.10+|=+      COMMENT
BIT 2 OF LLI FLAGS DATA COLLECTED UNDER A/S CONDITION       COMMENT
04712861                                                    MARKER NAME
2861                                                        MARKER NUMBER
-Unknown-           -Unknown-                               OBSERVER / AGENCY
0220400471          TRIMBLE R7          2.30                REC # / TYPE / VERS
-Unknown-           TRM39105.00     NONE                    ANT # / TYPE
  1449460.8979 -1709241.1995  5952442.2807                  APPROX POSITION XYZ
        0.0000        0.0000        0.0000                  ANTENNA: DELTA H/E/N
     1     1                                                WAVELENGTH FACT L1/2
    20    L1    L2    L5    L6    L7    L8    C1    P1    C2# / TYPES OF OBSERV
          P2    C5    C6    C7    C8    S1    S2    S5    S6# / TYPES OF OBSERV
          S7    S8                                          # / TYPES OF OBSERV
    30.0000                                                 INTERVAL
    15                                                      LEAP SECONDS
Forced Modulo Decimation to 30 seconds                      COMMENT
 SNR is mapped to RINEX snr flag value [0-9]                COMMENT
  L1 & L2: min(max(int(snr_dBHz/6), 0), 9)                  COMMENT
teqc edited: Beidou # 1 - 37 excluded                       COMMENT
  2009    10    13    23    10   30.0000000     GPS         TIME OF FIRST OBS
                                                            END OF HEADER
 09 10 13 23 10 30.0000000  0  6G02G04G12G13G23G30
   -289978.35558   -170584.93456
                  21028905.4534                                   21028900.1054
                                                                        51.2504
        41.5004
   -123130.91458    -72879.67257
                  20690445.7034                                   20690442.3524
                                                                        51.7504
        42.5004
    -19325.05157    -12132.13755
                  23732610.1414                                   23732606.4574
                                                                        46.0004
        30.0004
   -332462.03158   -196240.94955
                  22213705.6484                                   22213701.2624
                                                                        49.0004
        33.7504
   -173586.70758   -104489.75455
                  21839869.1094                                   21839862.7154
                                                                        48.5004
        35.2504
   -111758.63757    -66223.87154
                  22704534.8134                                   22704531.1884
                                                                        44.5004
        29.2504
 09 10 13 23 11  0.0000000  0  8G02G04G12G13G20G23G30G31
   -437398.74248   -285457.95746
                  21000852.5554                                   21000847.0634
                                                                        51.5004
        41.7504
   -185764.79748   -121685.24646
                  20678526.8204                                   20678523.4024
                                                                        52.7504
        41.5004
    -29431.33247    -20007.19544
                  23730687.5704                                   23730683.6024
                                                                        46.2504
        29.7504
   -502021.54348   -328365.26245
                  22181439.3134                                   22181434.8634
                                                                        49.7504
        33.2504
     27840.87557     17772.76253
                  24111571.1954                                   24111567.6994
                                                                        42.0004
        20.2504
   -261841.07848   -173259.38745
                  21823074.4694                                   21823068.5554
                                                                        49.2504
        35.0004
   -168633.16047   -110541.78144
                  22693712.2894                                   22693708.6724
                                                                        45.0004
        28.5004
   -104292.05557    -75356.46954
                  23786972.4774                                   23786967.7544
                                                                        43.0004
        27.0004
 09 10 13 23 11 30.0000000  0  8G02G04G12G13G20G23G30G31
   -583722.13748   -399476.17246
                  20973007.9304                                   20973002.2304
                                                                        52.0004
        41.5004
   -247233.19548   -169582.74646
                  20666829.6484                                   20666826.0554
                                                                        52.7504
        41.7504
    -38533.71947    -27099.98044
                  23728955.1094                                   23728951.1254
                                                                        46.2504
        29.5004
   -670458.67648   -459614.99645
                  22149386.6024                                   22149382.7504
                                                                        50.0004
        33.0004
     45517.30547     31546.59843
                  24114935.4534                                   24114931.4574
                                                                        42.0004
        19.2504
   -348839.67648   -241050.62945
                  21806519.5554                                   21806513.5044
                                                                        49.0004
        35.5004
   -224248.90647   -153878.80544
                  22683128.7034                                   22683125.6844
                                                                        45.0004
        29.0004
   -165364.55947   -122945.49244
                  23775350.6954                                   23775345.8984
                                                                        43.2504
        27.5004
 09 10 13 23 12  0.0000000  0  8G02G04G12G13G20G23G30G31
   -728874.84848   -512582.18446
                  20945386.2894                                   20945380.6174
                                                                        52.5004
        41.7504
   -307465.28948   -216516.91846
                  20655367.8524                                   20655364.5234
                                                                        52.5004
        41.7504
    -46563.19147    -33356.75045
                  23727427.1884                                   23727423.2664
                                                                        45.5004
        30.2504
   -837699.21548   -589932.29745
                  22117561.7974                                   22117557.4064
                                                                        49.2504
        33.2504
     64054.89846     45991.48843
                  24118463.0314                                   24118458.4184
                                                                        41.0004
        19.0004
   -434511.00048   -307807.67645
                  21790217.0474                                   21790210.8794
                                                                        49.7504
        34.7504
   -278535.63347   -196180.19944
                  22672798.6954                                   22672795.0904
                                                                        44.2504
        29.2504
   -225174.81647   -169550.91844
                  23763968.8834                                   23763964.4924
                                                                        43.5004
        27.2504
 09 10 13 23 12 30.0000000  0  8G02G04G12G13G20G23G30G31
   -872851.23848   -624771.59847
                  20917988.5084                                   20917983.0704
                                                                        52.0004
        42.0004
   -366457.98448   -262485.30546
                  20644141.9534                                   20644138.3054
                                                                        52.2504
        41.5004
    -53518.93047    -38776.86344
                  23726103.6484                                   23726099.8324
                                                                        46.5004
        29.5004
  -1003737.02348   -719312.41045
                  22085966.0084                                   22085961.4924
                                                                        49.0004
        32.5004
     83455.40646     61108.80143
                  24122154.7344                                   24122150.9734
                                                                        39.7504
        21.5004
   -518851.11748   -373527.26245
                  21774167.6414                                   21774161.3794
                                                                        49.5004
        35.0004
   -331491.30547   -237444.41444
                  22662721.5004                                   22662718.7194
                                                                        45.0004
        29.5004
   -283720.09047   -215170.64844
                  23752828.5314                                   23752823.3554
                                                                        43.2504
        26.0004
 09 10 13 23 13  0.0000000  0  8G02G04G12G13G20G23G30G31
  -1015668.67648   -736057.91046
                  20890811.1334                                   20890805.2934
                                                                        52.0004
        41.2504
   -424231.24248   -307503.44946
                  20633148.3134                                   20633144.9384
                                                                        52.2504
        41.5004
    -59422.02747    -43376.72345
                  23724980.1414                                   23724976.4454
                                                                        45.7504
        30.0004
  -1168588.26248   -847767.92645
                  22054595.9224                                   22054591.9964
                                                                        49.0004
        33.0004
    103697.72346     76881.99643
                  24126006.3444                                   24126002.5044
                                                                        39.7504
        19.2504
   -601879.26648   -438224.51245
                  21758368.0474                                   21758361.8284
                                                                        49.7504
        35.0004
   -383136.14547   -277687.15644
                  22652893.8444                                   22652890.9804
                                                                        44.2504
        28.5004
   -341020.70747   -259820.60544
                  23741924.5864                                   23741919.4494
                                                                        44.0004
        26.5004
 09 10 13 23 13 30.0000000  0  8G02G04G12G13G20G23G30G31
  -1157353.60548   -846461.75846
                  20863849.4384                                   20863843.9574
                                                                        52.5004
        41.5004
   -480813.78948   -351593.74647
                  20622380.8594                                   20622377.4494
                                                                        52.0004
        42.0004
    -64303.85947    -47180.75444
                  23724051.0084                                   23724047.2384
                                                                        45.7504
        29.5004
  -1332278.34848   -975318.64545
                  22023446.2504                                   22023442.2384
                                                                        49.2504
        32.2504
    124751.81646     93287.80543
                  24130013.0314                                   24130009.1414
                                                                        39.7504
        20.2504
   -683624.22748   -501921.89145
                  21742812.1414                                   21742806.2624
                                                                        50.2504
        35.7504
   -433499.83647   -316931.54344
                  22643309.6804                                   22643306.8984
                                                                        44.5004
        29.0004
   -397105.36747   -303522.99244
                  23731252.1484                                   23731247.4454
                                                                        44.0004
        26.7504
 09 10 13 23 14  0.0000000  0  8G02G04G12G13G20G23G30G31
  -1297945.99648   -956014.27347
                  20837095.7814                                   20837089.6094
                                                                        52.2504
        42.0004
   -536248.35948   -394789.52346
                  20611832.0704                                   20611828.7424
                                                                        52.7504
        41.5004
    -68208.78547    -50223.61745
                  23723307.6954                                   23723304.5984
                                                                        44.5004
        30.2504
  -1494846.61348  -1101995.21145
                  21992510.4924                                   21992506.3244
                                                                        49.2504
        32.5004
    146573.53946    110291.79343
                  24134165.8444                                   24134161.5864
                                                                        40.5004
        21.5004
   -764127.71548   -564651.92645
                  21727493.2734                                   21727487.3284
                                                                        49.5004
        35.5004
   -482626.10947   -355211.81244
                  22633961.3364                                   22633957.8524
                                                                        45.0004
        28.5004
   -452017.25447   -346311.59044
                  23720802.3914                                   23720798.0274
                                                                        44.2504
        27.5004
 09 10 13 23 14 30.0000000  0  8G02G04G12G13G20G23G30G31
  -1437477.14148  -1064739.93446
                  20810543.6644                                   20810538.2504
                                                                        52.0004
        41.2504
   -590568.44148   -437116.82446
                  20601495.2814                                   20601492.0514
                                                                        53.2504
        41.7504
    -71172.04347    -52532.69145
                  23722743.9694                                   23722741.5004
                                                                        44.5004
        30.7504
  -1656322.92248  -1227820.90645
                  21961782.8444                                   21961778.6994
                                                                        48.5004
        33.0004
    169127.89846    127866.52043
                  24138457.6954                                   24138453.5434
                                                                        39.5004
        20.5004
   -843422.43748   -626440.01245
                  21712403.6884                                   21712397.6454
                                                                        50.0004
        35.5004
   -530548.73047   -392554.15244
                  22624841.9454                                   22624838.9844
                                                                        45.0004
        29.5004
   -505790.10247   -388212.57044
                  23710570.6414                                   23710565.7814
                                                                        44.5004
        27.2504
 09 10 13 23 15  0.0000000  0  8G02G04G12G13G20G23G30G31
  -1575979.58248  -1172663.91046
                  20784187.8134                                   20784182.3094
                                                                        51.7504
        41.7504
   -643809.87148   -478603.63746
                  20591363.8284                                   20591360.5274
                                                                        53.5004
        41.7504
    -73230.91847    -54137.03145
                  23722352.8834                                   23722349.1024
                                                                        44.5004
        30.2504
  -1816739.94148  -1352821.17245
                  21931256.4304                                   21931252.5984
                                                                        49.5004
        33.0004
    192378.31346    145983.76243
                  24142881.8204                                   24142878.3444
                                                                        39.0004
        19.7504
   -921543.48848   -687313.50045
                  21697537.9844                                   21697531.5204
                                                                        49.5004
        35.5004
   -577304.14147   -428986.97344
                  22615944.8914                                   22615941.9024
                                                                        44.0004
        28.7504
   -558459.78947   -429253.81644
                  23700547.5234                                   23700542.9844
                                                                        44.5004
        27.0004
 09 10 13 23 15 30.0000000  0  8G02G04G12G13G20G23G30G31
  -1713481.98448  -1279808.64146
                  20758021.6564                                   20758015.7114
                                                                        51.5004
        41.7504
   -696003.95748   -519274.35246
                  20581431.5634                                   20581428.0984
                                                                        53.0004
        41.5004
    -74418.89847    -55062.74644
                  23722126.6024                                   23722122.5124
                                                                        45.5004
        29.0004
  -1976125.37548  -1477017.62545
                  21900926.9224                                   21900922.8634
                                                                        49.0004
        33.7504
    216292.12946    164617.84843
                  24147432.7584                                   24147429.2274
                                                                        39.7504
        19.0004
   -998521.64148   -747296.41445
                  21682889.0864                                   21682883.4344
                                                                        49.2504
        35.5004
   -622924.69147   -464535.43744
                  22607263.4144                                   22607260.0354
                                                                        44.5004
        29.0004
   -610058.37947   -469460.48844
                  23690728.1804                                   23690724.3524
                                                                        43.7504
        26.7504
 09 10 13 23 16  0.0000000  0  8G02G04G12G13G20G23G30G31
  -1850011.36748  -1386195.14846
                  20732041.2974                                   20732035.4804
                                                                        51.5004
        41.7504
   -747179.98048   -559151.80146
                  20571693.2344                                   20571689.6524
                                                                        52.5004
        40.7504
    -74767.03147    -55334.05144
                  23722060.3134                                   23722056.2704
                                                                        45.5004
        29.5004
  -2134505.03548  -1600430.34445
                  21870787.8364                                   21870783.9454
                                                                        49.0004
        32.7504
    240838.84846    183745.17643
                  24152103.6884                                   24152099.7734
                                                                        40.2504
        19.0004
  -1074386.14848   -806411.65245
                  21668452.8364                                   21668446.8014
                                                                        50.0004
        35.0004
   -667440.73047   -499223.21145
                  22598792.4304                                   22598789.1134
                                                                        44.2504
        30.0004
   -660615.34847   -508855.51244
                  23681107.3444                                   23681103.8054
                                                                        43.2504
        27.2504
 09 10 13 23 16 30.0000000  0  8G02G04G12G13G20G23G30G31
   -410166.11748   -264237.81246
                  21006034.6094                                   21006029.0314
                                                                        52.0004
        41.7504
    778058.44948    629345.68846
                  20861936.4614                                   20861932.8984
                                                                        52.5004
        41.5004
   1501117.35947   1172627.78544
                  24021941.4614                                   24021936.8674
                                                                        45.5004
        29.2504
   -716475.43048   -495472.23045
                  22140629.9774                                   22140625.9924
                                                                        49.0004
        33.5004
   1841410.99646   1430944.23443
                  24456682.4144                                   24456679.0314
                                                                        40.0004
        20.7504
    426261.23448    362923.97345
                  21954016.4694                                   21954010.4884
                                                                        49.5004
        35.0004
    864542.94147    694530.28944
                  22890319.1254                                   22890315.6604
                                                                        44.0004
        28.7504
    865265.33247    680142.50444
                  23971472.9614                                   23971469.1724
                                                                        43.0004
        27.0004
 09 10 13 23 17  0.0000000  0  8G02G04G12G13G20G23G30G31
   -544813.73448   -369158.02347
                  20980411.7664                                   20980406.3404
                                                                        51.2504
        42.0004
    728846.54748    590998.76646
                  20852571.3524                                   20852568.2504
                                                                        53.5004
        41.0004
   1502371.22747   1173604.78544
                  24022179.5944                                   24022176.0474
                                                                        44.7504
        29.7504
   -872904.95348   -617365.34445
                  22110862.3054                                   22110858.2114
                                                                        49.2504
        34.5004
   1867147.62946   1450998.75043
                  24461580.1644                                   24461576.0274
                                                                        40.0004
        20.2504
    352554.58648    305490.21545
                  21939990.5864                                   21939984.4264
                                                                        49.0004
        35.0004
    822161.51247    661505.69944
                  22882254.1884                                   22882251.0124
                                                                        44.2504
        29.2504
    816718.60247    642314.00044
                  23962234.7424                                   23962230.9304
                                                                        43.2504
        27.5004
 09 10 13 23 17 30.0000000  0  7G02G04G12G13G23G30G31
   -678556.95348   -473373.48047
                  20954961.4454                                   20954955.6484
                                                                        51.5004
        42.0004
    680576.24648    553385.56346
                  20843386.0704                                   20843382.5164
                                                                        53.2504
        41.0004
   1504383.18847   1175172.53144
                  24022562.6954                                   24022559.1994
                                                                        45.5004
        28.7504
  -1028394.73448   -738526.18745
                  22081273.5314                                   22081269.3594
                                                                        49.5004
        33.2504
    279887.21148    248866.25845
                  21926162.3364                                   21926156.1914
                                                                        49.7504
        34.2504
    780806.33647    629280.85544
                  22874385.0864                                   22874382.0124
                                                                        43.7504
        29.2504
    769136.01647    605236.77044
                  23953180.3364                                   23953176.0044
                                                                        43.2504
        28.0004
 09 10 13 23 18  0.0000000  0  7G02G04G12G13G23G30G31
   -811419.43048   -576902.66447
                  20929678.5314                                   20929672.8134
                                                                        51.0004
        42.0004
    633221.15648    516485.48846
                  20834374.5704                                   20834371.3714
                                                                        52.5004
        40.7504
   1507125.06647   1177309.01644
                  24023084.0084                                   24023081.0554
                                                                        44.0004
        29.7504
  -1182967.50448   -858972.47345
                  22051859.2504                                   22051855.0704
                                                                        49.5004
        32.5004
    208233.52348    193032.23445
                  21912527.1954                                   21912520.9694
                                                                        48.5004
        34.5004
    740449.96147    597834.34444
                  22866704.8594                                   22866702.3674
                                                                        44.5004
        29.2504
    722491.08247    568890.21144
                  23944303.1804                                   23944299.8984
                                                                        43.0004
        26.5004
 09 10 13 23 18 30.0000000  0  7G02G04G12G13G23G30G31
   -943413.18048   -679754.90646
                  20904560.9454                                   20904555.7194
                                                                        51.5004
        41.7504
    586766.49648    480286.99647
                  20825534.4224                                   20825531.1604
                                                                        53.5004
        42.0004
   1510580.66447   1180001.61744
                  24023741.9384                                   24023738.5204
                                                                        43.7504
        28.7504
  -1336634.86748   -978713.30945
                  22022617.4384                                   22022613.2384
                                                                        49.5004
        33.5004
    137579.25848    137977.03545
                  21899082.0164                                   21899076.0124
                                                                        49.5004
        34.5004
    701077.01647    567154.12145
                  22859212.4534                                   22859209.6954
                                                                        45.5004
        30.0004
    676768.71947    533262.52744
                  23935602.3204                                   23935598.7544
                                                                        42.2504
        26.5004
 09 10 13 23 19  0.0000000  0  8G02G04G12G13G29G23G30G31
  -1074553.32848   -781942.05547
                  20879605.6024                                   20879600.0514
                                                                        51.0004
        42.2504
    541195.01248    444776.73846
                  20816862.6954                                   20816859.1914
                                                                        52.2504
        41.5004
   1514730.19147   1183234.94944
                  24024531.3134                                   24024527.8484
                                                                        43.5004
        28.5004
  -1489410.61348  -1097759.36745
                  21993545.1334                                   21993541.1484
                                                                        49.2504
        34.0004
   1263685.06656   1021710.55553
                  24450354.3364                                   24450350.8984
                                                                        41.5004
        22.5004
     67907.52048     83687.43845
                  21885823.8834                                   21885817.7274
                                                                        48.7504
        35.0004
    662668.82847    537225.64545
                  22851903.8984                                   22851901.0664
                                                                        46.0004
        30.0004
    631950.35246    498339.20344
                  23927073.7814                                   23927070.1094
                                                                        40.7504
        27.5004
 09 10 13 23 19 30.0000000  0  8G02G04G12G13G29G23G30G31
  -1204865.02048   -883483.60247
                  20854808.1174                                   20854802.8484
                                                                        51.5004
        42.5004
    496478.55148    409932.74646
                  20808353.5004                                   20808350.1214
                                                                        52.5004
        41.0004
   1519544.22347   1186986.08644
                  24025447.4774                                   24025444.4384
                                                                        43.7504
        29.5004
  -1641319.17648  -1216129.62545
                  21964637.8834                                   21964633.6414
                                                                        49.5004
        33.0004
   1077286.09447    876464.62944
                  24414884.5234                                   24414880.4924
                                                                        42.5004
        24.5004
      -809.30948     30141.91445
                  21872747.4534                                   21872741.5124
                                                                        48.5004
        34.7504
    625196.77347    508026.66045
                  22844773.3674                                   22844770.0904
                                                                        45.0004
        30.0004
    588008.28547    464098.68044
                  23918712.2894                                   23918708.2704
                                                                        43.5004
        27.0004
 09 10 13 23 20  0.0000000  0  8G02G04G12G13G29G23G30G31
  -1334367.48848   -984394.58247
                  20830164.8594                                   20830159.3134
                                                                        51.0004
        42.0004
    452595.44548    375738.12946
                  20800002.5784                                   20799999.2544
                                                                        53.0004
        41.2504
   1524999.47347   1191236.85945
                  24026485.8054                                   24026482.8134
                                                                        44.2504
        30.5004
  -1792378.86748  -1333838.46545
                  21935892.2664                                   21935887.9494
                                                                        49.7504
        34.5004
    891425.34046    731638.08644
                  24379515.6724                                   24379512.5664
                                                                        40.2504
        27.2504
    -68592.15248    -22675.82045
                  21859848.6174                                   21859842.5904
                                                                        48.0004
        35.0004
    588638.64547    479539.78544
                  22837816.7504                                   22837813.2464
                                                                        44.5004
        29.2504
    544920.49647    430523.88744
                  23910512.5864                                   23910508.8324
                                                                        42.7504
        27.5004
 09 10 13 23 20 30.0000000  0  8G02G04G12G13G29G23G30G31
  -1463072.87148  -1084684.45746
                  20805672.8284                                   20805667.3444
                                                                        49.7504
        41.7504
    409530.89148    342181.31646
                  20791807.9144                                   20791804.9614
                                                                        53.0004
        41.5004
   1531078.96947   1195974.09045
                  24027643.3284                                   24027639.2304
                                                                        45.0004
        30.5004
  -1942601.19948  -1450894.79345
                  21907305.7974                                   21907301.9344
                                                                        50.0004
        34.2504
    706091.62146    587222.19144
                  24344248.1024                                   24344244.9384
                                                                        39.7504
        27.0004
   -135455.48047    -74777.01245
                  21847124.7734                                   21847118.8404
                                                                        47.7504
        34.5004
    552978.67247    451752.76244
                  22831030.1414                                   22831028.0084
                                                                        45.2504
        29.2504
    502671.39547    397602.49644
                  23902472.4224                                   23902468.9384
                                                                        42.5004
        27.7504
 09 10 13 23 21  0.0000000  0  8G02G04G12G13G29G23G30G31
  -1590995.61748  -1184364.50846
                  20781330.1334                                   20781324.3204
                                                                        50.2504
        41.5004
    367267.44148    309248.74246
                  20783765.1804                                   20783761.8914
                                                                        52.5004
        41.2504
   1537763.85547   1201183.10244
                  24028914.8754                                   24028912.0044
                                                                        44.7504
        29.7504
  -2092000.17248  -1567309.57445
                  21878876.5084                                   21878872.2584
                                                                        50.0004
        34.0004
    521271.17646    443206.31644
                  24309076.9694                                   24309074.7854
                                                                        38.0004
        25.7504
   -201416.19147   -126174.85245
                  21834572.9844                                   21834567.2934
                                                                        47.5004
        35.0004
    518198.39847    424651.29345
                  22824411.6334                                   22824409.0664
                                                                        44.5004
        30.0004
    461243.33647    365320.88744
                  23894589.2344                                   23894585.6214
                                                                        43.7504
        26.7504
 09 10 13 23 21 30.0000000  0  8G02G04G12G13G29G23G30G31
  -1718143.39148  -1283440.67246
                  20757134.5394                                   20757129.2274
                                                                        51.0004
        41.5004
    325795.24248    276932.76246
                  20775873.3594                                   20775870.0084
                                                                        53.5004
        41.5004
   1545042.25047   1206854.50844
                  24030300.0394                                   24030296.1294
                                                                        44.7504
        28.7504
  -2240582.47748  -1683087.98845
                  21850601.6884                                   21850597.6724
                                                                        48.7504
        33.7504
    336957.57046    299585.40644
                  24274003.2974                                   24274000.9844
                                                                        39.0004
        26.5004
   -266483.91848   -176876.94545
                  21822190.7974                                   21822185.0274
                                                                        49.0004
        34.2504
    484286.89147    398226.75044
                  22817958.6024                                   22817956.0824
                                                                        44.0004
        29.0004
    420626.02747    333671.05544
                  23886860.2274                                   23886856.3284
                                                                        43.2504
        28.0004
 09 10 13 23 22  0.0000000  0  8G02G04G12G13G29G23G30G31
  -1844521.75448  -1381917.18446
                  20733085.5784                                   20733079.3404
                                                                        50.5004
        41.7504
    285105.71148    245226.62146
                  20768130.4384                                   20768126.9384
                                                                        52.5004
        41.0004
   1552904.89147   1212981.28944
                  24031795.8914                                   24031792.2114
                                                                        44.5004
        27.7504
  -2388352.65248  -1798233.59845
                  21822482.3834                                   21822478.0274
                                                                        49.2504
        34.5004
    153146.17946    156355.77144
                  24239025.2664                                   24239022.3244
                                                                        40.0004
        26.5004
   -330666.79748   -226889.59045
                  21809977.2274                                   21809971.1134
                                                                        49.0004
        34.5004
    451234.78947    372471.82844
                  22811669.6254                                   22811666.5474
                                                                        44.5004
        28.5004
    380810.79747    302646.23444
                  23879283.9224                                   23879279.6524
                                                                        43.0004
        27.7504
 09 10 13 23 22 30.0000000  0  8G02G04G12G13G29G23G30G31
  -1970144.34448  -1479805.01647
                  20709180.3834                                   20709174.5394
                                                                        50.0004
        42.0004
    245183.23048    214118.21546
                  20760533.6174                                   20760529.8634
                                                                        52.2504
        41.0004
   1561333.34447   1219548.96144
                  24033400.0634                                   24033395.9964
                                                                        44.5004
        27.5004
  -2535323.33248  -1912756.19945
                  21794514.2664                                   21794510.2544
                                                                        49.5004
        34.0004
    -30175.08646     13508.05944
                  24204140.7344                                   24204137.1764
                                                                        41.7504
        25.2504
   -393979.87147   -276224.52345
                  21797929.3524                                   21797923.0664
                                                                        47.7504
        35.0004
    419025.92647    347373.99644
                  22805540.4224                                   22805536.9694
                                                                        45.0004
        29.2504
    341781.25446    272233.60944
                  23871856.9534                                   23871852.6024
                                                                        40.7504
        26.7504
 09 10 13 23 23  0.0000000  0  9G02G04G12G13G29G23G30G31G10
  -2095020.25848  -1577110.87947
                  20685417.2274                                   20685411.3324
                                                                        50.5004
        42.0004
    206015.62548    183598.03146
                  20753080.0394                                   20753076.7854
                                                                        52.2504
        41.7504
   1570313.90647   1226546.89144
                  24035108.6094                                   24035104.8164
                                                                        43.5004
        24.7504
  -2681503.19148  -2026662.56645
                  21766697.3204                                   21766693.4844
                                                                        48.7504
        34.2504
   -213014.77747   -128964.44144
                  24169347.5944                                   24169343.8754
                                                                        42.5004
        25.5004
   -456434.81647   -324890.79345
                  21786044.6254                                   21786038.5314
                                                                        47.5004
        34.7504
    387646.97747    322922.92244
                  22799569.1564                                   22799565.9304
                                                                        44.7504
        28.2504
    303524.93047    242423.50844
                  23864577.0234                                   23864572.7544
                                                                        42.0004
        27.0004
   1240251.75456   1013505.26653
                  24051244.3054                                   24051241.4494
                                                                        41.7504
        22.7504
 09 10 13 23 23 30.0000000  0  9G02G04G12G13G29G23G30G31G10
  -2219157.75448  -1673841.37947
                  20661794.5234                                   20661789.0044
                                                                        50.5004
        42.2504
    167591.62548    153657.25446
                  20745768.4454                                   20745764.8874
                                                                        53.0004
        41.7504
   1579834.08247   1233965.23044
                  24036920.0474                                   24036916.9024
                                                                        44.0004
        26.2504
  -2826899.52048  -2139958.37545
                  21739029.0234                                   21739025.4804
                                                                        49.5004
        34.7504
   -395380.09046   -271067.25843
                  24134643.9694                                   24134641.1134
                                                                        40.7504
        23.7504
   -518041.99248   -372896.33645
                  21774321.2344                                   21774315.2344
                                                                        48.2504
        34.5004
    357086.28147    299109.43044
                  22793753.4774                                   22793750.2894
                                                                        44.7504
        29.2504
    266030.50447    213207.07044
                  23857441.9384                                   23857437.5984
                                                                        42.7504
        26.2504
   1039641.73047    857185.91044
                  24013069.2274                                   24013065.7854
                                                                        42.7504
        25.5004
 09 10 13 23 24  0.0000000  0  9G02G04G12G13G29G23G30G31G10
  -2342569.61748  -1770006.47747
                  20638310.0864                                   20638304.3954
                                                                        50.2504
        42.0004
    129896.36748    124284.30546
                  20738595.0234                                   20738591.8674
                                                                        52.0004
        41.5004
   1589876.68847   1241790.58244
                  24038831.3204                                   24038828.0314
                                                                        44.5004
        27.0004
  -2971524.15648  -2252652.88745
                  21711508.2894                                   21711504.2194
                                                                        49.7504
        34.2504
   -577282.44546   -412809.34844
                  24100029.3364                                   24100026.4184
                                                                        39.5004
        24.2504
   -578816.27748   -420252.90645
                  21762756.3524                                   21762750.1094
                                                                        48.0004
        34.5004
    327327.82047    275921.02344
                  22788090.7734                                   22788087.6564
                                                                        44.2504
        29.0004
    229282.16047    184571.97344
                  23850449.3594                                   23850444.7274
                                                                        43.5004
        26.5004
    839384.43447    701141.33644
                  23974961.9304                                   23974958.1724
                                                                        45.0004
        26.0004
 09 10 13 23 24 30.0000000  0  9G02G04G12G13G29G23G30G31G10
  -2465259.53948  -1865608.94147
                  20614962.8134                                   20614957.2384
                                                                        51.0004
        42.5004
     92922.96148     95473.82846
                  20731559.3594                                   20731555.8634
                                                                        52.5004
        41.2504
   1600433.66847   1250016.80944
                  24040840.5864                                   24040837.2934
                                                                        45.2504
        29.7504
  -3115380.77748  -2364748.90645
                  21684133.1414                                   21684129.1724
                                                                        50.2504
        34.5004
   -758725.16446   -554193.29744
                  24065501.9774                                   24065499.0554
                                                                        39.0004
        24.5004
   -638764.29348   -466965.69545
                  21751348.5944                                   21751342.7304
                                                                        48.0004
        35.0004
    298363.63347    253351.49244
                  22782579.3444                                   22782575.8984
                                                                        45.5004
        29.5004
    193272.70347    156512.67244
                  23843596.3674                                   23843591.9494
                                                                        42.5004
        26.5004
    639476.27047    545368.64144
                  23936920.5554                                   23936916.8134
                                                                        44.0004
        24.7504
 09 10 13 23 25  0.0000000  0  9G02G04G12G13G29G23G30G31G10
  -2587231.40248  -1960651.92646
                  20591752.3524                                   20591747.0784
                                                                        51.0004
        41.7504
     56665.36748     67221.16446
                  20724659.9224                                   20724656.3364
                                                                        52.7504
        41.0004
   1611497.33647   1258637.84444
                  24042946.5864                                   24042942.7194
                                                                        45.7504
        29.7504
  -3258471.93748  -2476248.45745
                  21656903.8984                                   21656899.6684
                                                                        49.5004
        34.2504
   -939709.99246   -695220.35543
                  24031061.3524                                   24031058.7544
                                                                        39.5004
        22.7504
   -697891.25848   -513038.63345
                  21740097.1414                                   21740090.9884
                                                                        48.5004
        34.7504
    270187.00047    231395.71144
                  22777216.9064                                   22777214.2154
                                                                        45.5004
        28.2504
    157995.77747    129024.16044
                  23836883.1094                                   23836878.8444
                                                                        42.0004
        25.5004
    439915.16446    389866.41444
                  23898945.2034                                   23898942.1174
                                                                        41.7504
        24.5004
 09 10 13 23 25 30.0000000  0  9G02G04G12G13G29G23G30G31G10
  -2708489.29748  -2055138.58646
                  20568677.9064                                   20568672.2384
                                                                        51.2504
        41.7504
     21116.56348     39520.82046
                  20717894.7034                                   20717891.6684
                                                                        51.7504
        41.0004
   1623058.86347   1267646.85244
                  24045145.9924                                   24045142.6024
                                                                        46.2504
        29.5004
  -3400801.28148  -2587154.43045
                  21629819.3914                                   21629815.0824
                                                                        49.5004
        35.0004
  -1120240.45346   -835893.39844
                  23996708.1644                                   23996705.1484
                                                                        40.7504
        27.7504
   -756203.97348   -558477.14845
                  21729000.3674                                   21728994.4024
                                                                        48.5004
        34.5004
    242789.39147    210046.97744
                  22772003.3594                                   22772000.3164
                                                                        44.5004
        28.5004
    123444.12246    102100.80344
                  23830308.3834                                   23830303.7424
                                                                        40.2504
        24.5004
    240697.48446    234631.99244
                  23861034.9774                                   23861032.8554
                                                                        41.2504
        24.5004
 09 10 13 23 26  0.0000000  0  9G02G04G12G13G29G23G30G31G10
  -1253616.80948   -921471.69147
                  20845530.8754                                   20845525.2854
                                                                        50.5004
        42.2504
   1561687.81348   1239966.01246
                  21011055.9924                                   21011052.8794
                                                                        52.2504
        40.7504
   3210526.00447   2504634.23844
                  24347230.8594                                   24347227.9804
                                                                        44.0004
        28.2504
  -1966950.49248  -1469868.08245
                  21902672.1564                                   21902667.9264
                                                                        49.7504
        35.5004
    275103.28547    251387.46944
                  24262233.3444                                   24262230.0704
                                                                        42.2504
        27.5004
    761709.89847    624312.77745
                  22017850.1174                                   22017844.1524
                                                                        47.5004
        34.7504
   1791580.64547   1416897.33244
                  23066728.6804                                   23066725.4104
                                                                        43.7504
        28.5004
   1665028.02746   1303334.99644
                  24123661.3674                                   24123657.2544
                                                                        39.2504
        25.2504
   1617242.96546   1307264.87144
                  24122983.2114                                   24122980.0824
                                                                        41.5004
        26.2504
 09 10 13 23 26 30.0000000  0  9G02G04G12G13G29G23G30G31G10
  -1373464.45348  -1014859.46147
                  20822724.6174                                   20822719.0554
                                                                        51.2504
        42.7504
   1527531.34048   1213350.61746
                  21004556.3674                                   21004553.2504
                                                                        52.5004
        41.2504
   3223053.10946   2514395.59844
                  24349614.3364                                   24349611.6914
                                                                        41.7504
        26.5004
  -2107771.10948  -1579598.41045
                  21875875.0554                                   21875870.6564
                                                                        49.5004
        35.2504
     95467.73047    111411.77744
                  24228050.0164                                   24228046.2624
                                                                        42.5004
        28.2504
    705001.59048    580124.49245
                  22007058.5314                                   22007052.5084
                                                                        48.7504
        34.7504
   1765713.50047   1396741.09844
                  23061806.1564                                   23061802.7894
                                                                        44.7504
        28.7504
   1631899.71146   1277520.73044
                  24117357.6174                                   24117353.2934
                                                                        41.0004
        25.2504
   1418696.53547   1152553.33644
                  24085201.5864                                   24085198.3554
                                                                        43.0004
        26.5004
 09 10 13 23 27  0.0000000  0  9G02G04G12G13G29G23G30G31G10
  -1492613.18448  -1107702.60547
                  20800051.2504                                   20800045.6914
                                                                        51.0004
        42.2504
   1494060.36348   1187269.33646
                  20998186.8594                                   20998183.6524
                                                                        52.7504
        41.0004
   3236050.19546   2524523.20743
                  24352087.0704                                   24352084.4224
                                                                        40.5004
        23.5004
  -2247842.68048  -1688745.05545
                  21849220.0234                                   21849215.9654
                                                                        49.5004
        35.0004
    -83724.84447    -28218.78944
                  24193950.2344                                   24193947.2034
                                                                        43.0004
        27.5004
    649085.30948    536553.32445
                  21996418.2664                                   21996412.2154
                                                                        49.2504
        35.2504
   1740600.09447   1377172.31644
                  23057027.3754                                   23057023.7384
                                                                        45.2504
        28.2504
   1599472.42246   1252252.71544
                  24111186.5864                                   24111182.6214
                                                                        41.5004
        25.0004
   1220480.74247    998099.44544
                  24047482.2814                                   24047479.1884
                                                                        42.7504
        27.7504
 09 10 13 23 27 30.0000000  0  9G02G04G12G13G29G23G30G31G10
  -1611069.86748  -1200006.50047
                  20777509.8284                                   20777503.9844
                                                                        51.5004
        42.2504
   1461266.31648   1161715.59846
                  20991946.1484                                   20991943.3404
                                                                        52.7504
        41.7504
   3249506.47747   2535008.57844
                  24354648.4224                                   24354644.5634
                                                                        43.0004
        25.5004
  -2387170.89548  -1797312.48445
                  21822706.6644                                   21822702.6334
                                                                        49.2504
        34.7504
   -262480.03147   -167508.52744
                  24159934.0554                                   24159930.4694
                                                                        42.7504
        25.5004
    593952.75448    493592.85545
                  21985926.8674                                   21985920.7854
                                                                        49.0004
        35.0004
   1716230.19147   1358182.88744
                  23052389.5634                                   23052386.3714
                                                                        45.0004
        28.2504
   1567736.01646   1227523.02744
                  24105147.3914                                   24105143.5164
                                                                        41.5004
        27.0004
   1022590.12947    843899.02744
                  24009824.7664                                   24009821.3244
                                                                        43.7504
        26.5004
 09 10 13 23 28  0.0000000  0  9G02G04G12G13G29G23G30G31G10
  -1728836.29348  -1291772.52047
                  20755099.3754                                   20755093.9104
                                                                        51.2504
        42.2504
   1429143.91848   1136685.18446
                  20985833.3054                                   20985830.2584
                                                                        52.0004
        40.7504
   3263415.39847   2545846.68844
                  24357295.6884                                   24357291.3754
                                                                        43.7504
        26.0004
  -2525757.55548  -1905302.08245
                  21796334.6414                                   21796330.3914
                                                                        49.0004
        34.7504
   -440799.13746   -306458.45743
                  24126001.3754                                   24125997.3164
                                                                        40.0004
        22.7504
    539599.54348    451239.74245
                  21975584.1884                                   21975577.9654
                                                                        49.2504
        35.0004
   1692597.62547   1339768.00044
                  23047892.8134                                   23047889.4064
                                                                        44.7504
        29.2504
   1536685.28946   1203327.63744
                  24099239.2274                                   24099234.6484
                                                                        41.0004
        26.7504
    825023.52747    689951.08243
                  23972228.0704                                   23972224.8634
                                                                        42.7504
        22.5004
 09 10 13 23 28 30.0000000  0  9G02G04G12G13G29G23G30G31G10
  -1845917.82848  -1383004.87547
                  20732819.5944                                   20732813.6524
                                                                        51.2504
        42.2504
   1397685.34048   1112172.02746
                  20979847.0704                                   20979843.6294
                                                                        52.5004
        41.2504
   3277767.73047   2557030.30144
                  24360027.1024                                   24360022.9654
                                                                        44.5004
        28.0004
  -2663606.75848  -2012717.02745
                  21770102.4454                                   21770098.6644
                                                                        49.0004
        34.5004
   -618685.50846   -445071.21943
                  24092149.9534                                   24092145.9414
                                                                        39.7504
        22.0004
    486018.05948    409488.00045
                  21965387.5704                                   21965381.3324
                                                                        49.5004
        34.2504
   1669693.81647   1321920.90644
                  23043534.0634                                   23043530.9224
                                                                        45.5004
        29.5004
   1506312.33247   1179660.39544
                  24093459.5784                                   24093454.9924
                                                                        42.2504
        27.7504
    627775.87947    536251.67643
                  23934693.5394                                   23934690.1414
                                                                        42.0004
        23.0004
 09 10 13 23 29  0.0000000  0  9G02G04G12G13G29G23G30G31G10
  -1962317.94948  -1473706.24647
                  20710669.7734                                   20710664.0084
                                                                        51.2504
        42.0004
   1366884.58648   1088171.46146
                  20973985.8914                                   20973982.7384
                                                                        52.5004
        41.0004
   3292555.85247   2568553.47744
                  24362841.2274                                   24362837.3634
                                                                        43.0004
        28.5004
  -2800721.52748  -2119559.70745
                  21744010.7034                                   21744006.4694
                                                                        50.0004
        35.0004
   -796141.60246   -583348.66844
                  24058381.4694                                   24058378.2704
                                                                        40.0004
        24.5004
    433202.47748    368333.07845
                  21955336.8914                                   21955330.7774
                                                                        49.2504
        34.5004
   1647511.69947   1304636.21944
                  23039313.3204                                   23039309.9804
                                                                        45.2504
        29.2504
   1476610.39547   1156516.05544
                  24087807.3524                                   24087802.9964
                                                                        43.0004
        26.2504
    430844.86746    382798.95744
                  23897218.3054                                   23897215.7384
                                                                        41.5004
        25.7504
 09 10 13 23 29 30.0000000  0  9G02G04G12G13G29G23G30G31G10
  -2078041.40648  -1563880.37947
                  20688648.0474                                   20688642.4924
                                                                        51.7504
        42.0004
   1336734.61348   1064678.03546
                  20968248.5634                                   20968244.9964
                                                                        52.5004
        41.0004
   3307771.03147   2580409.46544
                  24365736.5634                                   24365732.8054
                                                                        42.7504
        27.2504
  -2937105.45748  -2225832.89545
                  21718057.5784                                   21718053.4104
                                                                        49.5004
        34.0004
   -973170.56246   -721293.30544
                  24024694.4224                                   24024690.9104
                                                                        41.0004
        27.7504
    381145.69948    327769.39145
                  21945430.7194                                   21945424.6454
                                                                        49.2504
        34.7504
   1626043.25447   1287907.58244
                  23035227.8284                                   23035224.3284
                                                                        45.7504
        28.5004
   1447571.80547   1133888.57444
                  24082281.4534                                   24082277.4494
                                                                        42.0004
        26.5004
    234227.40647    229590.59444
                  23859803.7814                                   23859800.9924
                                                                        42.7504
        27.0004
 09 10 13 23 30  0.0000000  0  9G02G04G12G13G29G23G30G31G10
  -2193091.28148  -1653529.65247
                  20666754.7974                                   20666748.7814
                                                                        51.5004
        42.5004
   1307229.15248   1041686.77346
                  20962633.7584                                   20962630.4454
                                                                        52.0004
        40.7504
   3323405.48446   2592592.20744
                  24368711.2734                                   24368707.7734
                                                                        41.7504
        27.7504
  -3072760.97348  -2331538.48045
                  21692243.2274                                   21692238.8014
                                                                        49.2504
        34.2504
  -1149774.86346   -858907.05944
                  23991087.7274                                   23991084.3674
                                                                        41.2504
        28.0004
    329842.60948    287792.98045
                  21935668.1804                                   21935661.9064
                                                                        49.0004
        34.0004
   1605281.31347   1271729.41844
                  23031277.0084                                   23031273.7424
                                                                        45.2504
        29.5004
   1419189.90647   1111772.81644
                  24076880.3754                                   24076876.1954
                                                                        42.5004
        26.7504
     37920.55547     76624.25844
                  23822447.9774                                   23822444.9804
                                                                        44.0004
        26.7504
 09 10 13 23 30 30.0000000  0  9G02G04G12G13G29G23G30G31G10
  -2307472.98048  -1742658.23447
                  20644988.6174                                   20644982.8594
                                                                        51.0004
        42.2504
   1278360.14848   1019191.48046
                  20957140.2734                                   20957136.5744
                                                                        52.0004
        40.5004
   3339449.14847   2605093.71544
                  24371763.7194                                   24371760.8794
                                                                        42.0004
        25.5004
  -3207693.32048  -2436680.53945
                  21666566.3594                                   21666562.2464
                                                                        49.5004
        34.2504
  -1325958.54746   -996193.03944
                  23957560.7664                                   23957557.3914
                                                                        41.0004
        29.0004
    279284.44548    248397.01245
                  21926047.1254                                   21926041.0354
                                                                        48.7504
        34.2504
   1585216.70747   1256094.66044
                  23027458.5004                                   23027455.5944
                                                                        44.5004
        27.2504
   1391456.05146   1090162.03144
                  24071603.0634                                   24071599.3754
                                                                        41.2504
        26.7504
   -158080.10547    -76103.54344
                  23785150.6724                                   23785146.7894
                                                                        43.7504
        28.0004
 09 10 13 23 31  0.0000000  0  9G02G04G12G13G29G23G30G31G10
  -2421188.46548  -1831267.66847
                  20623348.8834                                   20623343.1524
                                                                        51.7504
        42.2504
   1250123.08648    997188.60546
                  20951766.7274                                   20951763.2274
                                                                        52.2504
        41.0004
   3355896.91847   2617910.11344
                  24374893.9304                                   24374891.1054
                                                                        42.2504
        25.2504
  -3341903.78548  -2541260.12545
                  21641027.1414                                   21641022.8754
                                                                        49.7504
        34.5004
  -1501722.19146  -1133151.73044
                  23924114.2424                                   23924111.1604
                                                                        40.5004
        26.5004
    229467.46548    209578.58645
                  21916567.3914                                   21916561.2584
                                                                        49.0004
        33.7504
   1565844.01647   1240999.10944
                  23023772.3284                                   23023768.8364
                                                                        45.0004
        29.0004
   1364365.47747   1069052.50844
                  24066448.2114                                   24066443.7544
                                                                        42.7504
        28.0004
   -353775.87147   -228593.81644
                  23747910.7814                                   23747907.6214
                                                                        42.7504
        26.2504
 09 10 13 23 31 30.0000000  0  9G02G04G12G13G29G23G30G31G10
  -2534240.18748  -1919359.89547
                  20601836.1804                                   20601830.6414
                                                                        51.5004
        42.0004
   1222512.75448    975674.05946
                  20946512.4304                                   20946509.4734
                                                                        52.5004
        40.5004
   3372741.44147   2631035.78544
                  24378099.5944                                   24378096.1134
                                                                        43.0004
        25.5004
  -3475393.95348  -2645278.42645
                  21615624.6254                                   21615620.5204
                                                                        49.5004
        35.0004
  -1677066.92246  -1269783.87544
                  23890747.2194                                   23890744.1294
                                                                        41.2504
        28.0004
    180386.64148    171333.75445
                  21907227.5944                                   21907221.5944
                                                                        49.0004
        33.7504
   1547156.89147   1226437.68444
                  23020216.3984                                   23020212.9414
                                                                        45.0004
        28.7504
   1337912.34847   1048439.68444
                  24061414.0164                                   24061409.9844
                                                                        42.2504
        27.5004
   -549167.79746   -380847.23844
                  23710728.6804                                   23710725.2034
                                                                        40.5004
        26.5004
 09 10 13 23 32  0.0000000  0  9G02G04G12G13G29G23G30G31G10
  -2646634.94148  -2006940.18047
                  20580448.2504                                   20580442.3324
                                                                        51.5004
        42.5004
   1195519.92248    954640.70346
                  20941376.0554                                   20941372.2814
                                                                        51.7504
        40.5004
   3389971.95747   2644462.16044
                  24381378.6024                                   24381374.6214
                                                                        44.7504
        27.5004
  -3608169.87948  -2748740.20345
                  21590358.5474                                   21590354.2424
                                                                        50.0004
        35.5004
  -1851998.18046  -1406093.89144
                  23857458.8284                                   23857455.6564
                                                                        40.0004
        26.7504
    132033.27748    133655.77745
                  21898026.2894                                   21898020.0784
                                                                        49.0004
        34.0004
   1529145.17647   1212402.62144
                  23016788.6484                                   23016785.5744
                                                                        44.5004
        28.0004
   1312087.00847   1028316.05944
                  24056499.7894                                   24056495.3324
                                                                        43.0004
        27.0004
   -744261.83246   -532868.53944
                  23673603.1804                                   23673599.7704
                                                                        41.2504
        25.0004
 09 10 13 23 32 30.0000000  0  9G02G04G12G13G29G23G30G31G10
  -2758372.52748  -2094008.35947
                  20559185.1254                                   20559179.3794
                                                                        52.0004
        42.0004
   1169142.01248    934086.50446
                  20936356.5164                                   20936353.3714
                                                                        52.5004
        40.7504
   3407584.37547   2658186.12944
                  24384730.2424                                   24384725.8284
                                                                        44.0004
        26.0004
  -3740230.89548  -2851644.90645
                  21565228.1954                                   21565223.9884
                                                                        49.7504
        35.0004
  -2026514.65646  -1542080.75044
                  23824249.4774                                   23824245.5824
                                                                        41.2504
        24.5004
     84405.05548     96542.85545
                  21888963.0164                                   21888957.0084
                                                                        48.5004
        34.2504
   1511805.43047   1198891.18844
                  23013488.2894                                   23013485.3674
                                                                        44.0004
        27.0004
   1286886.37547   1008679.19144
                  24051703.8674                                   24051699.9384
                                                                        42.7504
        27.0004
   -939056.75047   -684656.80944
                  23636535.6644                                   23636531.9384
                                                                        42.5004
        26.2504
 09 10 13 23 33  0.0000000  0  9G02G04G12G13G29G23G30G31G10
  -2869454.69948  -2180565.84447
                  20538046.7894                                   20538041.0904
                                                                        51.0004
        42.2504
   1143374.53148    914007.95346
                  20931453.1414                                   20931450.0234
                                                                        52.0004
        41.0004
   3425573.01647   2672203.28544
                  24388153.1724                                   24388149.4264
                                                                        43.0004
        25.0004
  -3871578.02748  -2953993.28545
                  21540233.2344                                   21540228.9454
                                                                        50.0004
        35.2504
  -2200616.46146  -1677744.49244
                  23791118.6484                                   23791115.4614
                                                                        40.7504
        25.2504
     37497.83648     59991.79745
                  21880036.5864                                   21880030.5084
                                                                        48.2504
        33.5004
   1495132.15647   1185899.07044
                  23010315.7584                                   23010312.2114
                                                                        44.0004
        26.5004
   1262305.63347    989525.37544
                  24047026.8524                                   24047022.4534
                                                                        43.0004
        25.7504
  -1133553.25047   -836212.48044
                  23599523.8364                                   23599520.4414
                                                                        43.0004
        28.0004
 09 10 13 23 33 30.0000000  0  9G02G04G12G13G29G23G30G31G10
  -2979882.21948  -2266613.21147
                  20517033.0164                                   20517027.4844
                                                                        51.7504
        43.0004
   1118214.24648    894402.53546
                  20926665.4304                                   20926661.9614
                                                                        52.0004
        41.2504
   3443932.96147   2686509.77344
                  24391647.0704                                   24391643.3134
                                                                        42.0004
        26.0004
  -4002211.25848  -3055785.38345
                  21515374.7274                                   21515370.7154
                                                                        50.2504
        35.5004
  -2374303.50046  -1813085.00044
                  23758066.9224                                   23758064.3204
                                                                        41.7504
        27.0004
     -8691.77748     23999.91045
                  21871246.9064                                   21871240.7194
                                                                        48.7504
        34.0004
   1479120.77747   1173422.68444
                  23007269.0234                                   23007265.1724
                                                                        44.7504
        27.0004
   1238340.68047    970851.39544
                  24042466.1024                                   24042461.8404
                                                                        42.0004
        25.0004
  -1327751.39147   -987535.66044
                  23562569.1564                                   23562565.8914
                                                                        43.0004
        28.2504
 09 10 13 23 34  0.0000000  0  9G02G04G12G13G29G23G30G31G10
  -3089659.13748  -2352153.63747
                  20496143.2974                                   20496137.5274
                                                                        51.7504
        42.5004
   1093654.89548    875265.37946
                  20921991.6954                                   20921988.6374
                                                                        52.0004
        40.2504
   3462656.79346   2701099.80144
                  24395209.3444                                   24395206.5824
                                                                        40.7504
        25.7504
  -4132133.74248  -3157023.63345
                  21490650.9224                                   21490647.0314
                                                                        50.7504
        35.7504
  -2547577.55946  -1948103.71944
                  23725094.2814                                   23725091.3984
                                                                        41.2504
        29.0004
    -54169.60548    -11437.34845
                  21862592.8594                                   21862586.7234
                                                                        49.0004
        33.2504
   1463764.11347   1161456.46544
                  23004346.5314                                   23004342.6294
                                                                        45.0004
        27.0004
   1214984.89147    952652.08644
                  24038021.3754                                   24038017.6604
                                                                        42.5004
        24.5004
  -1521653.57447  -1138628.25844
                  23525670.8754                                   23525667.9494
                                                                        44.5004
        29.7504
 09 10 13 23 34 30.0000000  0  9G02G04G12G13G29G23G30G31G10
  -3198784.70748  -2437186.52047
                  20475377.2344                                   20475371.4264
                                                                        52.5004
        42.7504
   1069694.21548    856594.70346
                  20917432.3054                                   20917429.2074
                                                                        52.0004
        41.0004
   3481740.14146   2715969.94544
                  24398840.5864                                   24398837.7624
                                                                        40.0004
        25.5004
  -4261344.18748  -3257707.10245
                  21466062.7664                                   21466059.2544
                                                                        50.5004
        35.5004
  -2720437.02747  -2082799.34045
                  23692200.5394                                   23692197.4844
                                                                        43.2504
        30.0004
    -98937.48048    -46321.41445
                  21854073.8524                                   21854067.9384
                                                                        49.0004
        34.0004
   1449058.79347   1149997.78544
                  23001548.5944                                   23001544.8984
                                                                        45.7504
        27.2504
   1192235.56346    934925.34043
                  24033692.4454                                   24033687.9344
                                                                        39.0004
        22.5004
  -1715258.31647  -1289489.07844
                  23488828.7584                                   23488825.6094
                                                                        43.5004
        28.0004
 09 10 13 23 35  0.0000000  0  9G02G04G12G13G29G23G30G31G10
  -3307262.44948  -2521714.60947
                  20454734.8204                                   20454728.6764
                                                                        52.5004
        42.5004
   1046325.83248    838385.56346
                  20912985.8914                                   20912981.9654
                                                                        51.7504
        40.0004
   3501175.36346   2731114.31344
                  24402539.5084                                   24402536.3094
                                                                        40.5004
        27.5004
  -4389845.85948  -3357838.23445
                  21441610.1804                                   21441606.0204
                                                                        50.0004
        35.0004
  -2892884.47747  -2217173.92644
                  23659385.1024                                   23659381.6054
                                                                        43.7504
        28.0004
   -143002.02048    -80657.40245
                  21845688.9614                                   21845682.3834
                                                                        48.7504
        34.0004
   1434997.57847   1139041.04344
                  22998872.8754                                   22998868.9924
                                                                        45.5004
        28.0004
   1170085.50846    917665.54744
                  24029477.5234                                   24029472.9064
                                                                        39.5004
        24.0004
  -1908568.09847  -1440120.06244
                  23452043.0164                                   23452040.1994
                                                                        43.0004
        27.2504
 09 10 13 23 35 30.0000000  0  8G02G04G13G29G23G30G31G10
  -3415094.60548  -2605739.64547
                  20434215.0164                                   20434209.1914
                                                                        52.5004
        42.2504
   1023545.11348    820634.34046
                  20908650.4774                                   20908646.8204
                                                                        52.5004
        40.5004
  -4517640.35248  -3457418.30545
                  21417291.6334                                   21417287.5634
                                                                        50.0004
        35.0004
  -3064920.17647  -2351227.66444
                  23626646.6724                                   23626643.9454
                                                                        43.0004
        28.2504
   -186367.31648   -114448.49245
                  21837436.5004                                   21837430.2814
                                                                        49.0004
        33.5004
   1421574.67247   1128581.65644
                  22996318.9534                                   22996315.2664
                                                                        45.0004
        28.2504
   1148530.04346    900869.07843
                  24025376.0944                                   24025371.7114
                                                                        41.5004
        22.5004
  -2101584.39547  -1590522.30144
                  23415313.7034                                   23415310.3874
                                                                        44.0004
        26.0004
 09 10 13 23 36  0.0000000  0  8G02G04G13G29G23G30G31G10
  -1946859.54748  -1461660.39547
                  20713610.7504                                   20713604.5634
                                                                        52.2504
        43.0004
   2576768.41848   2030938.21946
                  21204218.9924                                   21204215.3484
                                                                        52.2504
        40.2504
  -3069304.50448  -2328844.90246
                  21692900.4614                                   21692896.5084
                                                                        50.0004
        36.0004
  -1661119.18747  -1257356.69944
                  23893781.2344                                   23893778.5274
                                                                        43.0004
        27.0004
   1346383.72748   1079902.99645
                  22129109.4304                                   22129103.6764
                                                                        49.2504
        34.5004
   2984204.73447   2346215.50044
                  23293677.0314                                   23293673.5164
                                                                        45.0004
        27.7504
   2702984.37146   2112132.20344
                  24321178.3914                                   24321173.7974
                                                                        41.0004
        24.0004
   -718880.98847   -513091.04344
                  23678433.4774                                   23678430.3674
                                                                        44.0004
        28.7504
 09 10 13 23 36 30.0000000  0  8G02G04G13G29G23G30G31G10
  -2053403.82448  -1544681.91847
                  20693336.2344                                   20693330.3754
                                                                        52.0004
        42.5004
   2555152.14548   2014094.38346
                  21200105.5394                                   21200102.0274
                                                                        52.7504
        40.5004
  -3195685.66448  -2427323.71145
                  21668851.3284                                   21668847.0274
                                                                        50.2504
        35.7504
  -1832330.66047  -1390768.20744
                  23861201.3984                                   23861197.2504
                                                                        44.2504
        27.0004
   1304406.21148   1047193.19145
                  22121121.7424                                   22121115.8984
                                                                        49.0004
        34.0004
   2972044.12947   2336739.73444
                  23291362.5554                                   23291359.1214
                                                                        44.7504
        28.7504
   2682604.99247   2096252.20744
                  24317300.2814                                   24317295.8054
                                                                        42.2504
        24.5004
   -911309.00447   -663034.91445
                  23641815.6334                                   23641811.8874
                                                                        44.7504
        30.0004
 09 10 13 23 37  0.0000000  0  8G02G04G13G29G23G30G31G10
  -2159300.44548  -1627198.73847
                  20673184.5314                                   20673178.8014
                                                                        52.5004
        42.5004
   2534117.63348   1997703.84846
                  21196102.7974                                   21196099.6644
                                                                        52.5004
        40.5004
  -3321355.66848  -2525248.39145
                  21644937.5394                                   21644932.7934
                                                                        51.0004
        35.5004
  -2003124.25847  -1523854.11744
                  23828700.2344                                   23828696.1994
                                                                        44.7504
        27.0004
   1263122.67648   1015024.19545
                  22113265.3674                                   22113259.8014
                                                                        48.5004
        34.5004
   2960512.89547   2327754.35944
                  23289168.4614                                   23289165.1604
                                                                        44.0004
        27.7504
   2662812.54347   2080829.53144
                  24313533.9224                                   24313529.5274
                                                                        42.0004
        25.5004
  -1103437.82847   -812745.68444
                  23605254.4844                                   23605251.1644
                                                                        43.7504
        28.7504
 09 10 13 23 37 30.0000000  0  8G02G04G13G29G23G30G31G10
  -2264555.67648  -1709215.79347
                  20653155.4304                                   20653149.5704
                                                                        52.5004
        42.2504
   2513655.98848   1981759.69146
                  21192208.9774                                   21192205.9344
                                                                        52.5004
        40.0004
  -3446320.16848  -2622623.28946
                  21621157.2584                                   21621152.8554
                                                                        51.0004
        36.2504
  -2173504.99247  -1656618.32844
                  23796278.6174                                   23796274.1724
                                                                        45.7504
        28.2504
   1222524.16848    983388.97745
                  22105540.0704                                   22105534.2034
                                                                        49.0004
        34.0004
   2949600.81347   2319251.43844
                  23287092.1334                                   23287088.4574
                                                                        43.0004
        28.0004
   2643596.89847   2065856.28944
                  24309877.6564                                   24309872.9804
                                                                        42.5004
        26.5004
  -1295272.82046   -962227.46544
                  23568749.6024                                   23568746.7344
                                                                        41.7504
        28.5004
 09 10 13 23 38  0.0000000  0  9G02G04G05G13G29G23G30G31G10
  -2369173.84448  -1790736.43747
                  20633247.0314                                   20633241.3204
                                                                        52.2504
        42.5004
   2493760.44548   1966256.66846
                  21188423.4304                                   21188419.7464
                                                                        52.7504
        40.0004
   4404412.77056   3477206.43454
                  24405494.6644                                   24405491.8874
                                                                        40.0004
        27.0004
  -3570582.93048  -2719451.38346
                  21597510.5864                                   21597506.5204
                                                                        51.0004
        36.0004
  -2343475.34447  -1789062.73444
                  23763933.8364                                   23763930.0634
                                                                        44.2504
        27.5004
   1182604.16048    952282.47745
                  22097943.3054                                   22097937.3094
                                                                        48.7504
        34.0004
   2939299.85547   2311224.70344
                  23285131.8204                                   23285128.4964
                                                                        43.7504
        27.2504
   2624951.99647   2051327.78944
                  24306330.0394                                   24306325.3164
                                                                        43.0004
        27.7504
  -1486817.00046  -1111482.59844
                  23532300.2114                                   23532296.8634
                                                                        41.7504
        29.0004
 09 10 13 23 38 30.0000000  0  9G02G04G05G13G29G23G30G31G10
  -2473163.62148  -1871767.43047
                  20613458.6174                                   20613452.6684
                                                                        52.5004
        42.5004
   2474419.83248   1951186.08646
                  21184742.9454                                   21184739.4774
                                                                        52.7504
        40.2504
   4211493.58246   3326879.80544
                  24368783.9224                                   24368780.4574
                                                                        41.7504
        28.2504
  -3694152.15248  -2815739.05945
                  21573995.8754                                   21573991.7934
                                                                        50.5004
        35.5004
  -2513042.60947  -1921193.02044
                  23731666.1334                                   23731662.5824
                                                                        44.7504
        28.2504
   1143351.57448    921696.02345
                  22090473.6174                                   22090466.9494
                                                                        48.5004
        33.5004
   2929597.76647   2303664.60944
                  23283285.3364                                   23283282.1134
                                                                        43.2504
        26.7504
   2606864.92247   2037233.97744
                  24302887.4534                                   24302883.8554
                                                                        44.0004
        27.0004
  -1678077.52747  -1260516.68744
                  23495903.8134                                   23495900.9304
                                                                        42.2504
        29.7504
 09 10 13 23 39  0.0000000  0  9G02G04G05G13G29G23G30G31G10
  -2576526.13348  -1952309.64547
                  20593789.1024                                   20593783.0784
                                                                        51.7504
        42.0004
   2455630.13748   1936544.78146
                  21181167.4614                                   21181163.4614
                                                                        53.0004
        40.7504
   4018772.57447   3176707.57044
                  24332110.3834                                   24332106.6644
                                                                        44.0004
        28.0004
  -3817028.26648  -2911486.69546
                  21550613.4614                                   21550609.7384
                                                                        50.0004
        36.0004
  -2682206.52347  -2053009.02044
                  23699474.7814                                   23699471.7894
                                                                        44.2504
        27.2504
   1104762.75048    891626.82445
                  22083130.3364                                   22083124.4144
                                                                        48.7504
        33.7504
   2920489.78147   2296567.45344
                  23281552.0864                                   23281548.8484
                                                                        43.7504
        24.5004
   2589332.01247   2023571.97744
                  24299551.2664                                   24299547.1174
                                                                        42.5004
        27.5004
  -1869054.61747  -1409329.96944
                  23459562.5704                                   23459559.0704
                                                                        42.0004
        28.2504
 09 10 13 23 39 30.0000000  0  9G02G04G05G13G29G23G30G31G10
  -2679262.50448  -2032363.94547
                  20574238.8364                                   20574233.3404
                                                                        52.0004
        42.5004
   2437387.87948   1922330.05546
                  21177695.7974                                   21177692.6484
                                                                        52.0004
        40.5004
   3826249.48447   3026689.62544
                  24295474.2194                                   24295470.7194
                                                                        43.2504
        27.0004
  -3939211.66048  -3006694.51246
                  21527362.6954                                   21527358.7664
                                                                        50.0004
        36.0004
  -2850966.71947  -2184510.42644
                  23667360.9064                                   23667358.1414
                                                                        44.0004
        29.7504
   1066834.09848    862072.04745
                  22075912.8364                                   22075907.0124
                                                                        48.0004
        33.5004
   2911971.35547   2289929.68444
                  23279931.6094                                   23279927.9694
                                                                        43.5004
        26.2504
   2572348.89547   2010338.37544
                  24296319.2974                                   24296315.4494
                                                                        42.0004
        27.0004
  -2059748.13347  -1557922.30144
                  23423274.5474                                   23423270.5314
                                                                        42.5004
        28.2504
 09 10 13 23 40  0.0000000  0  9G02G04G05G13G29G23G30G31G10
  -2781369.85248  -2111928.10947
                  20554808.3674                                   20554802.6524
                                                                        52.7504
        43.0004
   2419693.24648   1908542.03946
                  21174328.7504                                   21174324.9884
                                                                        52.5004
        40.2504
   3633928.24647   2876828.92244
                  24258876.0474                                   24258872.3204
                                                                        43.7504
        25.7504
  -4060699.10548  -3101360.01646
                  21504244.7274                                   21504240.3054
                                                                        51.0004
        36.0004
  -3019318.68747  -2315693.74244
                  23635324.6334                                   23635321.7584
                                                                        44.5004
        29.7504
   1029565.55548    833031.59045
                  22068821.2034                                   22068815.0124
                                                                        48.7504
        33.5004
   2904041.27347   2283750.39844
                  23278422.0234                                   23278418.8094
                                                                        44.0004
        27.0004
   2555914.96546   1997532.69544
                  24293191.9534                                   24293188.3204
                                                                        38.5004
        24.7504
  -2250154.23847  -1706290.67644
                  23387041.0704                                   23387037.7274
                                                                        42.2504
        28.0004
 09 10 13 23 40 30.0000000  0  9G02G04G05G13G29G23G30G31G10
  -2882848.18748  -2191002.14147
                  20535497.9694                                   20535492.0594
                                                                        52.0004
        42.2504
   2402543.75448   1895178.79746
                  21171065.1484                                   21171061.7704
                                                                        52.2504
        40.7504
   3441809.99247   2727126.44544
                  24222317.5944                                   24222314.3754
                                                                        43.2504
        26.5004
  -4181490.12148  -3195482.85946
                  21481258.7894                                   21481254.9224
                                                                        51.0004
        36.2504
  -3187260.85947  -2446557.75444
                  23603365.9844                                   23603362.8364
                                                                        44.7504
        29.5004
    992955.57048    804504.32445
                  22061854.0084                                   22061847.8134
                                                                        48.7504
        33.0004
   2896696.37947   2278027.08244
                  23277024.8834                                   23277021.1254
                                                                        44.2504
        27.5004
   2540027.35946   1985152.72744
                  24290169.0634                                   24290164.8444
                                                                        41.0004
        24.5004
  -2440271.39147  -1854433.89144
                  23350863.5084                                   23350859.7624
                                                                        42.7504
        28.5004
 09 10 13 23 41  0.0000000  0  9G02G04G05G13G29G23G30G31G10
  -2983695.96548  -2269584.81247
                  20516307.4224                                   20516301.3754
                                                                        52.0004
        42.5004
   2385938.12148   1882239.36346
                  21167905.0634                                   21167901.9024
                                                                        52.0004
        40.0004
   3249896.95746   2577583.91444
                  24185797.4224                                   24185794.2074
                                                                        41.5004
        26.5004
  -4301582.62148  -3289061.41846
                  21458405.8594                                   21458401.9104
                                                                        51.2504
        36.0004
  -3354790.55947  -2577100.33644
                  23571486.3284                                   23571482.9734
                                                                        44.7504
        29.5004
    957002.57448    776489.00045
                  22055012.7194                                   22055006.3404
                                                                        49.5004
        32.7504
   2889934.09447   2272757.76244
                  23275738.3834                                   23275733.8634
                                                                        44.5004
        25.5004
   2524684.28946   1973197.06644
                  24287247.9614                                   24287244.8834
                                                                        37.7504
        24.5004
  -2630097.19547  -2002350.03944
                  23314740.6884                                   23314737.7274
                                                                        44.5004
        29.0004
 09 10 13 23 41 30.0000000  0  9G02G04G05G13G29G23G30G31G10
  -3083913.19148  -2347676.16447
                  20497236.4614                                   20497230.6454
                                                                        52.0004
        42.0004
   2369874.34848   1869722.15246
                  21164848.0314                                   21164845.2114
                                                                        51.7504
        40.2504
   3058190.43446   2428202.29745
                  24149317.2274                                   24149314.5004
                                                                        41.2504
        30.0004
  -4420975.68748  -3382094.95745
                  21435686.2034                                   21435681.6334
                                                                        51.0004
        35.5004
  -3521905.49247  -2707319.77744
                  23539685.3204                                   23539681.9384
                                                                        45.2504
        29.5004
    921704.63348    748984.09845
                  22048296.0634                                   22048289.6414
                                                                        48.7504
        33.0004
   2883750.76247   2267939.55944
                  23274561.3834                                   23274557.3674
                                                                        43.7504
        26.2504
   2509882.92246   1961663.47743
                  24284432.5784                                   24284428.6334
                                                                        40.5004
        23.7504
  -2819629.82447  -2150037.75845
                  23278673.7894                                   23278670.9144
                                                                        45.2504
        31.0004
 09 10 13 23 42  0.0000000  0  9G02G04G05G13G29G23G30G31G10
  -3183500.35948  -2425276.55147
                  20478285.8284                                   20478279.8554
                                                                        52.0004
        42.2504
   2354348.71148   1857624.25446
                  21161893.9454                                   21161890.6094
                                                                        50.7504
        39.7504
   2866690.52347   2278981.59444
                  24112875.9614                                   24112872.8054
                                                                        42.7504
        29.5004
  -4539669.96148  -3474583.98446
                  21413099.3984                                   21413095.0704
                                                                        51.0004
        36.0004
  -3688605.16047  -2837215.61344
                  23507963.6804                                   23507959.8164
                                                                        44.5004
        28.7504
    887058.16448    721986.84045
                  22041702.7504                                   22041696.9104
                                                                        48.5004
        33.2504
   2878141.95347   2263569.01644
                  23273494.1564                                   23273490.1844
                                                                        43.7504
        27.2504
   2495619.40246   1950549.05143
                  24281718.3054                                   24281714.3554
                                                                        38.5004
        23.5004
  -3008868.64547  -2297496.54744
                  23242662.6724                                   23242659.6524
                                                                        45.0004
        29.7504
 09 10 13 23 42 30.0000000  0  9G02G04G05G13G29G23G30G31G10
  -3282457.03548  -2502385.64547
                  20459454.9694                                   20459449.3134
                                                                        52.0004
        42.5004
   2339359.28148   1845944.17646
                  21159041.5084                                   21159037.9884
                                                                        51.7504
        40.5004
   2675398.84447   2129923.14845
                  24076474.8594                                   24076471.0904
                                                                        42.5004
        30.0004
  -4657663.97748  -3566527.34846
                  21390645.8984                                   21390641.6134
                                                                        51.0004
        36.5004
  -3854887.43447  -2966786.18744
                  23476321.3834                                   23476317.3554
                                                                        44.0004
        28.2504
    853061.19948    695495.71945
                  22035233.0864                                   22035227.5474
                                                                        49.2504
        32.5004
   2873104.61747   2259643.78544
                  23272535.4614                                   23272532.0394
                                                                        44.5004
        28.0004
   2481891.20346   1939851.75843
                  24279105.7274                                   24279101.6054
                                                                        41.5004
        23.0004
  -3197812.31647  -2444725.35544
                  23206707.7504                                   23206704.5204
                                                                        43.7504
        29.0004
 09 10 13 23 43  0.0000000  0  9G02G04G05G13G29G23G30G31G10
  -3380784.64548  -2579004.57047
                  20440743.8364                                   20440737.9804
                                                                        52.2504
        42.5004
   2324902.35548   1834679.03946
                  21156290.6564                                   21156287.3054
                                                                        52.0004
        40.2504
   2484315.37946   1981026.92244
                  24040112.3984                                   24040108.8954
                                                                        41.2504
        28.5004
  -4774958.72748  -3657925.87146
                  21368325.3524                                   21368321.2704
                                                                        51.0004
        37.0004
  -4020752.06647  -3096031.35244
                  23444758.2034                                   23444754.7584
                                                                        44.0004
        29.7504
    819710.07448    669507.85545
                  22028886.7274                                   22028880.4924
                                                                        49.5004
        33.5004
   2868633.87947   2256160.06644
                  23271684.3444                                   23271681.6094
                                                                        44.2504
        27.5004
   2468693.82047   1929568.11744
                  24276594.7034                                   24276589.9574
                                                                        42.5004
        25.7504
  -3386460.66447  -2591724.09044
                  23170809.1954                                   23170805.7344
                                                                        44.0004
        29.5004
 09 10 13 23 43 30.0000000  0  9G02G04G05G13G29G23G30G31G10
  -3478482.62948  -2655132.87147
                  20422152.6724                                   20422146.8324
                                                                        52.0004
        43.0004
   2310975.79748   1823827.18846
                  21153640.7034                                   21153636.7894
                                                                        51.7504
        40.2504
   2293441.57446   1832294.09844
                  24003790.3984                                   24003786.8404
                                                                        41.5004
        26.7504
  -4891553.22748  -3748778.74246
                  21346138.5554                                   21346134.1844
                                                                        51.0004
        36.2504
  -4186196.91847  -3224949.40645
                  23413274.8134                                   23413272.2424
                                                                        43.2504
        30.2504
    787002.80148    644021.68845
                  22022662.5394                                   22022656.4924
                                                                        49.5004
        33.0004
   2864726.55947   2253115.35544
                  23270941.0234                                   23270938.1884
                                                                        43.7504
        27.0004
   2456024.35947   1919695.83243
                  24274184.1644                                   24274178.3164
                                                                        43.2504
        22.2504
  -3574811.79747  -2738491.22344
                  23134967.0784                                   23134963.2934
                                                                        44.7504
        29.5004
 09 10 13 23 44  0.0000000  0  9G02G04G05G13G29G23G30G31G10
  -3575553.37948  -2730772.42247
                  20403680.8054                                   20403674.7544
                                                                        52.0004
        42.2504
   2297574.60948   1813384.69946
                  21151090.2504                                   21151086.6174
                                                                        52.0004
        39.7504
   2102776.06646   1683723.60544
                  23967507.9774                                   23967503.9804
                                                                        41.0004
        26.2504
  -5007449.23448  -3839087.30146
                  21324084.0164                                   21324079.4574
                                                                        51.0004
        36.0004
  -4351222.63747  -3353540.84445
                  23381871.4144                                   23381868.5744
                                                                        43.7504
        30.5004
    754934.46148    619033.37945
                  22016560.7194                                   22016554.3634
                                                                        49.7504
        33.0004
   2861376.28546   2250504.69944
                  23270303.6804                                   23270300.4414
                                                                        41.5004
        26.2504
   2443877.57847   1910230.86344
                  24271872.7814                                   24271867.2274
                                                                        43.0004
        24.2504
  -3762866.73047  -2885027.51644
                  23099181.7034                                   23099177.9144
                                                                        45.0004
        29.2504
 09 10 13 23 44 30.0000000  0  9G02G04G05G13G29G23G30G31G10
  -3671997.30548  -2805923.53947
                  20385328.0084                                   20385322.3014
                                                                        53.0004
        43.0004
   2284695.91848   1803349.35246
                  21148639.3444                                   21148636.2194
                                                                        52.0004
        40.0004
   1912319.54747   1535315.96544
                  23931264.9774                                   23931261.5984
                                                                        42.0004
        28.7504
  -5122646.89148  -3928851.68046
                  21302162.4844                                   21302157.9224
                                                                        51.0004
        36.5004
  -4515828.19147  -3481804.89145
                  23350548.2424                                   23350544.9144
                                                                        43.0004
        30.0004
    723502.15248    594540.75445
                  22010578.8524                                   22010573.2304
                                                                        49.0004
        33.0004
   2858579.04347   2248324.96544
                  23269771.3674                                   23269768.6564
                                                                        42.0004
        26.5004
   2432249.98847   1901170.40244
                  24269659.3914                                   24269654.5354
                                                                        43.0004
        25.2504
  -3950624.70347  -3031332.39144
                  23063452.7504                                   23063449.1994
                                                                        44.5004
        29.2504
 09 10 13 23 45  0.0000000  0  9G02G04G05G13G29G23G30G31G10
  -3767813.38348  -2880585.41847
                  20367094.5944                                   20367089.3204
                                                                        52.0004
        42.7504
   2272338.18848   1793719.96146
                  21146287.8914                                   21146284.1684
                                                                        52.2504
        40.0004
   1722074.11747   1387072.84445
                  23895062.7424                                   23895059.6334
                                                                        42.5004
        30.0004
  -5237144.65648  -4018070.71546
                  21280374.5634                                   21280370.4144
                                                                        51.2504
        36.5004
  -4680010.75847  -3609739.32444
                  23319304.9694                                   23319302.0784
                                                                        44.0004
        29.5004
    692704.78948    570542.94545
                  22004718.3984                                   22004712.7384
                                                                        49.5004
        32.7504
   2856332.48847   2246574.35244
                  23269343.7344                                   23269340.7814
                                                                        42.7504
        26.0004
   2421139.18846   1892512.66043
                  24267545.1724                                   24267540.9884
                                                                        41.5004
        23.5004
  -4138083.18447  -3177403.91444
                  23027780.0084                                   23027777.1054
                                                                        43.5004
        29.5004
 09 10 13 23 45 30.0000000  0  9G02G04G05G13G29G23G30G31G10
  -3863002.43448  -2954758.68447
                  20348980.7424                                   20348974.9774
                                                                        52.5004
        43.0004
   2260498.35948   1784494.13346
                  21144034.6644                                   21144031.2464
                                                                        52.0004
        40.5004
   1532040.36747   1238994.61745
                  23858900.8444                                   23858896.9534
                                                                        42.5004
        31.0004
  -5350942.72348  -4106744.52046
                  21258719.1174                                   21258714.8204
                                                                        51.2504
        36.0004
  -4843769.54747  -3737343.60545
                  23288143.4694                                   23288139.7624
                                                                        43.5004
        30.5004
    662538.62548    547036.91045
                  21998977.9534                                   21998971.8594
                                                                        48.2504
        33.2504
   2854632.08647   2245249.31344
                  23269020.2504                                   23269017.4104
                                                                        43.0004
        25.7504
   2410541.50046   1884254.71143
                  24265527.6094                                   24265524.9344
                                                                        41.0004
        22.7504
  -4325241.49647  -3323241.56645
                  22992165.4694                                   22992161.9734
                                                                        44.0004
        30.5004
 09 10 13 23 46  0.0000000  0  9G02G04G05G13G29G23G30G31G10
  -2382141.33248  -1800840.92647
                  20630779.3914                                   20630773.4804
                                                                        52.5004
        42.5004
   3824593.69148   3003269.71546
                  21441672.1414                                   21441668.5704
                                                                        51.5004
        40.2504
   2917645.09447   2318686.62944
                  24122572.0704                                   24122568.7854
                                                                        42.5004
        29.0004
  -3888617.16848  -2967270.03546
                  21536990.6804                                   21536986.4534
                                                                        51.0004
        36.5004
  -3431677.53147  -2637012.15244
                  23556854.7274                                   23556851.7934
                                                                        43.0004
        29.2504
   2208421.80948   1751621.22745
                  22293149.5634                                   22293143.5704
                                                                        48.7504
        32.2504
   4428893.88347   3471946.80944
                  23568592.5004                                   23568589.3594
                                                                        43.7504
        26.7504
   3975874.17646   3103994.44144
                  24563401.2274                                   24563397.6564
                                                                        39.7504
        24.2504
  -2936672.27047  -2241239.56245
                  23256401.1644                                   23256398.0274
                                                                        44.5004
        30.7504
 09 10 13 23 46 30.0000000  0  9G02G04G05G13G29G23G30G31G10
  -2476078.02048  -1874038.33247
                  20612903.9144                                   20612897.6914
                                                                        51.5004
        43.0004
   3813779.59048   2994843.13346
                  21439614.4304                                   21439610.9344
                                                                        51.7504
        40.0004
   2728035.62947   2170939.05544
                  24086490.6024                                   24086487.3444
                                                                        42.5004
        28.7504
  -4001016.66848  -3054854.04746
                  21515601.4844                                   21515596.9534
                                                                        50.5004
        36.5004
  -3594585.65647  -2763953.53144
                  23525855.2114                                   23525851.7344
                                                                        43.7504
        29.7504
   2179508.54748   1729091.42645
                  22287647.6334                                   22287641.4454
                                                                        49.2504
        33.0004
   4428272.63347   3471462.71144
                  23568474.6334                                   23568470.4924
                                                                        43.5004
        26.5004
   3966291.16046   3096527.12544
                  24561576.8754                                   24561574.0944
                                                                        40.2504
        24.5004
  -3123227.93447  -2386607.57844
                  23220901.3754                                   23220897.3754
                                                                        43.0004
        29.7504
 09 10 13 23 47  0.0000000  0  9G02G04G05G13G29G23G30G31G10
  -2569388.43048  -1946747.73047
                  20595147.8204                                   20595141.1644
                                                                        51.5004
        42.5004
   3803475.04348   2986813.60946
                  21437653.3364                                   21437650.2074
                                                                        51.2504
        39.2504
   2538640.49247   2023358.50044
                  24050449.5704                                   24050446.3754
                                                                        43.0004
        28.7504
  -4112715.93448  -3141892.41846
                  21494346.0314                                   21494341.6564
                                                                        50.5004
        36.5004
  -3757065.54747  -2890561.19144
                  23494935.8914                                   23494932.3324
                                                                        43.7504
        29.5004
   2151218.23048   1707047.01245
                  22282264.0634                                   22282258.0664
                                                                        48.0004
        32.2504
   4428185.66447   3471394.91044
                  23568457.6564                                   23568454.4654
                                                                        43.0004
        26.0004
   3957211.19146   3089451.77344
                  24559849.6724                                   24559846.3164
                                                                        41.2504
        25.7504
  -3309479.98446  -2531739.00045
                  23185457.6094                                   23185454.6954
                                                                        41.7504
        30.0004
 09 10 13 23 47 30.0000000  0  9G02G04G05G13G29G23G30G31G10
  -2662076.85948  -2018972.47747
                  20577509.4304                                   20577503.4534
                                                                        51.0004
        42.5004
   3793673.12148   2979175.73046
                  21435788.2504                                   21435784.8954
                                                                        51.0004
        39.7504
   2349456.90647   1875942.74244
                  24014449.6564                                   24014445.7344
                                                                        44.5004
        28.7504
  -4223718.94948  -3228388.24646
                  21473222.8204                                   21473218.6764
                                                                        50.7504
        37.0004
  -3919119.94547  -3016837.32844
                  23464097.9224                                   23464094.3244
                                                                        43.0004
        29.7504
   2123544.07848   1685482.74645
                  22276998.1094                                   22276991.9454
                                                                        48.5004
        32.2504
   4428624.74247   3471737.03944
                  23568541.2034                                   23568537.1214
                                                                        42.5004
        26.0004
   3948627.05146   3082762.80144
                  24558216.5394                                   24558212.6054
                                                                        38.7504
        25.2504
  -3495431.45747  -2676636.19945
                  23150072.5394                                   23150069.5944
                                                                        42.7504
        31.5004
 09 10 13 23 48  0.0000000  0  9G02G04G05G13G29G23G30G31G10
  -2754141.55948  -2090711.22347
                  20559990.0864                                   20559984.1134
                                                                        51.7504
        42.7504
   3784373.37548   2971929.17246
                  21434018.5554                                   21434014.9224
                                                                        51.5004
        39.7504
   2160487.19147   1728693.64844
                  23978489.7344                                   23978485.9064
                                                                        44.5004
        29.2504
  -4334023.14848  -3314339.55546
                  21452232.3364                                   21452228.2384
                                                                        51.0004
        36.0004
  -4080745.25447  -3142779.11745
                  23433341.9924                                   23433338.1764
                                                                        43.5004
        30.2504
   2096485.65648   1664398.26245
                  22271849.0704                                   22271843.0944
                                                                        48.7504
        33.0004
   4429588.62947   3472488.08644
                  23568724.3284                                   23568720.2424
                                                                        42.5004
        24.5004
   3940537.19947   3076458.96544
                  24556677.2974                                   24556673.1294
                                                                        42.0004
        26.0004
  -3681078.78547  -2821296.42645
                  23114745.4924                                   23114741.7894
                                                                        45.2504
        30.7504
 09 10 13 23 48 30.0000000  0  9G02G04G05G13G29G23G30G31G10
  -2845582.78948  -2161964.13347
                  20542589.4534                                   20542583.7584
                                                                        52.5004
        43.5004
   3775572.67648   2965071.46946
                  21432343.6884                                   21432340.5784
                                                                        51.5004
        38.7504
   1971732.49647   1581612.12945
                  23942571.4534                                   23942567.5204
                                                                        44.7504
        30.5004
  -4443628.78948  -3399746.53546
                  21431375.0234                                   21431371.1454
                                                                        51.0004
        36.2504
  -4241940.01247  -3268385.40245
                  23402667.0554                                   23402663.8794
                                                                        44.0004
        30.5004
   2070039.79348   1643791.07445
                  22266816.1334                                   22266809.8714
                                                                        48.0004
        32.5004
   4431073.13746   3473644.80544
                  23569007.0164                                   23569003.3364
                                                                        41.7504
        25.0004
   3932938.19547   3070537.67644
                  24555231.2894                                   24555226.8364
                                                                        43.5004
        26.5004
  -3866420.83647  -2965718.81245
                  23079476.5164                                   23079472.0864
                                                                        46.0004
        31.7504
 09 10 13 23 49  0.0000000  0  9G02G04G05G13G29G23G30G31G10
  -2936400.21548  -2232730.96947
                  20525307.1804                                   20525301.3204
                                                                        52.2504
        43.5004
   3767268.84848   2958600.95746
                  21430763.7274                                   21430760.3204
                                                                        51.5004
        39.2504
   1783194.49247   1434699.44145
                  23906692.9924                                   23906689.6294
                                                                        44.5004
        30.2504
  -4552535.02748  -3484608.56646
                  21410651.0784                                   21410646.5784
                                                                        51.0004
        37.2504
  -4402702.42647  -3393654.79745
                  23372075.1094                                   23372071.9694
                                                                        43.0004
        31.0004
   2044204.55948   1623659.78145
                  22261900.0864                                   22261893.7894
                                                                        49.5004
        33.2504
   4433074.93047   3475204.57044
                  23569387.8754                                   23569384.8634
                                                                        42.5004
        26.0004
   3925827.42247   3064996.82444
                  24553878.2034                                   24553873.1454
                                                                        43.0004
        25.2504
  -4051455.99247  -3109902.04745
                  23044264.9924                                   23044261.1994
                                                                        45.0004
        30.7504
 09 10 13 23 49 30.0000000  0  9G02G04G05G13G29G23G30G31G10
  -3026594.32048  -2303012.15247
                  20508143.7814                                   20508138.2664
                                                                        52.2504
        42.5004
   3759459.47348   2952515.72346
                  21429278.1024                                   21429273.9884
                                                                        51.0004
        39.7504
   1594874.14147   1287956.35944
                  23870856.7814                                   23870853.8754
                                                                        43.5004
        29.7504
  -4660741.96948  -3568925.65246
                  21390059.9614                                   21390055.6604
                                                                        51.5004
        36.5004
  -4563030.99247  -3518586.11745
                  23341565.6024                                   23341562.4844
                                                                        42.7504
        30.0004
   2018977.20348   1604002.17245
                  22257099.4144                                   22257093.3324
                                                                        48.2504
        33.0004
   4435589.75846   3477164.10244
                  23569866.8444                                   23569864.0514
                                                                        39.5004
        26.0004
   3919201.09446   3059833.48043
                  24552616.7034                                   24552612.0234
                                                                        40.0004
        22.7504
  -4236182.89847  -3253845.05945
                  23009112.2734                                   23009109.0554
                                                                        44.2504
        31.2504
 09 10 13 23 50  0.0000000  0  9G02G04G05G13G29G23G30G31G10
  -3116165.79348  -2372808.19147
                  20491099.1334                                   20491093.5984
                                                                        52.5004
        43.0004
   3752141.03148   2946813.02346
                  21427884.7274                                   21427881.6134
                                                                        50.7504
        39.7504
   1406771.78547   1141383.14144
                  23835062.7584                                   23835059.0554
                                                                        43.5004
        29.7504
  -4768249.84848  -3652698.03546
                  21369602.1094                                   21369597.7734
                                                                        50.7504
        37.0004
  -4722924.65247  -3643178.57445
                  23311138.8364                                   23311135.7934
                                                                        43.2504
        30.2504
   1994353.98448   1584815.28545
                  22252413.9304                                   22252407.3874
                                                                        49.2504
        32.5004
   4438613.57446   3479520.25044
                  23570442.2114                                   23570439.6884
                                                                        40.7504
        25.5004
   3913055.80947   3055044.98443
                  24551447.7664                                   24551442.1414
                                                                        42.0004
        22.0004
  -4420601.12547  -3397547.49645
                  22974018.3754                                   22974015.4104
                                                                        44.2504
        30.2504
 09 10 13 23 50 30.0000000  0  9G02G04G05G13G29G23G30G31G10
  -3205115.60248  -2442119.77047
                  20474172.5164                                   20474166.8244
                                                                        52.0004
        43.5004
   3745310.12948   2941490.23846
                  21426585.3984                                   21426581.8914
                                                                        51.2504
        39.7504
   1218887.84847    994980.13344
                  23799309.0004                                   23799305.6994
                                                                        43.0004
        29.0004
  -4875059.20748  -3735926.12146
                  21349276.9304                                   21349272.7814
                                                                        50.7504
        36.7504
  -4882382.63747  -3767431.53144
                  23280794.5784                                   23280791.5004
                                                                        42.2504
        29.5004
   1970331.50048   1566096.46945
                  22247842.5864                                   22247835.9774
                                                                        49.5004
        33.5004
   4442141.55147   3482269.24644
                  23571113.6094                                   23571110.4844
                                                                        42.0004
        27.2504
   3907387.39846   3050628.05543
                  24550368.6414                                   24550363.4414
                                                                        40.5004
        21.5004
  -4604710.04747  -3541008.95745
                  22938984.0234                                   22938980.7194
                                                                        44.5004
        31.2504
 09 10 13 23 51  0.0000000  0  9G02G04G05G13G29G23G30G31G10
  -3293442.35548  -2510945.94947
                  20457365.0164                                   20457359.3284
                                                                        51.5004
        42.7504
   3738966.39848   2936547.09846
                  21425377.8914                                   21425374.6174
                                                                        50.5004
        39.5004
   1031225.40247    848749.65244
                  23763598.4144                                   23763594.2624
                                                                        43.5004
        29.7504
  -4981167.84048  -3818608.16046
                  21329084.8674                                   21329080.8324
                                                                        50.7504
        36.7504
  -5041401.23847  -3891342.08245
                  23250534.3284                                   23250531.0514
                                                                        43.7504
        30.0004
   1946909.30148   1547845.39845
                  22243385.4304                                   22243379.0204
                                                                        48.5004
        32.2504
   4446172.03547   3485409.82044
                  23571880.6174                                   23571877.6294
                                                                        43.0004
        25.5004
   3902194.66446   3046581.77743
                  24549380.5554                                   24549375.7584
                                                                        39.0004
        20.7504
  -4788506.03147  -3684226.59845
                  22904009.0704                                   22904005.5864
                                                                        44.0004
        31.5004
 09 10 13 23 51 30.0000000  0  9G02G04G05G13G29G23G30G31G10
  -3381146.57448  -2579287.16047
                  20440675.3134                                   20440669.6374
                                                                        51.5004
        42.7504
   3733106.50048   2931980.92646
                  21424263.2194                                   21424259.1994
                                                                        50.2504
        39.2504
    843785.46947    702692.61345
                  23727929.4454                                   23727925.8874
                                                                        43.0004
        30.5004
  -5086576.04748  -3900744.42646
                  21309026.5784                                   21309022.0634
                                                                        51.2504
        36.5004
  -5199979.24647  -4014909.37144
                  23220358.4064                                   23220354.8134
                                                                        44.2504
        29.7504
   1924084.28548   1530059.69145
                  22239041.7274                                   22239035.7464
                                                                        48.2504
        32.7504
   4450700.87147   3488938.71544
                  23572742.6094                                   23572739.2664
                                                                        43.7504
        26.2504
   3897473.82846   3042903.16043
                  24548481.9064                                   24548477.8284
                                                                        38.5004
        21.0004
  -4971988.30947  -3827199.81245
                  22869093.6254                                   22869089.6254
                                                                        45.5004
        31.2504
 09 10 13 23 52  0.0000000  0  9G02G04G05G13G29G23G30G31G10
  -3468229.12948  -2647143.79347
                  20424104.0784                                   20424098.3524
                                                                        51.7504
        43.0004
   3727726.64848   2927788.84046
                  21423239.0634                                   21423235.6414
                                                                        50.5004
        39.7504
    656567.80547    556808.77745
                  23692302.8834                                   23692299.0474
                                                                        43.7504
        30.5004
  -5191285.07448  -3982335.86746
                  21289101.1804                                   21289096.5634
                                                                        51.0004
        37.0004
  -5358116.56247  -4138133.27345
                  23190266.0234                                   23190262.4414
                                                                        44.5004
        30.0004
   1901851.91048   1512735.74245
                  22234810.5864                                   22234804.8914
                                                                        48.2504
        31.5004
   4455722.44947   3492851.58244
                  23573698.4454                                   23573695.3594
                                                                        43.5004
        27.5004
   3893220.25046   3039588.63743
                  24547671.9924                                   24547668.4384
                                                                        38.0004
        22.0004
  -5155156.66847  -3969928.42245
                  22834237.1564                                   22834233.5784
                                                                        46.0004
        31.0004
 09 10 13 23 52 30.0000000  0  9G02G04G05G13G29G23G30G31G10
  -3554691.55148  -2714517.12947
                  20407651.0164                                   20407644.9844
                                                                        52.0004
        43.0004
   3722822.85948   2923967.70746
                  21422306.1414                                   21422302.5864
                                                                        50.5004
        39.2504
    469572.15647    411097.89845
                  23656718.7034                                   23656715.9224
                                                                        43.2504
        30.7504
  -5295296.04348  -4063383.35546
                  21269308.6724                                   21269304.0394
                                                                        50.5004
        37.0004
  -5515812.65247  -4261013.34045
                  23160257.3674                                   23160253.8404
                                                                        45.0004
        30.0004
   1880208.66448   1495870.87545
                  22230693.0314                                   22230686.6644
                                                                        48.2504
        32.2504
   4461232.29347   3497144.91044
                  23574747.1254                                   23574743.0784
                                                                        43.5004
        26.7504
   3889429.40646   3036634.68843
                  24546951.1334                                   24546947.5434
                                                                        40.7504
        22.7504
  -5338011.10947  -4112412.35245
                  22799441.0554                                   22799437.7464
                                                                        45.0004
        31.5004
 09 10 13 23 53  0.0000000  0 10G02G04G05G13G29G23G30G31G10G25
  -3640535.16448  -2781408.22747
                  20391315.5234                                   20391309.6174
                                                                        52.2504
        43.0004
   3718391.57048   2920514.73446
                  21421462.8674                                   21421459.2304
                                                                        50.7504
        39.0004
    282798.73847    265560.20344
                  23621177.0554                                   23621173.4774
                                                                        42.5004
        29.7504
  -5398609.64148  -4143887.41446
                  21249648.5554                                   21249644.0944
                                                                        51.0004
        37.0004
  -5673067.22747  -4383549.35545
                  23130332.4924                                   23130329.3094
                                                                        44.5004
        31.0004
   1859151.08248   1479462.36745
                  22226685.6254                                   22226679.3674
                                                                        48.7504
        32.2504
   4467225.09047   3501814.57844
                  23575887.2194                                   23575883.8364
                                                                        42.5004
        26.2504
   3886097.44547   3034038.31644
                  24546318.2034                                   24546313.7584
                                                                        42.0004
        27.5004
  -5520551.04347  -4254651.23445
                  22764704.9774                                   22764701.6454
                                                                        45.2504
        32.2504
   6024304.72756   4733223.43053
                  24145289.4534                                   24145287.0234
                                                                        39.2504
        20.5004
 09 10 13 23 53 30.0000000  0 10G02G04G05G13G29G23G30G31G10G25
  -3725761.29748  -2847818.19147
                  20375097.4694                                   20375091.4924
                                                                        52.5004
        43.0004
   3714429.49248   2917427.38746
                  21420708.8754                                   21420705.6214
                                                                        49.2504
        39.5004
     96248.22347    120196.18845
                  23585677.6094                                   23585674.3594
                                                                        43.2504
        30.7504
  -5501226.63748  -4223848.68746
                  21230120.8444                                   21230116.5084
                                                                        51.0004
        36.0004
  -5829878.86747  -4505740.19945
                  23100492.3134                                   23100489.4614
                                                                        44.0004
        31.2504
   1838675.20748   1463507.12545
                  22222789.0864                                   22222782.6804
                                                                        48.7504
        31.2504
   4473696.46947   3506857.18044
                  23577118.7664                                   23577115.1524
                                                                        43.2504
        25.5004
   3883220.09447   3031796.22344
                  24545770.1484                                   24545766.5354
                                                                        44.0004
        27.0004
  -5702775.86347  -4396644.54345
                  22730028.6094                                   22730025.9534
                                                                        44.5004
        31.0004
   5858312.07046   4603878.51243
                  24113702.3444                                   24113699.8484
                                                                        39.0004
        21.2504
 09 10 13 23 54  0.0000000  0  9G02G04G05G13G29G23G30G10G25
  -3810372.30148  -2913748.78947
                  20358996.2194                                   20358990.6294
                                                                        52.0004
        43.5004
   3710931.52348   2914701.70346
                  21420043.1954                                   21420039.6724
                                                                        50.0004
        39.5004
    -90081.25847    -24995.62945
                  23550220.1254                                   23550216.5904
                                                                        44.7504
        31.5004
  -5603149.55148  -4303269.10546
                  21210725.8594                                   21210721.3164
                                                                        50.7504
        36.5004
  -5986248.78947  -4627586.88345
                  23070736.0004                                   23070732.6914
                                                                        44.5004
        30.7504
   1818775.89548   1448001.16845
                  22219002.3284                                   22218995.9144
                                                                        48.0004
        32.5004
   4480640.20747   3512267.85544
                  23578440.1644                                   23578436.8484
                                                                        42.2504
        27.0004
  -5884686.67247  -4538393.21545
                  22695412.4844                                   22695408.8524
                                                                        44.5004
        31.2504
   5692643.97346   4474786.61343
                  24082176.2194                                   24082173.8984
                                                                        40.7504
        22.7504
 09 10 13 23 54 30.0000000  0  9G02G04G05G13G29G23G30G10G25
  -3894364.71548  -2979197.44947
                  20343013.1094                                   20343007.5904
                                                                        52.5004
        42.7504
   3707899.30148   2912338.93846
                  21419466.0704                                   21419462.6994
                                                                        50.5004
        39.0004
   -276183.86747   -170010.60545
                  23514806.3914                                   23514802.7304
                                                                        45.7504
        30.2504
  -5704374.06648  -4382145.33646
                  21191463.3284                                   21191459.0784
                                                                        50.7504
        36.0004
  -6142171.01647  -4749084.69545
                  23041065.3364                                   23041061.8284
                                                                        45.0004
        30.7504
   1799454.70348   1432945.67645
                  22215325.7114                                   22215319.5864
                                                                        48.5004
        32.2504
   4488056.65647   3518046.84444
                  23579850.9304                                   23579847.8444
                                                                        43.0004
        25.5004
  -6066278.03147  -4679893.02045
                  22660856.9064                                   22660853.2544
                                                                        45.7504
        32.2504
   5527306.53546   4345952.37943
                  24050713.8284                                   24050711.1914
                                                                        41.5004
        22.2504
 09 10 13 23 55  0.0000000  0  9G02G04G05G13G29G23G30G10G25
  -3977731.66848  -3044158.73847
                  20327149.3054                                   20327143.7114
                                                                        53.0004
        43.0004
   3705336.96948   2910342.31646
                  21418978.5394                                   21418975.0314
                                                                        51.0004
        38.7504
   -462051.69147   -314842.66845
                  23479436.6094                                   23479432.6524
                                                                        45.5004
        30.5004
  -5804893.02048  -4460471.77746
                  21172335.3134                                   21172330.7424
                                                                        51.2504
        36.7504
  -6297637.16847  -4870227.15245
                  23011481.0004                                   23011477.6214
                                                                        45.0004
        31.7504
   1780715.80148   1418343.92645
                  22211759.7504                                   22211754.0664
                                                                        48.7504
        32.5004
   4495949.18047   3524196.83244
                  23581352.5004                                   23581349.9884
                                                                        42.0004
        24.5004
  -6247541.09447  -4821136.94145
                  22626363.1884                                   22626359.8164
                                                                        46.2504
        32.2504
   5362308.52747   4217382.65243
                  24019316.2504                                   24019312.7814
                                                                        42.2504
        23.7504
 09 10 13 23 55 30.0000000  0  9G02G04G05G13G29G23G30G10G25
  -4060471.40648  -3108631.27347
                  20311404.2114                                   20311398.6134
                                                                        53.2504
        42.7504
   3703244.11348   2908711.53146
                  21418580.1804                                   21418576.6644
                                                                        50.7504
        39.0004
   -647681.06647   -459488.91045
                  23444112.3364                                   23444108.5434
                                                                        44.0004
        30.2504
  -5904704.55948  -4538247.00446
                  21153341.6954                                   21153337.2734
                                                                        50.5004
        36.7504
  -6452643.41847  -4991011.22345
                  22981984.1804                                   22981980.9384
                                                                        45.0004
        31.5004
   1762558.41848   1404195.32445
                  22208304.7734                                   22208298.8284
                                                                        48.7504
        31.7504
   4504315.60946   3530716.07844
                  23582944.8444                                   23582942.0904
                                                                        41.0004
        24.2504
  -6428472.55947  -4962122.48045
                  22591933.2814                                   22591929.9924
                                                                        46.0004
        32.0004
   5197654.08247   4089080.59843
                  23987983.3674                                   23987979.7034
                                                                        42.7504
        22.5004
 09 10 13 23 56  0.0000000  0  9G02G04G05G13G29G23G30G10G25
  -4142583.18048  -3172614.46947
                  20295778.6954                                   20295773.2114
                                                                        52.5004
        43.5004
   3701618.96948   2907445.18846
                  21418271.0634                                   21418267.3834
                                                                        50.7504
        39.2504
   -833070.22747   -603947.96945
                  23408833.6644                                   23408830.1484
                                                                        44.2504
        31.0004
  -6003807.65248  -4615470.17646
                  21134482.8984                                   21134478.8524
                                                                        50.0004
        37.0004
  -6607187.32847  -5111435.08245
                  22952575.1564                                   22952571.7664
                                                                        45.2504
        32.0004
   1744980.68848   1390498.36345
                  22204959.9534                                   22204953.9614
                                                                        48.2504
        32.5004
   4513153.22346   3537602.44943
                  23584626.7114                                   23584623.8404
                                                                        41.2504
        22.7504
  -6609070.57447  -5102848.19945
                  22557566.3984                                   22557563.1764
                                                                        46.0004
        32.5004
   5033346.14547   3961048.57043
                  23956716.4454                                   23956712.9024
                                                                        42.2504
        22.0004
 09 10 13 23 56 30.0000000  0  9G02G04G05G13G29G23G30G10G25
  -2648648.60248  -2008509.56247
                  20580065.1484                                   20580059.2854
                                                                        52.7504
        43.0004
   5275875.18848   4134138.31646
                  21717842.0784                                   21717838.4104
                                                                        51.0004
        39.5004
    557204.77047    479383.22345
                  23673394.7734                                   23673391.0314
                                                                        45.0004
        31.7504
  -4526782.70348  -3464541.63346
                  21415551.3364                                   21415547.1684
                                                                        50.5004
        36.5004
  -5185845.67647  -4003896.15645
                  23223047.9614                                   23223043.8794
                                                                        45.0004
        31.0004
   3303396.77348   2604848.55545
                  22501516.2664                                   22501509.9534
                                                                        48.0004
        31.2504
   6097874.17647   4772449.93444
                  23886189.7034                                   23886186.4534
                                                                        44.5004
        25.5004
  -5213910.98447  -4015710.85545
                  22823056.5704                                   22823053.3284
                                                                        46.5004
        33.0004
   6444808.63746   5060889.65243
                  24225308.2274                                   24225305.3754
                                                                        40.5004
        21.7504
 09 10 13 23 57  0.0000000  0  9G02G04G05G13G29G23G30G10G25
  -2729517.61348  -2071524.35547
                  20564676.3284                                   20564670.8164
                                                                        52.5004
        43.7504
   5275165.59448   4133585.37546
                  21717706.8444                                   21717703.5824
                                                                        51.2504
        38.5004
    372288.13347    335292.38345
                  23638206.4144                                   23638202.5084
                                                                        45.5004
        32.5004
  -4624481.09848  -3540670.25446
                  21396960.3444                                   21396955.8834
                                                                        50.2504
        37.2504
  -5339471.80147  -4123604.82845
                  23193813.3054                                   23193810.2704
                                                                        44.5004
        30.7504
   3286957.98447   2592039.08645
                  22498388.1724                                   22498381.8714
                                                                        47.7504
        31.5004
   6107630.64147   4780052.37544
                  23888046.4064                                   23888042.8714
                                                                        45.2504
        24.0004
  -5393848.97747  -4155922.27045
                  22788815.8914                                   22788812.3874
                                                                        46.7504
        33.2504
   6281187.69146   4933392.99243
                  24194171.9064                                   24194168.9844
                                                                        40.2504
        21.5004
 09 10 13 23 57 30.0000000  0  9G02G04G05G13G29G23G30G10G25
  -2809768.48048  -2134057.36747
                  20549404.6564                                   20549398.9574
                                                                        52.5004
        42.5004
   5274906.44948   4133383.41446
                  21717657.8054                                   21717654.5904
                                                                        51.5004
        38.5004
    187606.17247    191384.39545
                  23603062.6724                                   23603059.1454
                                                                        44.5004
        32.0004
  -4721480.50848  -3616254.21146
                  21378501.7034                                   21378497.2274
                                                                        50.5004
        36.7504
  -5492640.16047  -4242956.79345
                  23164666.6644                                   23164663.4614
                                                                        44.0004
        30.7504
   3271081.39147   2579667.71945
                  22495366.6724                                   22495360.5664
                                                                        47.7504
        31.2504
   6117837.54747   4788005.79744
                  23889988.5634                                   23889985.5514
                                                                        44.5004
        26.0004
  -5573458.58647  -4295877.81645
                  22754636.8054                                   22754633.7464
                                                                        47.0004
        33.2504
   6117909.80946   4806163.60243
                  24163101.0784                                   24163098.0204
                                                                        40.2504
        20.7504
 09 10 13 23 58  0.0000000  0  9G02G04G05G13G29G23G30G10G25
  -2889401.68748  -2196109.28147
                  20534251.3834                                   20534245.7234
                                                                        52.2504
        43.0004
   5275096.26248   4133531.29746
                  21717694.0314                                   21717690.5904
                                                                        50.0004
        39.0004
      3161.06647     47660.96145
                  23567963.5314                                   23567960.0704
                                                                        43.7504
        32.2504
  -4817780.00448  -3691292.76646
                  21360176.5554                                   21360172.1914
                                                                        50.2504
        37.2504
  -5645348.08247  -4361949.93445
                  23135607.1024                                   23135604.0204
                                                                        43.0004
        31.2504
   3255765.09447   2567732.95745
                  22492452.0474                                   22492445.8134
                                                                        46.5004
        32.2504
   6128492.03147   4796307.94144
                  23892016.1484                                   23892013.0084
                                                                        43.7504
        25.5004
  -5752736.74247  -4435575.09845
                  22720521.4924                                   22720518.3484
                                                                        46.0004
        32.2504
   5954978.14146   4679203.91843
                  24132096.7274                                   24132092.6094
                                                                        40.5004
        21.0004
 09 10 13 23 58 30.0000000  0  9G02G04G05G13G29G23G30G10G25
  -2968418.23448  -2257680.59847
                  20519214.8674                                   20519209.1334
                                                                        53.0004
        42.7504
   5275730.93448   4134025.79746
                  21717814.7424                                   21717811.5044
                                                                        50.5004
        38.2504
   -181046.88747    -95877.71545
                  23532910.1334                                   23532906.0044
                                                                        44.5004
        31.7504
  -4913381.04348  -3765787.07846
                  21341984.3754                                   21341979.5864
                                                                        50.5004
        37.0004
  -5797595.02747  -4480583.88745
                  23106635.4694                                   23106632.6844
                                                                        43.2504
        31.5004
   3241004.48047   2556231.19145
                  22489643.5864                                   22489637.4454
                                                                        47.0004
        30.5004
   6139588.65647   4804954.58644
                  23894127.9774                                   23894125.1484
                                                                        44.0004
        26.0004
  -5931683.50447  -4575014.14145
                  22686469.0864                                   22686465.5124
                                                                        47.0004
        32.2504
   5792393.16847   4552514.30543
                  24101157.9144                                   24101154.2384
                                                                        43.0004
        22.7504
 09 10 13 23 59  0.0000000  0  9G02G04G05G13G29G23G30G10G25
  -3046817.63748  -2318771.00447
                  20504295.7894                                   20504290.0354
                                                                        52.7504
        42.5004
   5276809.05548   4134865.89546
                  21718019.8364                                   21718016.6644
                                                                        51.5004
        38.2504
   -365016.10947   -239230.34045
                  23497901.4774                                   23497897.9414
                                                                        44.0004
        30.0004
  -5008282.88748  -3839736.57446
                  21323924.9224                                   21323920.5164
                                                                        50.5004
        36.5004
  -5949378.62147  -4598856.79745
                  23077752.0864                                   23077749.0594
                                                                        43.2504
        33.2504
   3226798.05947   2545161.23445
                  22486940.2034                                   22486933.9774
                                                                        46.7504
        32.0004
   6151124.57847   4813943.57044
                  23896323.4144                                   23896320.2704
                                                                        44.2504
        27.0004
  -6110296.58647  -4714193.16445
                  22652480.0864                                   22652476.8714
                                                                        47.5004
        32.7504
   5630158.07047   4426097.35944
                  24070285.7664                                   24070282.0314
                                                                        43.0004
        25.0004
 09 10 13 23 59 30.0000000  0  9G02G04G05G13G29G23G30G10G25
  -3124597.04748  -2379378.41447
                  20489495.2504                                   20489489.3594
                                                                        53.0004
        43.2504
   5278331.38748   4136052.11346
                  21718309.5634                                   21718306.1564
                                                                        49.7504
        38.5004
   -548741.77047   -382393.22345
                  23462939.6484                                   23462936.0784
                                                                        45.0004
        31.0004
  -5102481.69548  -3913138.24246
                  21305999.4774                                   21305995.2894
                                                                        50.0004
        37.0004
  -6100693.51247  -4716764.47745
                  23048958.4384                                   23048954.5004
                                                                        44.0004
        33.0004
   3213146.63747   2534523.78545
                  22484342.5944                                   22484336.5514
                                                                        47.5004
        32.2504
   6163099.43847   4823274.53943
                  23898601.9694                                   23898599.3874
                                                                        43.5004
        22.7504
  -6288571.05547  -4853108.37145
                  22618555.7034                                   22618552.0274
                                                                        46.5004
        32.2504
   5468278.43847   4299957.39844
                  24039480.8834                                   24039477.4494
                                                                        42.7504
        24.0004
