     2.11           OBSERVATION DATA    G (GPS)             RINEX VERSION / TYPE
teqc  2019Feb25                         20221121 12:28:17UTCPGM / RUN BY / DATE
OSX ker:10.11.6|Core i5|gcc 4.3 -m64|OSX ker:10.10+|=+      COMMENT
BIT 2 OF LLI FLAGS DATA COLLECTED UNDER A/S CONDITION       COMMENT
04712860                                                    MARKER NAME
2860                                                        MARKER NUMBER
-Unknown-           -Unknown-                               OBSERVER / AGENCY
0220400471          TRIMBLE R7          2.30                REC # / TYPE / VERS
-Unknown-           TRM39105.00     NONE                    ANT # / TYPE
  1449460.8540 -1709240.7420  5952443.1516                  APPROX POSITION XYZ
        0.0000        0.0000        0.0000                  ANTENNA: DELTA H/E/N
     1     1                                                WAVELENGTH FACT L1/2
    20    L1    L2    L5    L6    L7    L8    C1    P1    C2# / TYPES OF OBSERV
          P2    C5    C6    C7    C8    S1    S2    S5    S6# / TYPES OF OBSERV
          S7    S8                                          # / TYPES OF OBSERV
    30.0000                                                 INTERVAL
    15                                                      LEAP SECONDS
Forced Modulo Decimation to 30 seconds                      COMMENT
 SNR is mapped to RINEX snr flag value [0-9]                COMMENT
  L1 & L2: min(max(int(snr_dBHz/6), 0), 9)                  COMMENT
teqc edited: Beidou # 1 - 37 excluded                       COMMENT
  2009    10    13     0     0    0.0000000     GPS         TIME OF FIRST OBS
                                                            END OF HEADER
 09 10 13  0  0  0.0000000  0  9G02G04G05G13G29G23G30G10G25
 -11435692.92648  -8875541.89147
                  20435127.3914                                   20435121.5944
                                                                        52.5004
        42.5004
  -2933783.93748  -2270592.75846
                  21550915.7424                                   21550912.0554
                                                                        50.0004
        38.7504
  -6896857.17647  -5328354.98045
                  23556371.9224                                   23556368.0354
                                                                        43.2504
        30.0004
 -13483196.14848 -10465595.26246
                  21274434.7504                                   21274430.0274
                                                                        50.5004
        36.2504
 -12793173.16847  -9924615.14545
                  23096775.7584                                   23096771.6804
                                                                        45.5004
        30.7504
  -5078580.74248  -3935543.61345
                  22344320.0554                                   22344313.6724
                                                                        48.5004
        32.0004
  -2069732.88747  -1598449.68744
                  23720628.4384                                   23720624.7854
                                                                        42.0004
        26.0004
 -12820193.89847  -9942186.89845
                  22711743.5784                                   22711739.8244
                                                                        46.0004
        32.5004
  -1096366.23047   -814880.37543
                  24099938.5944                                   24099934.3204
                                                                        42.2504
        22.7504
 09 10 13  0  0 30.0000000  0  9G02G04G05G13G29G23G30G10G25
 -11515898.09048  -8938039.41047
                  20419864.9454                                   20419858.8094
                                                                        53.0004
        43.0004
  -2933789.71948  -2270597.27746
                  21550914.4064                                   21550910.7854
                                                                        50.0004
        38.5004
  -7080737.20347  -5471638.08645
                  23521380.7274                                   23521376.9694
                                                                        43.0004
        31.7504
 -13580389.75848 -10541330.53145
                  21255939.7664                                   21255934.6334
                                                                        50.7504
        35.7504
 -12946034.40247 -10043727.80945
                  23067686.9384                                   23067682.6844
                                                                        44.5004
        30.5004
  -5094246.63347  -3947750.76245
                  22341339.0004                                   22341332.5354
                                                                        47.0004
        31.2504
  -2059170.32047  -1590219.15244
                  23722638.7424                                   23722634.7194
                                                                        44.0004
        26.2504
 -12999326.31247 -10081770.58245
                  22677655.6884                                   22677651.9774
                                                                        45.5004
        32.5004
  -1259051.79346   -941648.34843
                  24068979.8914                                   24068976.5944
                                                                        41.7504
        21.5004
 09 10 13  0  1  0.0000000  0  9G02G04G05G13G29G23G30G10G25
 -11595480.77048  -9000051.87547
                  20404720.9064                                   20404714.4804
                                                                        53.0004
        43.5004
  -2933336.64548  -2270244.23046
                  21551000.9614                                   21550997.3754
                                                                        51.0004
        38.5004
  -7264379.48447  -5614735.91845
                  23486435.2814                                   23486430.9774
                                                                        45.0004
        32.5004
 -13676879.75448 -10616517.56246
                  21237578.4534                                   21237573.3404
                                                                        50.7504
        36.0004
 -13098435.05547 -10162481.57445
                  23038686.2974                                   23038681.9694
                                                                        44.7504
        31.2504
  -5109342.53948  -3959513.75845
                  22338466.4064                                   22338459.5004
                                                                        48.0004
        31.0004
  -2048147.89847  -1581630.23444
                  23724736.2974                                   23724732.3714
                                                                        45.0004
        26.7504
 -13178128.27347 -10221096.75845
                  22643630.7344                                   22643626.9184
                                                                        46.0004
        32.5004
  -1421391.85246  -1068147.02343
                  24038088.0234                                   24038083.9534
                                                                        39.7504
        20.2504
 09 10 13  0  1 30.0000000  0  9G02G04G05G13G29G23G30G10G25
 -11674440.82848  -9061579.18747
                  20389695.2974                                   20389689.0984
                                                                        52.7504
        43.2504
  -2932427.07848  -2269535.47746
                  21551174.1954                                   21551170.1054
                                                                        50.7504
        38.0004
  -7447782.86747  -5757647.66045
                  23451534.5784                                   23451530.9494
                                                                        45.0004
        32.7504
 -13772665.71548 -10691155.98846
                  21219350.6484                                   21219346.0124
                                                                        50.7504
        36.7504
 -13250373.29347 -10280875.01645
                  23009772.8594                                   23009769.0394
                                                                        44.5004
        31.5004
  -5123871.30947  -3970834.85245
                  22335701.6094                                   22335695.2774
                                                                        47.7504
        31.7504
  -2036669.78147  -1572686.23044
                  23726920.1094                                   23726916.4534
                                                                        45.0004
        26.7504
 -13356598.29347 -10360164.28545
                  22609669.4384                                   22609664.9964
                                                                        47.0004
        32.5004
  -1583384.38346  -1194374.95343
                  24007261.6484                                   24007258.2194
                                                                        39.5004
        21.0004
 09 10 13  0  2  0.0000000  0  9G02G04G05G13G29G23G30G10G25
 -11752779.01648  -9122621.91847
                  20374787.8444                                   20374781.8014
                                                                        52.7504
        42.7504
  -2931064.13348  -2268473.45746
                  21551433.4384                                   21551429.4804
                                                                        50.0004
        38.7504
  -7630946.32847  -5900372.41845
                  23416679.5084                                   23416675.7664
                                                                        45.2504
        32.5004
 -13867748.21148 -10765246.23846
                  21201257.3914                                   21201252.8134
                                                                        50.5004
        37.0004
 -13401847.98847 -10398907.21545
                  22980947.9064                                   22980944.4964
                                                                        43.7504
        31.0004
  -5137836.11747  -3981716.48445
                  22333044.1804                                   22333037.6054
                                                                        47.5004
        30.5004
  -2024739.83647  -1563390.18744
                  23729190.9144                                   23729187.4774
                                                                        45.0004
        26.5004
 -13534734.66447 -10498971.83245
                  22575770.6024                                   22575767.0434
                                                                        47.0004
        32.2504
  -1745027.68046  -1320330.70343
                  23976501.7814                                   23976498.0474
                                                                        41.2504
        20.7504
 09 10 13  0  2 30.0000000  0  9G02G04G05G13G29G23G30G10G25
 -11830495.68748  -9183180.35947
                  20359998.8834                                   20359992.3094
                                                                        53.5004
        42.5004
  -2929250.34448  -2267060.11746
                  21551778.5314                                   21551774.9104
                                                                        51.2504
        38.7504
  -7813868.65647  -6042909.27345
                  23381870.8754                                   23381866.6954
                                                                        45.0004
        31.7504
 -13962127.30548 -10838788.37946
                  21183297.2894                                   21183292.7114
                                                                        50.0004
        37.0004
 -13552857.69147 -10516577.07845
                  22952211.7814                                   22952208.5944
                                                                        44.5004
        32.0004
  -5151239.96547  -3992161.00445
                  22330493.7194                                   22330486.8754
                                                                        47.2504
        31.0004
  -2012361.88747  -1553745.05144
                  23731546.8524                                   23731543.3524
                                                                        43.2504
        26.5004
 -13712536.16847 -10637518.42245
                  22541936.4844                                   22541932.1134
                                                                        46.7504
        32.7504
  -1906319.41447  -1446012.52043
                  23945809.4454                                   23945804.8594
                                                                        42.7504
        21.7504
 09 10 13  0  3  0.0000000  0  9G02G04G05G13G29G23G30G10G25
 -11907591.64548  -9243255.12147
                  20345327.9844                                   20345321.8404
                                                                        53.0004
        43.0004
  -2926988.77048  -2265297.85546
                  21552209.0634                                   21552205.1564
                                                                        51.2504
        38.2504
  -7996548.97747  -6185257.53145
                  23347107.1334                                   23347103.6994
                                                                        45.0004
        31.7504
 -14055803.36748 -10911782.70746
                  21165471.2504                                   21165466.5944
                                                                        50.5004
        36.5004
 -13703400.89847 -10633883.45745
                  22923564.6564                                   22923561.6024
                                                                        43.2504
        32.0004
  -5164085.86747  -4002170.77345
                  22328049.0164                                   22328042.4534
                                                                        47.0004
        31.5004
  -1999540.07447  -1543754.03144
                  23733985.6334                                   23733982.2424
                                                                        44.5004
        25.0004
 -13890002.10547 -10775803.55945
                  22508165.4224                                   22508161.4804
                                                                        46.2504
        33.2504
  -2067258.35947  -1571419.43743
                  23915183.8204                                   23915179.8284
                                                                        43.5004
        22.7504
 09 10 13  0  3 30.0000000  0  9G02G04G05G13G29G23G30G10G25
 -11984066.62948  -9302846.02347
                  20330775.3524                                   20330769.0784
                                                                        53.0004
        42.7504
  -2924281.36348  -2263188.18446
                  21552724.2664                                   21552720.1214
                                                                        50.0004
        38.0004
  -8178985.50047  -6327415.84045
                  23312390.8364                                   23312386.6994
                                                                        45.2504
        30.5004
 -14148776.21548 -10984229.09846
                  21147779.1334                                   21147774.5514
                                                                        49.7504
        36.7504
 -13853475.62547 -10750824.78545
                  22895006.6724                                   22895002.8244
                                                                        44.0004
        33.0004
  -5176376.08247  -4011747.53945
                  22325710.3914                                   22325703.7464
                                                                        47.7504
        31.7504
  -1986277.71947  -1533419.73444
                  23736509.2504                                   23736505.9264
                                                                        44.0004
        25.2504
 -14067130.21547 -10913825.43745
                  22474459.1334                                   22474455.1094
                                                                        46.0004
        33.0004
  -2227841.85247  -1696549.41043
                  23884625.4454                                   23884621.8714
                                                                        42.0004
        23.0004
 09 10 13  0  4  0.0000000  0  9G02G04G05G13G29G23G30G10G25
 -12059920.76648  -9361953.14147
                  20316340.5474                                   20316334.7154
                                                                        52.5004
        42.5004
  -2921130.41448  -2260732.89546
                  21553323.8914                                   21553319.8054
                                                                        50.7504
        38.2504
  -8361176.75047  -6469383.03145
                  23277721.3204                                   23277716.6564
                                                                        45.5004
        30.5004
 -14241045.59848 -11056127.30946
                  21130220.8364                                   21130216.6214
                                                                        49.5004
        36.5004
 -14003079.70747 -10867399.36345
                  22866538.0784                                   22866534.0784
                                                                        43.7504
        32.5004
  -5188113.11347  -4020893.28945
                  22323476.5394                                   22323470.7114
                                                                        47.5004
        32.2504
  -1972578.50847  -1522745.09443
                  23739116.7584                                   23739112.8554
                                                                        42.7504
        21.7504
 -14243918.87947 -11051582.83645
                  22440817.9064                                   22440813.9344
                                                                        47.5004
        33.5004
  -2388067.57846  -1821400.57844
                  23854135.3754                                   23854131.5944
                                                                        41.5004
        24.7504
 09 10 13  0  4 30.0000000  0  9G02G04G05G13G29G23G30G10G25
 -12135153.54748  -9420576.09447
                  20302024.2344                                   20302018.2234
                                                                        52.7504
        42.7504
  -2917537.82048  -2257933.48446
                  21554007.4614                                   21554003.6254
                                                                        51.0004
        38.2504
  -8543120.53947  -6611157.37145
                  23243098.5314                                   23243094.4384
                                                                        46.2504
        32.5004
 -14332611.10248 -11127477.04746
                  21112796.5004                                   21112792.2344
                                                                        49.5004
        37.0004
 -14152210.98047 -10983605.53545
                  22838158.8674                                   22838155.2154
                                                                        44.2504
        31.5004
  -5199299.01247  -4029609.57045
                  22321348.5554                                   22321341.8754
                                                                        47.7504
        32.0004
  -1958445.46947  -1511732.35943
                  23741805.4064                                   23741801.8794
                                                                        42.2504
        21.2504
 -14420365.91447 -11189074.02345
                  22407240.2504                                   22407236.6294
                                                                        47.0004
        33.0004
  -2547932.56646  -1945970.64543
                  23823713.6174                                   23823710.4264
                                                                        40.2504
        22.7504
 09 10 13  0  5  0.0000000  0  9G02G04G05G13G29G23G30G10G25
 -10634340.22748  -8251111.16447
                  20587619.7894                                   20587613.4304
                                                                        52.5004
        42.5004
  -1338083.70348  -1027190.05546
                  21854567.5704                                   21854563.8634
                                                                        51.2504
        37.5004
  -7149386.68047  -5525130.97745
                  23508317.7034                                   23508313.3404
                                                                        46.5004
        33.2504
 -12848046.92648  -9970673.78946
                  21395299.9064                                   21395294.9574
                                                                        50.2504
        36.5004
 -12725440.09047  -9871836.00445
                  23109664.5784                                   23109660.5084
                                                                        44.5004
        32.2504
  -3634513.69547  -2810296.33245
                  22619116.5944                                   22619110.3244
                                                                        47.0004
        31.2504
   -368459.53147   -272782.25843
                  24044370.2114                                   24044366.6214
                                                                        43.2504
        22.5004
 -13021040.75847 -10098690.75845
                  22673523.7034                                   22673519.6804
                                                                        47.7504
        34.5004
  -1132007.06647   -842652.02343
                  24093155.6254                                   24093151.9534
                                                                        42.0004
        22.0004
 09 10 13  0  5 30.0000000  0  9G02G04G05G13G29G23G30G10G25
 -10708330.90248  -8308766.23047
                  20573539.7584                                   20573533.5904
                                                                        52.5004
        42.7504
  -1333615.07448  -1023708.03946
                  21855418.2274                                   21855413.7504
                                                                        49.5004
        38.0004
  -7330830.78147  -5666515.97345
                  23473789.3134                                   23473785.4344
                                                                        45.5004
        33.7504
 -12938203.96148 -10040926.01246
                  21378143.3914                                   21378138.7584
                                                                        49.7504
        37.5004
 -12873619.85947  -9987300.76245
                  23081466.9694                                   23081462.4224
                                                                        43.5004
        31.7504
  -3644605.41447  -2818159.98445
                  22617196.2974                                   22617189.8244
                                                                        47.2504
        30.5004
   -353468.93447   -261101.25044
                  24047222.9454                                   24047218.9654
                                                                        43.5004
        25.5004
 -13196798.91447 -10235645.15645
                  22640077.7894                                   22640073.9574
                                                                        47.5004
        33.5004
  -1291144.15246   -966654.93743
                  24062872.6024                                   24062868.6844
                                                                        41.7504
        22.5004
 09 10 13  0  6  0.0000000  0  9G02G04G05G13G29G23G30G10G25
 -10781704.68448  -8365940.60247
                  20559577.3524                                   20559570.9224
                                                                        52.0004
        43.0004
  -1328715.68048  -1019890.35546
                  21856350.2114                                   21856346.5434
                                                                        50.0004
        38.0004
  -7512026.84047  -5807707.67645
                  23439308.9694                                   23439305.2934
                                                                        44.5004
        32.7504
 -13027660.54748 -10110632.39546
                  21361120.6094                                   21361115.9144
                                                                        49.5004
        36.7504
 -13021325.01247 -10102395.66845
                  23053359.3524                                   23053354.8714
                                                                        44.2504
        31.5004
  -3654157.59047  -2825603.20745
                  22615378.2974                                   22615372.0594
                                                                        47.0004
        31.0004
   -338059.17247   -249093.63744
                  24050155.1254                                   24050151.5784
                                                                        43.5004
        26.2504
 -13372214.05147 -10372332.25445
                  22606696.8754                                   22606693.8524
                                                                        46.0004
        34.0004
  -1449917.56646  -1090374.43443
                  24032659.1644                                   24032654.8524
                                                                        41.7504
        22.5004
 09 10 13  0  6 30.0000000  0  9G02G04G05G13G29G23G30G10G25
 -10854459.05148  -8422632.30947
                  20545732.4844                                   20545726.1374
                                                                        52.0004
        43.0004
  -1323385.43048  -1015736.93746
                  21857364.5314                                   21857360.7194
                                                                        49.7504
        37.5004
  -7692970.72347  -5948702.89145
                  23404876.0164                                   23404872.2194
                                                                        44.0004
        32.5004
 -13116414.16048 -10179790.99246
                  21344231.2814                                   21344226.6024
                                                                        49.5004
        36.2504
 -13168551.15247 -10217117.32845
                  23025343.2424                                   23025339.7544
                                                                        43.0004
        31.7504
  -3663170.41847  -2832626.19945
                  22613663.3914                                   22613656.6294
                                                                        46.0004
        30.0004
   -322231.37147   -236760.36344
                  24053167.0084                                   24053163.9264
                                                                        43.0004
        25.2504
 -13547281.68747 -10508748.56245
                  22573383.0164                                   22573379.3484
                                                                        45.7504
        34.0004
  -1608322.55146  -1213806.81643
                  24002515.9384                                   24002511.6684
                                                                        41.5004
        22.0004
 09 10 13  0  7  0.0000000  0  9G02G04G05G13G29G23G30G10G25
 -10926591.96548  -8478839.76647
                  20532006.0394                                   20531999.8754
                                                                        52.2504
        42.7504
  -1317624.07448  -1011247.57446
                  21858461.0944                                   21858456.8594
                                                                        49.7504
        38.2504
  -7873658.02347  -6089498.16445
                  23370492.3284                                   23370488.7814
                                                                        45.5004
        31.7504
 -13204462.29748 -10248399.88346
                  21327475.9224                                   21327471.4184
                                                                        48.5004
        37.0004
 -13315293.77047 -10331462.19945
                  22997418.8364                                   22997415.0944
                                                                        43.7504
        32.0004
  -3671643.87947  -2839228.89544
                  22612050.8204                                   22612044.2234
                                                                        45.0004
        29.7504
   -305986.21147   -224101.81644
                  24056257.9534                                   24056254.9064
                                                                        42.0004
        26.0004
 -13721997.94947 -10644891.07045
                  22540135.7194                                   22540131.7774
                                                                        47.2504
        33.7504
  -1766354.22347  -1336948.38743
                  23972442.8594                                   23972439.0554
                                                                        42.0004
        22.7504
 09 10 13  0  7 30.0000000  0  9G02G04G05G13G29G23G30G10G25
 -10998106.30948  -8534565.21147
                  20518397.3594                                   20518391.5274
                                                                        51.7504
        43.0004
  -1311436.99648  -1006426.46546
                  21859638.2664                                   21859634.3874
                                                                        50.5004
        38.0004
  -8054090.39147  -6230094.80545
                  23336158.1094                                   23336153.4344
                                                                        46.2504
        33.2504
 -13291808.27048 -10316461.61346
                  21310854.5084                                   21310850.0984
                                                                        49.2504
        36.7504
 -13461554.06647 -10445431.23045
                  22969586.2034                                   22969583.2704
                                                                        43.7504
        33.0004
  -3679583.71947  -2845415.76645
                  22610540.3984                                   22610533.7934
                                                                        46.5004
        30.5004
   -289330.32446   -211123.27743
                  24059427.7034                                   24059424.4844
                                                                        41.2504
        22.5004
 -13896363.45747 -10780760.29345
                  22506955.8524                                   22506951.1524
                                                                        47.0004
        35.0004
  -1924013.53547  -1459799.79743
                  23942441.9384                                   23942437.6254
                                                                        42.2504
        22.2504
 09 10 13  0  8  0.0000000  0  9G02G04G05G13G29G23G30G10G25
 -11069001.38748  -8589808.12947
                  20504906.5554                                   20504900.2034
                                                                        51.5004
        42.7504
  -1304825.34048  -1001274.54346
                  21860896.5864                                   21860893.1294
                                                                        48.7504
        37.7504
  -8234264.86747  -6370490.53145
                  23301872.0164                                   23301867.2734
                                                                        47.7504
        33.5004
 -13378450.62148 -10383975.15646
                  21294367.1094                                   21294362.3954
                                                                        48.2504
        36.5004
 -13607329.10247 -10559022.13745
                  22941846.2814                                   22941842.6094
                                                                        43.7504
        33.2504
  -3686991.31647  -2851187.90245
                  22609130.7274                                   22609124.7304
                                                                        46.0004
        30.5004
   -272266.02346   -197826.31243
                  24062675.2664                                   24062671.6724
                                                                        40.7504
        22.7504
 -14070375.48847 -10916354.09445
                  22473841.3674                                   22473837.5274
                                                                        46.2504
        34.2504
  -2081296.86746  -1582358.22343
                  23912511.5554                                   23912508.0044
                                                                        40.5004
        22.5004
 09 10 13  0  8 30.0000000  0  9G02G04G05G13G29G23G30G10G25
 -11139277.21148  -8644568.52347
                  20491533.3674                                   20491527.5434
                                                                        51.5004
        42.5004
  -1297791.56648   -995793.69146
                  21862234.7114                                   21862231.0084
                                                                        50.0004
        37.2504
  -8414179.62947  -6510683.84845
                  23267635.3524                                   23267630.9574
                                                                        46.7504
        33.5004
 -13464389.46548 -10450940.45746
                  21278013.3284                                   21278008.7194
                                                                        49.2504
        36.5004
 -13752616.63747 -10672233.18745
                  22914199.0234                                   22914195.5234
                                                                        45.0004
        33.0004
  -3693869.35947  -2856547.39545
                  22607822.0314                                   22607815.5784
                                                                        46.2504
        31.0004
   -254797.01246   -184214.08243
                  24065999.4774                                   24065995.8914
                                                                        40.7504
        22.5004
 -14244032.17647 -11051670.98845
                  22440795.6954                                   22440791.6884
                                                                        46.5004
        33.5004
  -2238201.91446  -1704621.80143
                  23882653.1884                                   23882649.3594
                                                                        40.2504
        22.5004
 09 10 13  0  9  0.0000000  0  9G02G04G05G13G29G23G30G10G25
 -11208934.66048  -8698847.04347
                  20478278.1174                                   20478271.4884
                                                                        51.2504
        43.0004
  -1290338.21547   -989985.88346
                  21863653.0004                                   21863649.4344
                                                                        47.0004
        37.0004
  -8593834.45747  -6650674.62545
                  23233447.9384                                   23233443.2274
                                                                        46.7504
        33.5004
 -13549625.44148 -10517358.07046
                  21261793.3674                                   21261788.6454
                                                                        48.2504
        36.5004
 -13897415.69547 -10785063.62945
                  22886644.8444                                   22886641.0474
                                                                        45.5004
        33.7504
  -3700220.87947  -2861496.58645
                  22606612.9144                                   22606606.8204
                                                                        46.5004
        31.7504
   -236927.75047   -170290.04744
                  24069400.4224                                   24069396.8714
                                                                        42.5004
        24.0004
 -14417332.60547 -11186710.27745
                  22407817.8754                                   22407814.2114
                                                                        45.7504
        34.2504
  -2394726.94546  -1826589.29744
                  23852868.0394                                   23852864.2424
                                                                        40.7504
        24.5004
 09 10 13  0  9 30.0000000  0  9G02G04G05G13G29G23G30G10G25
 -11277973.88748  -8752643.82847
                  20465140.2504                                   20465134.0664
                                                                        52.0004
        43.0004
  -1282467.99248   -983853.23446
                  21865150.7814                                   21865147.1604
                                                                        49.5004
        37.2504
  -8773227.14847  -6790461.12545
                  23199310.2274                                   23199306.4774
                                                                        46.2504
        33.2504
 -13634158.72748 -10583228.12946
                  21245707.4064                                   21245702.9654
                                                                        49.0004
        37.0004
 -14041724.33647 -10897511.92245
                  22859184.1724                                   22859180.2274
                                                                        45.2504
        33.5004
  -3706048.53547  -2866037.60545
                  22605504.2114                                   22605497.5594
                                                                        47.2504
        30.7504
   -218660.96947   -156056.18443
                  24072875.9144                                   24072872.3754
                                                                        42.7504
        23.5004
 -14590275.12147 -11321470.66845
                  22374908.0704                                   22374903.9104
                                                                        46.7504
        34.2504
  -2550869.63746  -1948258.84043
                  23823155.2584                                   23823151.2034
                                                                        41.0004
        22.2504
 09 10 13  0 10  0.0000000  0  9G02G04G05G13G29G23G30G10G25
 -11346395.56248  -8805959.41047
                  20452119.8674                                   20452113.5984
                                                                        51.7504
        42.0004
  -1274183.38348   -977397.71146
                  21866727.4774                                   21866723.7424
                                                                        49.5004
        37.0004
  -8952356.32447  -6930042.25445
                  23165223.3674                                   23165219.3674
                                                                        47.0004
        33.5004
 -13717989.68748 -10648550.92646
                  21229755.0084                                   21229750.4734
                                                                        49.5004
        36.7504
 -14185541.13747 -11009576.92645
                  22831816.4384                                   22831812.2194
                                                                        47.0004
        34.0004
  -3711355.50047  -2870172.87145
                  22604494.3284                                   22604487.1844
                                                                        46.0004
        30.0004
   -200001.09447   -141516.03543
                  24076426.7814                                   24076423.0664
                                                                        42.5004
        23.0004
 -14762857.90647 -11455950.76245
                  22342066.1724                                   22342062.7344
                                                                        47.2504
        34.5004
  -2706628.00846  -2069628.93043
                  23793514.8594                                   23793510.8404
                                                                        39.7504
        23.5004
 09 10 13  0 10 30.0000000  0  9G02G04G05G13G29G23G30G10G25
 -11414199.63348  -8858793.74647
                  20439217.4774                                   20439211.1414
                                                                        51.7504
        42.2504
  -1265486.13748   -970620.62546
                  21868382.4304                                   21868378.8754
                                                                        49.5004
        37.5004
  -9131220.06247  -7069416.57445
                  23131186.8674                                   23131182.6414
                                                                        47.2504
        33.2504
 -13801118.00448 -10713326.20346
                  21213936.0394                                   21213931.2464
                                                                        49.5004
        36.7504
 -14328863.42647 -11121256.61745
                  22804542.8134                                   22804539.1844
                                                                        45.2504
        33.2504
  -3716143.63347  -2873903.88744
                  22603582.9144                                   22603575.9774
                                                                        46.0004
        29.2504
   -180950.91847   -126671.72743
                  24080051.9144                                   24080048.5204
                                                                        42.0004
        22.2504
 -14935078.51647 -11590148.63745
                  22309294.2584                                   22309290.5004
                                                                        46.7504
        35.2504
  -2861999.39847  -2190697.51644
                  23763948.4304                                   23763944.2704
                                                                        43.0004
        24.0004
 09 10 13  0 11  0.0000000  0  9G02G04G05G13G29G23G30G10G25
 -11481385.51248  -8911146.38347
                  20426432.1414                                   20426425.8634
                                                                        51.5004
        42.2504
  -1256378.20348   -963523.52746
                  21870115.7664                                   21870111.9654
                                                                        49.2504
        36.7504
  -9309816.19547  -7208582.38345
                  23097201.3284                                   23097196.9534
                                                                        47.0004
        33.7504
 -13883543.00048 -10777553.45746
                  21198251.1024                                   21198246.3984
                                                                        49.0004
        36.5004
 -14471688.91847 -11232549.19945
                  22777364.1094                                   22777360.4064
                                                                        44.7504
        32.5004
  -3720415.05547  -2877232.23445
                  22602769.5554                                   22602763.4844
                                                                        45.7504
        30.0004
   -161513.81647   -111525.96543
                  24083750.6804                                   24083746.8164
                                                                        42.7504
        22.5004
 -15106934.77047 -11724062.60545
                  22276590.9534                                   22276587.0784
                                                                        46.7504
        34.7504
  -3016980.77746  -2311462.25044
                  23734456.8914                                   23734452.4654
                                                                        41.2504
        24.0004
 09 10 13  0 11 30.0000000  0  9G02G04G05G13G29G23G30G10G25
 -11547953.85948  -8963017.80947
                  20413764.9534                                   20413758.7114
                                                                        51.2504
        42.2504
  -1246862.03148   -956108.34046
                  21871926.2344                                   21871923.1294
                                                                        49.5004
        36.5004
  -9488143.30547  -7347538.55945
                  23063266.5084                                   23063262.1604
                                                                        47.7504
        33.5004
 -13965265.56648 -10841233.38346
                  21182699.5704                                   21182695.1644
                                                                        49.5004
        36.7504
 -14614015.77747 -11343453.21145
                  22750280.0944                                   22750276.0744
                                                                        44.5004
        31.7504
  -3724172.78947  -2880160.34844
                  22602054.7734                                   22602049.0044
                                                                        45.0004
        29.5004
   -141693.46947    -96081.50843
                  24087522.1804                                   24087518.8204
                                                                        42.0004
        22.5004
 -15278425.27347 -11857691.58245
                  22243957.5164                                   22243953.5784
                                                                        47.7504
        34.5004
  -3171570.36346  -2431921.69943
                  23705039.3834                                   23705034.8204
                                                                        41.0004
        23.0004
 09 10 13  0 12  0.0000000  0  9G02G04G05G13G29G23G30G10G25
 -11613903.62548  -9014407.22347
                  20401215.1254                                   20401208.7544
                                                                        51.2504
        42.2504
  -1236938.78548   -948375.93746
                  21873815.0084                                   21873811.0864
                                                                        49.5004
        37.0004
  -9666198.30547  -7486282.67645
                  23029383.7424                                   23029379.3594
                                                                        47.5004
        33.5004
 -14046284.32448 -10904364.85946
                  21167282.2424                                   21167278.0944
                                                                        49.5004
        37.0004
 -14755841.34447 -11453966.63345
                  22723292.0474                                   22723287.3164
                                                                        45.2504
        32.0004
  -3727418.14847  -2882689.18444
                  22601437.2194                                   22601430.9614
                                                                        45.7504
        29.0004
   -121492.09846    -80340.20743
                  24091365.9694                                   24091363.3954
                                                                        41.0004
        22.5004
 -15449546.80947 -11991033.05145
                  22211394.2194                                   22211390.1524
                                                                        47.0004
        34.7504
  -3325764.34446  -2552072.81644
                  23675697.3984                                   23675693.6134
                                                                        41.0004
        24.5004
 09 10 13  0 12 30.0000000  0  9G02G04G05G13G29G23G30G10G25
 -11679234.92648  -9065314.71947
                  20388782.9384                                   20388776.7704
                                                                        51.5004
        42.7504
  -1226610.34048   -940327.80546
                  21875780.2504                                   21875776.6844
                                                                        49.5004
        37.5004
  -9843979.40647  -7624813.35945
                  22995552.9454                                   22995549.1094
                                                                        47.2504
        34.5004
 -14126599.29748 -10966947.93046
                  21151998.7894                                   21151993.9774
                                                                        49.7504
        36.5004
 -14897163.05947 -11564087.44545
                  22696399.0234                                   22696394.9534
                                                                        45.7504
        32.0004
  -3730153.55147  -2884820.64544
                  22600916.9844                                   22600910.3714
                                                                        47.2504
        29.7504
   -100912.80546    -64304.44143
                  24095282.5554                                   24095279.2624
                                                                        41.2504
        22.7504
 -15620297.49247 -12124085.53545
                  22178901.1644                                   22178896.6844
                                                                        47.2504
        34.7504
  -3479560.12546  -2671913.62943
                  23646430.4844                                   23646426.7034
                                                                        39.2504
        22.5004
 09 10 13  0 13  0.0000000  0  9G02G04G05G13G29G23G30G10G25
 -11743947.45348  -9115740.06247
                  20376468.5784                                   20376462.4384
                                                                        51.5004
        42.7504
  -1215878.64548   -931965.44946
                  21877822.2734                                   21877818.5394
                                                                        49.7504
        36.2504
 -10021484.38747  -7763128.90245
                  22961775.2274                                   22961770.7424
                                                                        46.5004
        33.5004
 -14206210.16448 -11028982.33646
                  21136849.7424                                   21136845.0904
                                                                        50.0004
        36.7504
 -15037978.60947 -11673813.82445
                  22669602.8674                                   22669598.9064
                                                                        46.5004
        33.0004
  -3732380.98847  -2886556.30145
                  22600493.1644                                   22600486.9494
                                                                        45.5004
        30.2504
    -79958.67246    -47976.60543
                  24099270.2114                                   24099266.7774
                                                                        41.2504
        22.7504
 -15790674.52747 -12256846.85545
                  22146479.5864                                   22146475.2304
                                                                        47.0004
        34.0004
  -3632955.03946  -2791442.06643
                  23617240.1414                                   23617236.7814
                                                                        40.7504
        22.7504
 09 10 13  0 13 30.0000000  0  9G02G04G05G13G29G23G30G10G25
 -11808041.95348  -9165683.83647
                  20364271.6334                                   20364265.7154
                                                                        52.0004
        43.0004
  -1204746.14148   -923290.77046
                  21879941.1094                                   21879937.3054
                                                                        49.5004
        36.2504
 -10198711.85547  -7901228.22745
                  22928049.8984                                   22928045.4264
                                                                        47.2504
        34.0004
 -14285117.41448 -11090468.52346
                  21121833.8054                                   21121829.1454
                                                                        50.5004
        36.2504
 -15178286.59847 -11783144.74245
                  22642903.0634                                   22642899.5124
                                                                        45.7504
        34.0004
  -3734103.53147  -2887898.54345
                  22600165.6024                                   22600158.3674
                                                                        46.5004
        30.0004
    -58633.27747    -31359.45744
                  24103328.1254                                   24103325.0354
                                                                        43.0004
        25.5004
 -15960676.71947 -12389316.06245
                  22114129.5164                                   22114125.0784
                                                                        47.0004
        34.2504
  -3785946.97746  -2910656.50044
                  23588126.4614                                   23588123.6374
                                                                        41.0004
        24.5004
 09 10 13  0 14  0.0000000  0  8G02G04G05G13G29G23G10G25
 -11871518.35248  -9215145.94947
                  20352192.5234                                   20352186.3014
                                                                        51.2504
        42.7504
  -1193214.71148   -914305.25046
                  21882135.0634                                   21882131.4884
                                                                        48.0004
        37.0004
 -10375659.80547  -8039109.73445
                  22894377.5164                                   22894373.3094
                                                                        47.2504
        34.5004
 -14363320.93448 -11151406.32846
                  21106952.3524                                   21106947.7974
                                                                        49.2504
        36.0004
 -15318084.78947 -11892078.38345
                  22616300.7504                                   22616296.8954
                                                                        45.7504
        33.7504
  -3735323.49247  -2888849.15644
                  22599933.1094                                   22599926.5204
                                                                        45.5004
        29.5004
 -16130301.56247 -12521491.25045
                  22081850.6644                                   22081846.6844
                                                                        47.5004
        34.5004
  -3938533.04747  -3029554.67244
                  23559090.9614                                   23559087.1094
                                                                        42.2504
        24.2504
 09 10 13  0 14 30.0000000  0  8G02G04G05G13G29G23G10G25
 -11934377.39848  -9264127.02347
                  20340231.0164                                   20340224.6134
                                                                        51.7504
        42.5004
  -1181287.35548   -905011.22746
                  21884404.9694                                   21884401.0704
                                                                        48.5004
        36.2504
 -10552326.84048  -8176772.34845
                  22860759.0314                                   22860754.5824
                                                                        48.5004
        34.7504
 -14440821.36348 -11211796.27346
                  21092204.0864                                   21092199.6414
                                                                        48.7504
        36.7504
 -15457371.59847 -12000613.53545
                  22589795.0234                                   22589791.5394
                                                                        45.7504
        34.2504
  -3736043.37947  -2889410.08245
                  22599796.0314                                   22599789.3984
                                                                        45.5004
        30.0004
 -16299547.76647 -12653371.38745
                  22049643.8444                                   22049640.1994
                                                                        47.0004
        35.2504
  -4090711.81647  -3148135.47344
                  23530132.0004                                   23530128.6094
                                                                        42.7504
        26.0004
 09 10 13  0 15  0.0000000  0  8G02G04G05G13G29G23G10G25
 -11996615.21148  -9312624.00447
                  20328387.5314                                   20328381.2034
                                                                        52.0004
        42.2504
  -1168961.86348   -895406.94146
                  21886750.5864                                   21886746.7234
                                                                        49.7504
        36.5004
 -10728707.17647  -8314211.57845
                  22827195.0234                                   22827190.8324
                                                                        47.0004
        34.0004
 -14517614.95748 -11271635.41446
                  21077591.0164                                   21077586.2934
                                                                        49.0004
        36.7504
 -15596140.98447 -12108745.49245
                  22563388.1334                                   22563384.4574
                                                                        46.5004
        34.5004
  -3736262.22347  -2889580.57444
                  22599753.9064                                   22599748.0234
                                                                        45.0004
        29.5004
 -16468409.43447 -12784951.85246
                  22017510.9454                                   22017506.8594
                                                                        47.2504
        36.0004
  -4242476.75447  -3266393.90644
                  23501252.7894                                   23501248.7704
                                                                        43.5004
        26.7504
 09 10 13  0 15 30.0000000  0  8G02G04G05G13G29G23G10G25
 -12058230.84048  -9360636.18447
                  20316662.2814                                   20316655.9414
                                                                        52.2504
        42.7504
  -1156239.57448   -885493.46946
                  21889171.3364                                   21889167.9774
                                                                        49.5004
        36.7504
 -10904797.74647  -8451425.00445
                  22793685.9304                                   22793681.8984
                                                                        46.5004
        34.2504
 -14593700.57048 -11330922.88746
                  21063112.4304                                   21063107.9184
                                                                        49.2504
        37.5004
 -15734390.12147 -12216472.09045
                  22537080.5784                                   22537076.5354
                                                                        46.2504
        34.0004
  -3735981.32447  -2889361.71544
                  22599807.4924                                   22599801.2384
                                                                        44.5004
        28.5004
 -16636883.84047 -12916230.58246
                  21985451.5004                                   21985447.5354
                                                                        47.5004
        36.5004
  -4393824.02747  -3384326.88344
                  23472452.2344                                   23472447.5004
                                                                        43.5004
        24.5004
 09 10 13  0 16  0.0000000  0  8G02G04G05G13G29G23G10G25
 -10543806.35548  -8180565.14147
                  20604847.7274                                   20604841.9454
                                                                        52.0004
        42.7504
    432293.28548    352324.34046
                  22191459.2274                                   22191455.7304
                                                                        48.7504
        36.2504
  -9505174.84047  -7360809.73845
                  23060025.4774                                   23060021.4884
                                                                        47.2504
        34.7504
 -13093660.05148 -10162060.10246
                  21348560.6884                                   21348555.9804
                                                                        49.0004
        36.5004
 -14296696.23047 -11096191.15245
                  22810664.2894                                   22810660.3244
                                                                        46.0004
        34.0004
  -2159787.14547  -1661158.43444
                  22899747.3204                                   22899741.5164
                                                                        45.0004
        28.7504
 -15229547.03147 -11819604.48446
                  22253258.7194                                   22253254.8364
                                                                        47.2504
        36.2504
  -2969330.19547  -2274331.71943
                  23743523.6954                                   23743519.8324
                                                                        43.5004
        22.7504
 09 10 13  0 16 30.0000000  0  8G02G04G05G13G29G23G10G25
 -10604189.20748  -8227616.71547
                  20593357.3134                                   20593350.9104
                                                                        51.7504
        42.2504
    445792.25848    362843.00845
                  22194027.7424                                   22194023.9144
                                                                        48.5004
        35.7504
  -9680691.15247  -7497575.68445
                  23026625.7664                                   23026621.7544
                                                                        47.0004
        35.5004
 -13168341.62148 -10220253.52046
                  21334349.1564                                   21334344.6484
                                                                        48.5004
        37.2504
 -14433909.05547 -11203110.24245
                  22784553.5394                                   22784549.6564
                                                                        46.0004
        33.5004
  -2158525.09847  -1660175.03944
                  22899987.6254                                   22899981.7504
                                                                        43.7504
        29.0004
 -15397250.96547 -11950282.83245
                  22221345.6884                                   22221341.2934
                                                                        47.5004
        35.5004
  -3119845.80947  -2391616.53143
                  23714881.9384                                   23714877.9494
                                                                        42.5004
        22.2504
 09 10 13  0 17  0.0000000  0  8G02G04G05G13G29G23G10G25
 -10663960.31648  -8274191.58647
                  20581983.2734                                   20581976.9264
                                                                        52.0004
        42.5004
    459672.30548    373658.62546
                  22196668.9774                                   22196665.3914
                                                                        49.2504
        36.0004
  -9855921.71147  -7634118.94145
                  22993280.4614                                   22993276.2624
                                                                        47.7504
        35.2504
 -13242325.59448 -10277903.37946
                  21320270.7274                                   21320266.1884
                                                                        49.5004
        37.0004
 -14570605.23847 -11309626.74645
                  22758540.9144                                   22758537.0704
                                                                        47.0004
        33.7504
  -2156780.50047  -1658815.61345
                  22900320.0634                                   22900313.5514
                                                                        45.2504
        30.0004
 -15564570.80947 -12080661.89845
                  22189505.5314                                   22189501.0354
                                                                        47.5004
        35.0004
  -3269946.25446  -2508577.89543
                  23686318.4534                                   23686314.2624
                                                                        41.0004
        22.5004
 09 10 13  0 17 30.0000000  0  8G02G04G05G13G29G23G10G25
 -10723121.43048  -8320291.16847
                  20570725.1254                                   20570718.8674
                                                                        51.7504
        42.7504
    473930.05548    384768.54346
                  22199382.3204                                   22199379.0044
                                                                        48.2504
        36.2504
 -10030865.79347  -7770438.98045
                  22959989.6884                                   22959985.9414
                                                                        46.7504
        35.7504
 -13315613.38748 -10335010.73846
                  21306324.2194                                   21306319.5204
                                                                        49.5004
        36.2504
 -14706783.82847 -11415739.94545
                  22732627.1174                                   22732622.7814
                                                                        47.0004
        34.0004
  -2154557.00447  -1657083.03144
                  22900743.0164                                   22900736.0984
                                                                        45.0004
        29.2504
 -15731506.17648 -12210741.37145
                  22157738.5394                                   22157734.5554
                                                                        48.5004
        35.5004
  -3419630.10547  -2625214.61344
                  23657834.7034                                   23657831.0474
                                                                        42.7504
        24.2504
 09 10 13  0 18  0.0000000  0  8G02G04G05G13G29G23G10G25
 -10781673.44948  -8365916.11747
                  20559582.9774                                   20559577.3054
                                                                        51.5004
        42.2504
    488561.98848    396170.03546
                  22202167.0554                                   22202163.0704
                                                                        49.0004
        36.0004
 -10205523.09847  -7906535.54745
                  22926753.6804                                   22926749.6214
                                                                        45.5004
        35.7504
 -13388206.34848 -10391576.67246
                  21292510.3914                                   21292506.0084
                                                                        50.0004
        36.7504
 -14842443.97747 -11521449.16045
                  22706811.7504                                   22706807.7734
                                                                        46.5004
        34.0004
  -2151858.05547  -1654979.94544
                  22901256.5634                                   22901249.3014
                                                                        44.7504
        28.7504
 -15898055.54348 -12340520.08246
                  22126045.8594                                   22126041.4344
                                                                        48.0004
        36.0004
  -3568896.17247  -2741525.78944
                  23629430.2274                                   23629426.9384
                                                                        42.7504
        24.5004
 09 10 13  0 18 30.0000000  0  8G02G04G05G13G29G23G10G25
 -10839617.50048  -8411067.31247
                  20548556.7274                                   20548550.4924
                                                                        51.2504
        42.5004
    503565.50048    407861.05946
                  22205021.7424                                   22205017.6254
                                                                        49.0004
        36.0004
 -10379892.19947  -8042407.54345
                  22893572.0084                                   22893567.8444
                                                                        46.2504
        35.0004
 -13460105.96148 -10447602.34046
                  21278828.3054                                   21278823.8014
                                                                        49.5004
        36.5004
 -14977584.68047 -11626753.58245
                  22681095.5784                                   22681091.5434
                                                                        46.2504
        34.0004
  -2148687.18447  -1652509.13744
                  22901860.1564                                   22901853.1054
                                                                        45.5004
        28.7504
 -16064218.39847 -12469997.63346
                  22094425.6334                                   22094421.7934
                                                                        47.7504
        36.5004
  -3717742.84847  -2857510.20344
                  23601106.3444                                   23601101.5634
                                                                        43.0004
        25.2504
 09 10 13  0 19  0.0000000  0  8G02G04G05G13G29G23G10G25
 -10896953.77048  -8455744.92247
                  20537645.9694                                   20537639.8164
                                                                        51.5004
        42.2504
    518938.71548    419840.18445
                  22207947.7274                                   22207944.0784
                                                                        48.7504
        35.7504
 -10553971.01247  -8178053.35945
                  22860445.6884                                   22860441.7624
                                                                        46.0004
        34.7504
 -13531311.62148 -10503087.27346
                  21265278.4304                                   21265273.5944
                                                                        49.5004
        36.2504
 -15112203.30947 -11731651.20345
                  22655478.4534                                   22655474.2734
                                                                        46.7504
        34.0004
  -2145046.43047  -1649672.22344
                  22902553.0234                                   22902546.0314
                                                                        44.7504
        28.0004
 -16229991.65647 -12599171.57446
                  22062880.1804                                   22062876.3244
                                                                        47.7504
        36.0004
  -3866167.13347  -2973165.45744
                  23572861.7504                                   23572857.8094
                                                                        42.0004
        27.2504
 09 10 13  0 19 30.0000000  0  8G02G04G05G13G29G23G10G25
 -10953683.08648  -8499949.58247
                  20526850.4694                                   20526844.6684
                                                                        51.0004
        42.7504
    534678.88748    432105.23045
                  22210942.4694                                   22210938.8874
                                                                        49.0004
        35.5004
 -10727757.71147  -8313471.55545
                  22827375.7664                                   22827371.3594
                                                                        46.0004
        35.5004
 -13601824.68448 -10558032.53146
                  21251860.0554                                   21251855.3594
                                                                        50.2504
        36.0004
 -15246298.56247 -11836141.02345
                  22629960.8204                                   22629956.5824
                                                                        47.2504
        34.7504
  -2140938.92647  -1646471.54744
                  22903334.0704                                   22903327.9224
                                                                        44.5004
        28.0004
 -16395374.20347 -12728041.07046
                  22031408.8914                                   22031404.9614
                                                                        47.7504
        36.7504
  -4014167.55547  -3088490.47344
                  23544698.0554                                   23544693.4064
                                                                        42.2504
        27.5004
 09 10 13  0 20  0.0000000  0  8G02G04G05G13G29G23G10G25
 -11009804.53948  -8543680.59047
                  20516171.1644                                   20516165.1174
                                                                        51.7504
        42.7504
    550785.17648    444655.57845
                  22214007.6174                                   22214004.1094
                                                                        49.2504
        34.7504
 -10901249.32847  -8448659.81245
                  22794361.4224                                   22794356.9144
                                                                        46.7504
        35.5004
 -13671643.84048 -10612437.05546
                  21238573.8444                                   21238569.2344
                                                                        50.2504
        36.5004
 -15379867.36347 -11940220.60545
                  22604543.5784                                   22604539.7274
                                                                        46.5004
        34.7504
  -2136366.03147  -1642908.24644
                  22904204.1644                                   22904197.9534
                                                                        44.5004
        27.5004
 -16560362.75847 -12856603.57846
                  22000012.9064                                   22000008.7504
                                                                        47.7504
        36.5004
  -4161740.04346  -3203481.94944
                  23516615.8364                                   23516612.1644
                                                                        41.2504
        26.0004
 09 10 13  0 20 30.0000000  0  8G02G04G05G13G29G23G10G25
 -11065318.61748  -8586938.29747
                  20505607.0554                                   20505600.7544
                                                                        52.0004
        42.0004
    567255.37148    457489.49245
                  22217141.6954                                   22217138.1914
                                                                        49.7504
        35.7504
 -11074444.46147  -8583617.03946
                  22761403.4844                                   22761399.2384
                                                                        46.5004
        36.0004
 -13740769.89848 -10666301.51246
                  21225419.5474                                   21225414.9414
                                                                        50.7504
        37.0004
 -15512907.75447 -12043888.41845
                  22579226.7194                                   22579222.8524
                                                                        46.7504
        34.2504
  -2131330.55947  -1638984.53944
                  22905162.4844                                   22905156.2974
                                                                        44.5004
        29.0004
 -16724955.80548 -12984857.86746
                  21968691.1484                                   21968687.5044
                                                                        48.2504
        36.5004
  -4308882.76246  -3318138.59044
                  23488615.9844                                   23488611.9304
                                                                        41.0004
        24.5004
 09 10 13  0 21  0.0000000  0  8G02G04G05G13G29G23G10G25
 -11120225.78548  -8629723.09847
                  20495158.5704                                   20495152.4574
                                                                        52.0004
        42.5004
    584087.09448    470605.11345
                  22220344.6334                                   22220340.6684
                                                                        49.2504
        35.7504
 -11247341.42247  -8718341.93045
                  22728501.7814                                   22728498.0124
                                                                        45.7504
        35.7504
 -13809203.44148 -10719626.33646
                  21212397.1094                                   21212392.2424
                                                                        51.0004
        36.5004
 -15645417.70347 -12147142.90645
                  22554011.1334                                   22554007.3914
                                                                        46.5004
        34.7504
  -2125834.84847  -1634702.19944
                  22906208.6024                                   22906202.0084
                                                                        45.5004
        29.0004
 -16889151.27048 -13112802.38346
                  21937445.9304                                   21937441.7624
                                                                        48.2504
        36.2504
  -4455593.26246  -3432458.42244
                  23460696.6174                                   23460693.5204
                                                                        39.0004
        24.5004
 09 10 13  0 21 30.0000000  0  8G02G04G05G13G29G23G10G25
 -11174526.26248  -8672035.16447
                  20484825.6254                                   20484819.9844
                                                                        52.0004
        42.0004
    601278.30948    484000.86745
                  22223615.8444                                   22223612.3364
                                                                        49.5004
        34.7504
 -11419937.78547  -8852832.59445
                  22695657.7894                                   22695653.7194
                                                                        46.0004
        35.5004
 -13876944.71548 -10772411.74246
                  21199506.4304                                   21199501.8324
                                                                        51.2504
        36.5004
 -15777395.74247 -12249982.93045
                  22528896.4924                                   22528892.4614
                                                                        45.2504
        35.0004
  -2119881.53947  -1630063.26244
                  22907341.5864                                   22907335.1884
                                                                        46.2504
        29.0004
 -17052947.10948 -13240435.49646
                  21906276.8674                                   21906272.6914
                                                                        48.0004
        36.0004
  -4601869.00846  -3546439.47343
                  23432861.7114                                   23432858.0394
                                                                        39.5004
        22.2504
 09 10 13  0 22  0.0000000  0  8G02G04G05G13G29G23G10G25
 -11228219.32848  -8713873.91847
                  20474607.8054                                   20474601.7854
                                                                        52.5004
        42.5004
    618828.25848    497676.13745
                  22226955.7274                                   22226951.9844
                                                                        50.0004
        35.0004
 -11592230.19547  -8987086.39146
                  22662871.6174                                   22662867.4264
                                                                        47.5004
        36.0004
 -13943992.83648 -10824657.02346
                  21186747.7424                                   21186742.9734
                                                                        50.5004
        36.5004
 -15908838.84047 -12352406.09445
                  22503883.2664                                   22503879.6684
                                                                        46.5004
        34.0004
  -2113471.79747  -1625068.62944
                  22908561.5944                                   22908554.8914
                                                                        46.7504
        29.2504
 -17216339.85548 -13367754.50446
                  21875184.2424                                   21875180.0824
                                                                        48.2504
        36.5004
  -4747706.32447  -3660078.91844
                  23405110.2194                                   23405105.2194
                                                                        42.0004
        24.0004
 09 10 13  0 22 30.0000000  0  8G02G04G05G13G29G23G10G25
 -11281306.14848  -8755240.26247
                  20464505.9144                                   20464499.7464
                                                                        52.2504
        42.5004
    636734.28548    511628.87145
                  22230363.0944                                   22230359.1564
                                                                        49.5004
        35.5004
 -11764218.07847  -9121102.90645
                  22630143.6174                                   22630139.2304
                                                                        47.5004
        35.5004
 -14010348.87948 -10876363.03946
                  21174120.3134                                   21174115.3094
                                                                        51.0004
        36.5004
 -16039745.50847 -12454411.26645
                  22478972.5944                                   22478968.9144
                                                                        46.0004
        34.5004
  -2106609.03547  -1619721.00844
                  22909867.3594                                   22909860.3914
                                                                        46.5004
        28.5004
 -17379328.30548 -13494758.47346
                  21844168.4224                                   21844164.4654
                                                                        48.2504
        37.5004
  -4893103.50847  -3773375.42244
                  23377442.0394                                   23377437.2894
                                                                        42.0004
        27.0004
 09 10 13  0 23  0.0000000  0  8G02G04G05G13G29G23G10G25
 -11333785.96148  -8796133.60947
                  20454519.5164                                   20454513.3754
                                                                        52.5004
        42.0004
    654994.90648    525857.91445
                  22233837.9384                                   22233834.5164
                                                                        48.5004
        34.5004
 -11935898.21947  -9254879.61345
                  22597474.0704                                   22597469.8754
                                                                        47.7504
        35.7504
 -14076012.38748 -10927529.40646
                  21161625.3984                                   21161620.9064
                                                                        51.2504
        36.5004
 -16170112.57047 -12555995.96945
                  22454164.7194                                   22454160.9414
                                                                        46.5004
        34.0004
  -2099294.52747  -1614021.41444
                  22911259.1254                                   22911252.4224
                                                                        45.2504
        26.7504
 -17541909.46148 -13621445.07446
                  21813230.3524                                   21813226.6804
                                                                        49.2504
        36.7504
  -5038057.12947  -3886326.29744
                  23349858.4924                                   23349853.6764
                                                                        42.5004
        26.7504
 09 10 13  0 23 30.0000000  0  8G02G04G05G13G29G23G10G25
 -11385659.22748  -8836554.34447
                  20444648.1254                                   20444642.1524
                                                                        52.5004
        42.5004
    673608.29348    540361.84445
                  22237379.8364                                   22237376.0744
                                                                        48.7504
        35.0004
 -12107268.65248  -9388414.98446
                  22564863.1954                                   22564859.2894
                                                                        48.2504
        36.5004
 -14140983.94548 -10978156.60946
                  21149261.6094                                   21149257.0634
                                                                        51.0004
        36.7504
 -16299938.41047 -12657158.93445
                  22429459.8134                                   22429455.7274
                                                                        46.2504
        34.0004
  -2091531.12147  -1607971.99244
                  22912736.0084                                   22912729.4064
                                                                        45.0004
        26.0004
 -17704081.56248 -13747812.93446
                  21782369.9844                                   21782365.9804
                                                                        49.0004
        37.5004
  -5182564.91047  -3998929.70744
                  23322359.6564                                   23322355.2664
                                                                        43.0004
        26.0004
 09 10 13  0 24  0.0000000  0  8G02G04G05G13G29G23G10G25
 -11436926.72348  -8876503.04347
                  20434892.4144                                   20434886.2974
                                                                        52.7504
        42.5004
    692572.09848    555138.83245
                  22240988.7344                                   22240984.9734
                                                                        48.7504
        34.5004
 -12278327.64848  -9521707.68746
                  22532311.5864                                   22532307.4304
                                                                        48.5004
        36.2504
 -14205264.24248 -11028245.14546
                  21137029.6884                                   21137024.6684
                                                                        51.2504
        36.5004
 -16429221.41847 -12757898.97345
                  22404857.5784                                   22404854.1134
                                                                        45.7504
        34.5004
  -2083321.45347  -1601574.87544
                  22914298.5704                                   22914291.3834
                                                                        44.5004
        26.7504
 -17865842.46548 -13873860.38746
                  21751588.0554                                   21751584.1914
                                                                        48.5004
        37.5004
  -5326624.79746  -4111184.14144
                  23294945.5704                                   23294941.5864
                                                                        41.7504
        26.0004
 09 10 13  0 24 30.0000000  0  8G02G04G05G13G29G23G10G25
 -11487588.21948  -8915979.54347
                  20425252.0394                                   20425245.9264
                                                                        52.0004
        42.2504
    711884.88748    570187.73845
                  22244664.0004                                   22244660.0274
                                                                        48.7504
        35.0004
 -12449072.69948  -9654755.75846
                  22499820.3364                                   22499815.3134
                                                                        49.2504
        36.5004
 -14268853.21548 -11077794.99646
                  21124928.8754                                   21124924.2384
                                                                        51.0004
        36.7504
 -16557959.00047 -12858213.95345
                  22380359.7034                                   22380356.0904
                                                                        46.0004
        34.7504
  -2074667.50847  -1594831.56244
                  22915945.2894                                   22915938.4064
                                                                        45.5004
        28.5004
 -18027189.62148 -13999585.43746
                  21720884.5944                                   21720880.5044
                                                                        48.2504
        36.5004
  -5470233.60946  -4223087.08244
                  23267617.4924                                   23267613.7114
                                                                        41.0004
        25.5004
 09 10 13  0 25  0.0000000  0  8G02G04G05G13G29G23G10G25
 -11537644.60248  -8954984.50447
                  20415726.3284                                   20415720.0634
                                                                        52.0004
        42.2504
    731543.79348    585506.35945
                  22248404.9224                                   22248401.0864
                                                                        48.2504
        35.0004
 -12619502.44948  -9787558.13746
                  22467388.4534                                   22467384.0004
                                                                        48.5004
        36.0004
 -14331752.21548 -11126807.20746
                  21112959.4614                                   21112954.9144
                                                                        51.0004
        36.7504
 -16686149.91447 -12958102.96945
                  22355966.3524                                   22355962.0004
                                                                        46.0004
        35.2504
  -2065572.54347  -1587744.59444
                  22917676.5474                                   22917669.3794
                                                                        45.2504
        27.5004
 -18188121.59448 -14124986.96546
                  21690260.4454                                   21690255.9654
                                                                        49.0004
        36.0004
  -5613389.82846  -4334637.35544
                  23240376.1024                                   23240371.9844
                                                                        41.0004
        25.5004
 09 10 13  0 25 30.0000000  0  8G02G04G05G13G29G23G10G25
 -11587095.85248  -8993517.93747
                  20406316.2584                                   20406310.1764
                                                                        52.2504
        42.5004
    751547.17248    601093.39845
                  22252211.5004                                   22252207.6334
                                                                        48.5004
        34.5004
 -12789614.44147  -9920112.91846
                  22435016.9224                                   22435012.4024
                                                                        47.7504
        36.2504
 -14393961.16048 -11175281.73846
                  21101121.1094                                   21101116.6134
                                                                        51.0004
        36.2504
 -16813791.76647 -13057564.15245
                  22331676.7734                                   22331672.7504
                                                                        47.2504
        35.0004
  -2056038.07847  -1580315.15244
                  22919490.6724                                   22919484.3404
                                                                        46.5004
        28.2504
 -18348636.27748 -14250063.33246
                  21659715.3524                                   21659711.2584
                                                                        49.5004
        37.0004
  -5756090.36746  -4445832.53944
                  23213220.3834                                   23213216.6804
                                                                        40.7504
        25.0004
 09 10 13  0 26  0.0000000  0  8G02G04G05G13G29G23G10G25
 -11635942.25448  -9031580.03147
                  20397021.0234                                   20397014.9304
                                                                        51.7504
        42.5004
    771893.47748    616947.65245
                  22256083.0474                                   22256079.4654
                                                                        48.2504
        34.0004
 -12959406.27047 -10052418.22345
                  22402706.3524                                   22402702.6094
                                                                        47.0004
        35.7504
 -14455480.43748 -11223218.85246
                  21089414.8204                                   21089409.8164
                                                                        51.2504
        36.2504
 -16940882.34047 -13156595.77046
                  22307492.1094                                   22307488.2974
                                                                        46.7504
        36.0004
  -2046066.66047  -1572545.23844
                  22921388.1644                                   22921381.5314
                                                                        45.0004
        28.5004
 -18508731.33648 -14374812.70346
                  21629249.9774                                   21629246.0864
                                                                        49.0004
        36.5004
  -5898332.70346  -4556670.69544
                  23186152.9694                                   23186148.8404
                                                                        41.5004
        25.5004
 09 10 13  0 26 30.0000000  0  8G02G04G05G13G29G23G10G25
 -10108762.08648  -7841569.52347
                  20687633.7974                                   20687627.6174
                                                                        51.5004
        42.5004
   2368000.50847   1860667.42245
                  22559812.6254                                   22559808.4804
                                                                        47.5004
        34.5004
 -11553450.00847  -8956867.86346
                  22670251.1644                                   22670246.7114
                                                                        47.5004
        37.2504
 -12940887.88348 -10043016.86746
                  21377632.3984                                   21377627.1094
                                                                        50.7504
        36.2504
 -15491995.07447 -12027592.70745
                  22583206.5554                                   22583202.4104
                                                                        47.0004
        35.5004
   -460240.43447   -336836.47344
                  23223161.0634                                   23223154.5124
                                                                        45.0004
        29.5004
 -17092978.15648 -13271628.39846
                  21898659.1564                                   21898655.1564
                                                                        49.2504
        36.7504
  -4464689.05547  -3439545.74244
                  23458966.4534                                   23458962.1914
                                                                        42.5004
        25.7504
 09 10 13  0 27  0.0000000  0  8G02G04G05G13G29G23G10G25
 -10156399.96148  -7878689.94547
                  20678568.6954                                   20678562.3164
                                                                        51.0004
        42.5004
   2389026.69948   1877051.46145
                  22563813.3594                                   22563809.4734
                                                                        48.5004
        35.0004
 -11722595.89547  -9088669.84046
                  22638063.7814                                   22638059.5234
                                                                        47.5004
        36.7504
 -13001028.75448 -10089879.90646
                  21366187.9064                                   21366182.7934
                                                                        50.7504
        36.0004
 -15617977.35247 -12125760.71145
                  22559232.7274                                   22559228.4224
                                                                        47.0004
        35.0004
   -449402.28147   -328391.16444
                  23225223.2344                                   23225216.6684
                                                                        42.5004
        26.5004
 -17252226.35248 -13395717.89846
                  21868355.4454                                   21868351.1804
                                                                        49.0004
        36.5004
  -4606007.36747  -3549663.88744
                  23432074.3134                                   23432070.2384
                                                                        43.0004
        29.0004
 09 10 13  0 27 30.0000000  0  8G02G04G05G13G29G23G10G25
 -10203433.21148  -7915339.21946
                  20669618.4224                                   20669612.2774
                                                                        51.5004
        41.5004
   2410390.91447   1893698.89545
                  22567878.7664                                   22567875.2544
                                                                        47.7504
        34.5004
 -11891414.64148  -9220216.89546
                  22605938.5474                                   22605934.2074
                                                                        48.0004
        36.7504
 -13060480.32848 -10136205.82446
                  21354874.7424                                   21354869.8954
                                                                        50.0004
        36.5004
 -15743401.70347 -12223493.98445
                  22535364.9224                                   22535360.9734
                                                                        47.0004
        35.0004
   -438133.64547   -319610.43044
                  23227367.6334                                   23227360.9184
                                                                        42.2504
        27.0004
 -17411047.21548 -13519474.39846
                  21838132.3364                                   21838128.4024
                                                                        49.0004
        37.2504
  -4746859.04347  -3659418.41844
                  23405271.5634                                   23405266.9734
                                                                        43.5004
        28.0004
 09 10 13  0 28  0.0000000  0  8G02G04G05G13G29G23G10G25
 -10249863.28548  -7951518.49247
                  20660783.0474                                   20660776.5864
                                                                        51.0004
        42.2504
   2432090.01648   1910607.27045
                  22572008.0084                                   22572004.3634
                                                                        48.2504
        33.7504
 -12059905.02747  -9351508.09446
                  22573875.5634                                   22573871.0664
                                                                        47.5004
        36.7504
 -13119244.32048 -10181995.96146
                  21343692.1484                                   21343687.6604
                                                                        50.2504
        36.0004
 -15868267.17647 -12320791.74645
                  22511603.6564                                   22511600.2194
                                                                        47.0004
        34.7504
   -426437.64147   -310496.67244
                  23229593.1564                                   23229586.5234
                                                                        45.0004
        27.0004
 -17569439.80548 -13642897.18746
                  21807991.3984                                   21807987.5234
                                                                        49.0004
        37.2504
  -4887242.70347  -3768808.28944
                  23378557.3134                                   23378553.1844
                                                                        43.7504
        26.7504
 09 10 13  0 28 30.0000000  0  8G02G04G05G13G29G23G10G25
 -10295692.35248  -7987229.35946
                  20652061.8204                                   20652055.7344
                                                                        51.0004
        41.7504
   2454120.13348   1927773.57445
                  22576199.9064                                   22576196.8244
                                                                        48.0004
        34.0004
 -12228067.05547  -9482543.42246
                  22541876.0004                                   22541870.9024
                                                                        47.0004
        36.2504
 -13177323.30948 -10227252.30546
                  21332640.1724                                   21332635.4654
                                                                        50.0004
        36.5004
 -15992573.37947 -12417653.69945
                  22487949.2034                                   22487945.2504
                                                                        47.7504
        35.0004
   -414318.70747   -301053.33644
                  23231899.6484                                   23231893.0044
                                                                        44.2504
        27.0004
 -17727404.08248 -13765986.23046
                  21777932.1024                                   21777927.5704
                                                                        50.2504
        37.0004
  -5027157.72347  -3877832.98044
                  23351932.4224                                   23351927.7854
                                                                        42.7504
        26.5004
 09 10 13  0 29  0.0000000  0  8G02G04G05G13G29G23G10G25
 -10340918.15648  -8022470.21547
                  20643456.1334                                   20643449.5904
                                                                        51.7504
        42.7504
   2476482.34848   1945198.66045
                  22580455.6414                                   22580451.6454
                                                                        48.7504
        34.2504
 -12395895.99247  -9613319.19946
                  22509938.7344                                   22509934.7034
                                                                        47.2504
        36.5004
 -13234714.98448 -10271973.08646
                  21321718.7194                                   21321714.1564
                                                                        50.2504
        36.0004
 -16116316.08247 -12514076.58246
                  22464402.2424                                   22464397.8444
                                                                        47.7504
        36.0004
   -401776.63747   -291280.26644
                  23234285.7194                                   23234279.4454
                                                                        44.0004
        26.5004
 -17884935.00848 -13888737.60246
                  21747954.3984                                   21747950.7384
                                                                        49.0004
        38.0004
  -5166599.02047  -3986488.53544
                  23325396.9224                                   23325391.9064
                                                                        44.2504
        24.2504
 09 10 13  0 29 30.0000000  0  8G02G04G05G13G29G23G10G25
 -10385546.31248  -8057245.39847
                  20634963.7504                                   20634957.1914
                                                                        52.2504
        42.2504
   2499169.68048   1962877.09445
                  22584773.0164                                   22584769.1024
                                                                        49.0004
        33.7504
 -12563394.04748  -9743837.14546
                  22478065.2734                                   22478060.7154
                                                                        48.2504
        36.7504
 -13291424.70348 -10316162.44146
                  21310927.0474                                   21310922.0554
                                                                        50.7504
        36.5004
 -16239497.98448 -12610062.47745
                  22440961.3134                                   22440957.2234
                                                                        48.2504
        35.2504
   -388818.72347   -281183.18444
                  23236752.0164                                   23236745.5474
                                                                        44.0004
        26.5004
 -18042035.18048 -14011153.31246
                  21718059.4614                                   21718055.5664
                                                                        49.5004
        37.2504
  -5305568.85247  -4094776.70744
                  23298952.2344                                   23298948.1134
                                                                        42.7504
        25.7504
 09 10 13  0 30  0.0000000  0  8G02G04G05G13G29G23G10G25
 -10429575.59048  -8091553.92647
                  20626584.8364                                   20626578.6334
                                                                        52.0004
        42.7504
   2522181.64148   1980808.47345
                  22589151.8444                                   22589148.3674
                                                                        48.2504
        33.5004
 -12730558.05148  -9874094.78546
                  22446255.0004                                   22446250.6914
                                                                        48.0004
        37.2504
 -13347451.85948 -10359819.95746
                  21300265.4774                                   21300260.5084
                                                                        50.7504
        36.0004
 -16362115.59448 -12705608.65646
                  22417627.5944                                   22417624.2034
                                                                        48.7504
        36.0004
   -375445.73847   -270762.66444
                  23239296.3834                                   23239289.9344
                                                                        44.0004
        25.7504
 -18198700.87548 -14133230.46546
                  21688246.8204                                   21688243.0744
                                                                        49.2504
        37.7504
  -5444063.62547  -4202694.70344
                  23272596.9384                                   23272593.3554
                                                                        42.5004
        27.0004
 09 10 13  0 30 30.0000000  0  8G02G04G05G13G29G23G10G25
 -10473005.86348  -8125395.68747
                  20618320.4144                                   20618314.1994
                                                                        51.5004
        42.0004
   2545516.96148   1998991.83245
                  22593592.5084                                   22593588.6764
                                                                        49.0004
        33.5004
 -12897385.41848 -10004090.12546
                  22414508.8284                                   22414504.4024
                                                                        48.5004
        37.5004
 -13402796.22748 -10402945.40246
                  21289733.9534                                   21289729.1094
                                                                        50.7504
        36.0004
 -16484166.81648 -12800713.49646
                  22394402.2194                                   22394398.3094
                                                                        48.7504
        36.2504
   -361659.68047   -260020.27744
                  23241919.7814                                   23241913.8404
                                                                        42.5004
        26.7504
 -18354929.69148 -14254967.20746
                  21658517.5634                                   21658513.8444
                                                                        50.2504
        38.0004
  -5582080.14147  -4310240.02044
                  23246333.5474                                   23246329.6994
                                                                        43.0004
        26.2504
 09 10 13  0 31  0.0000000  0  8G02G04G05G13G29G23G10G25
 -10515840.04748  -8158772.97347
                  20610169.5784                                   20610163.2814
                                                                        52.5004
        42.2504
   2569171.40647   2017423.83645
                  22598093.7114                                   22598089.9884
                                                                        47.7504
        33.2504
 -13063875.84448 -10133822.90646
                  22382826.7194                                   22382822.5274
                                                                        48.7504
        37.0004
 -13457460.80548 -10445541.17646
                  21279331.5394                                   21279326.6844
                                                                        51.0004
        36.7504
 -16605651.79348 -12895377.11746
                  22371284.1954                                   22371280.8554
                                                                        48.0004
        36.2504
   -347464.99647   -248959.49644
                  23244621.2424                                   23244615.4534
                                                                        43.5004
        27.2504
 -18510721.23048 -14376363.21946
                  21628871.3754                                   21628867.6254
                                                                        50.0004
        38.0004
  -5719618.10547  -4417412.47744
                  23220160.7814                                   23220157.2934
                                                                        43.5004
        27.2504
 09 10 13  0 31 30.0000000  0  9G02G04G05G13G29G23G16G10G25
 -10558077.00448  -8191684.89547
                  20602131.7664                                   20602125.3834
                                                                        52.7504
        42.0004
   2593144.25847   2036103.95745
                  22602656.2194                                   22602652.5354
                                                                        47.7504
        33.0004
 -13230026.81648 -10263291.17646
                  22351209.0944                                   22351205.1254
                                                                        48.5004
        36.5004
 -13511445.39548 -10487607.09446
                  21269058.5784                                   21269053.7384
                                                                        51.0004
        36.0004
 -16726567.57848 -12989597.21146
                  22348274.7424                                   22348270.6844
                                                                        49.0004
        36.0004
   -332863.20347   -237581.52744
                  23247400.2034                                   23247393.8954
                                                                        43.0004
        27.5004
   4485576.41056   3529456.45353
                  24349825.4694                                   24349820.9454
                                                                        40.5004
        22.0004
 -18666073.04348 -14497416.57846
                  21599309.1334                                   21599305.2774
                                                                        50.0004
        38.0004
  -5856674.23447  -4524209.45344
                  23194080.2894                                   23194076.8204
                                                                        44.5004
        28.0004
 09 10 13  0 32  0.0000000  0  9G02G04G05G13G29G23G16G10G25
 -10599721.56648  -8224135.21947
                  20594207.2034                                   20594201.1054
                                                                        52.2504
        42.0004
   2617429.78147   2055027.70745
                  22607276.8284                                   22607273.2274
                                                                        47.5004
        33.0004
 -13395839.66848 -10392495.97346
                  22319655.8674                                   22319651.3594
                                                                        49.0004
        37.0004
 -13564754.51648 -10529146.66845
                  21258914.1484                                   21258909.2344
                                                                        50.5004
        35.5004
 -16846916.25848 -13083375.38345
                  22325373.2424                                   22325369.0084
                                                                        48.7504
        35.7504
   -317860.26647   -225890.96544
                  23250254.8204                                   23250248.5944
                                                                        43.5004
        26.5004
   4343438.36346   3418699.57443
                  24322777.2034                                   24322772.9304
                                                                        40.5004
        22.2504
 -18820986.37148 -14618128.25446
                  21569829.7504                                   21569825.8094
                                                                        49.5004
        38.0004
  -5993249.73447  -4630631.92244
                  23168090.8984                                   23168086.8874
                                                                        45.5004
        29.0004
 09 10 13  0 32 30.0000000  0  9G02G04G05G13G29G23G16G10G25
 -10640774.87948  -8256124.80946
                  20586395.0704                                   20586388.7274
                                                                        52.5004
        41.7504
   2642025.11348   2074192.88745
                  22611957.3984                                   22611953.8244
                                                                        48.5004
        32.7504
 -13561313.12548 -10521436.32846
                  22288167.4924                                   22288163.0784
                                                                        49.5004
        37.0004
 -13617389.50048 -10570160.94146
                  21248898.3284                                   21248893.6174
                                                                        50.7504
        36.0004
 -16966696.85248 -13176710.89546
                  22302579.7114                                   22302575.6564
                                                                        49.0004
        36.0004
   -302459.59047   -213890.46144
                  23253185.3364                                   23253179.0984
                                                                        43.2504
        26.2504
   4201781.73846   3308317.84043
                  24295820.8134                                   24295816.9884
                                                                        40.0004
        21.0004
 -18975459.88748 -14738497.21946
                  21540434.4534                                   21540430.5204
                                                                        49.7504
        37.5004
  -6129343.30947  -4736678.85944
                  23142193.3834                                   23142189.2304
                                                                        45.0004
        28.5004
 09 10 13  0 33  0.0000000  0  9G02G04G05G13G29G23G16G10G25
 -10681234.38748  -8287651.69947
                  20578695.8364                                   20578689.5474
                                                                        52.5004
        42.2504
   2666931.33647   2093600.32445
                  22616696.8364                                   22616693.2544
                                                                        47.0004
        32.5004
 -13726442.15248 -10650108.29746
                  22256744.4694                                   22256740.0514
                                                                        49.5004
        37.7504
 -13669348.14148 -10610648.16046
                  21239010.6484                                   21239005.8554
                                                                        50.2504
        36.0004
 -17085903.95348 -13269599.52746
                  22279895.3754                                   22279891.5864
                                                                        48.7504
        36.0004
   -286660.70747   -201579.66444
                  23256192.0864                                   23256185.1294
                                                                        44.5004
        26.7504
   4060612.40646   3198315.82443
                  24268956.8204                                   24268952.5594
                                                                        38.7504
        19.0004
 -19129488.79348 -14858519.74646
                  21511123.9534                                   21511119.8284
                                                                        49.7504
        38.0004
  -6264949.46147  -4842345.98044
                  23116387.9304                                   23116384.3714
                                                                        45.2504
        27.5004
 09 10 13  0 33 30.0000000  0  9G02G04G05G13G29G23G16G10G25
 -10721100.70748  -8318716.35947
                  20571109.5704                                   20571103.1174
                                                                        52.5004
        42.0004
   2692146.96548   2113248.86345
                  22621495.3364                                   22621491.5004
                                                                        48.0004
        33.5004
 -13891224.07048 -10778509.78146
                  22225387.4064                                   22225382.8594
                                                                        49.5004
        37.7504
 -13720630.62948 -10650608.53145
                  21229251.8524                                   21229247.3554
                                                                        50.0004
        35.5004
 -17204536.00448 -13362040.08245
                  22257320.1024                                   22257316.2774
                                                                        48.7504
        35.7504
   -270465.45347   -188960.00844
                  23259273.7504                                   23259266.7384
                                                                        44.7504
        25.5004
   3919933.30146   3088695.76643
                  24242186.3054                                   24242182.0084
                                                                        39.0004
        19.0004
 -19283070.28148 -14978193.64146
                  21481898.2274                                   21481894.5044
                                                                        50.0004
        38.5004
  -6400065.35547  -4947631.04744
                  23090676.8984                                   23090671.9844
                                                                        45.0004
        25.7504
 09 10 13  0 34  0.0000000  0  9G02G04G05G13G29G23G16G10G25
 -10760371.64848  -8349317.09447
                  20563636.6174                                   20563630.2664
                                                                        52.2504
        42.0004
   2717672.68447   2133139.03545
                  22626352.7894                                   22626349.2814
                                                                        47.0004
        33.5004
 -14055654.27048 -10906637.20346
                  22194097.5864                                   22194093.1954
                                                                        50.0004
        37.5004
 -13771235.53548 -10690040.93046
                  21219622.3284                                   21219617.3914
                                                                        50.2504
        36.0004
 -17322588.52348 -13454029.05545
                  22234855.7344                                   22234851.7274
                                                                        48.0004
        35.2504
   -253873.85947   -176031.49644
                  23262431.2664                                   23262424.5124
                                                                        44.5004
        24.7504
   3779749.59446   2979461.72343
                  24215510.4064                                   24215505.7464
                                                                        39.5004
        19.5004
 -19436199.89848 -15097515.41846
                  21452758.6174                                   21452754.5204
                                                                        50.0004
        38.5004
  -6534686.17647  -5052530.35244
                  23065058.8134                                   23065054.5744
                                                                        45.0004
        27.7504
 09 10 13  0 34 30.0000000  0  9G02G04G05G13G29G23G16G10G25
 -10799049.14148  -8379455.38747
                  20556276.3524                                   20556270.0474
                                                                        51.5004
        42.0004
   2743505.19547   2153268.27045
                  22631268.4384                                   22631264.8444
                                                                        47.0004
        33.0004
 -14219732.24248 -11034490.17246
                  22162874.1024                                   22162870.1024
                                                                        50.0004
        38.2504
 -13821165.34448 -10728947.27045
                  21210120.4224                                   21210116.1844
                                                                        50.0004
        35.2504
 -17440060.96147 -13545566.02045
                  22212501.0394                                   22212497.4614
                                                                        47.7504
        35.2504
   -236889.75847   -162797.14844
                  23265663.3834                                   23265656.5824
                                                                        44.0004
        25.7504
   3640062.15646   2870614.40643
                  24188929.0944                                   24188923.9734
                                                                        40.5004
        18.5004
 -19588877.03548 -15216484.61346
                  21423705.2114                                   21423701.3634
                                                                        49.7504
        38.2504
  -6668811.28547  -5157043.39544
                  23039535.4844                                   23039530.8914
                                                                        43.5004
        25.0004
 09 10 13  0 35  0.0000000  0  9G02G04G05G13G29G23G16G10G25
 -10837131.87948  -8409130.23847
                  20549029.1724                                   20549023.0124
                                                                        52.7504
        42.0004
   2769644.16047   2173636.30545
                  22636242.3674                                   22636238.8484
                                                                        47.2504
        32.2504
 -14383453.77748 -11162065.39846
                  22131718.9924                                   22131715.1764
                                                                        50.0004
        38.0004
 -13870418.71948 -10767326.52046
                  21200748.2664                                   21200743.6764
                                                                        50.7504
        36.2504
 -17556949.74648 -13636648.16845
                  22190258.3284                                   22190254.3594
                                                                        48.0004
        35.5004
   -219513.44947   -149257.19944
                  23268969.3834                                   23268962.8794
                                                                        44.0004
        24.5004
   3500875.78147   2762157.48443
                  24162443.0394                                   24162438.1684
                                                                        42.0004
        19.5004
 -19741097.45748 -15335097.91446
                  21394738.8284                                   21394734.4694
                                                                        50.2504
        38.5004
  -6802436.13347  -5261166.61744
                  23014106.9534                                   23014103.0274
                                                                        42.5004
        25.0004
 09 10 13  0 35 30.0000000  0  9G02G04G05G13G29G23G16G10G25
 -10874621.89848  -8438343.24246
                  20541895.5864                                   20541889.4494
                                                                        52.5004
        41.7504
   2796086.89147   2194241.03545
                  22641274.4924                                   22641270.6054
                                                                        46.5004
        32.5004
 -14546818.09448 -11289362.25446
                  22100631.7344                                   22100627.9884
                                                                        50.2504
        38.0004
 -13918997.64848 -10805180.23046
                  21191503.9064                                   21191499.5084
                                                                        50.7504
        36.0004
 -17673254.43748 -13727275.20746
                  22168125.9614                                   22168122.0164
                                                                        48.5004
        36.0004
   -201748.92647   -135414.74644
                  23272349.9144                                   23272343.8204
                                                                        42.7504
        27.7504
   3362191.41447   2654091.74643
                  24136052.2734                                   24136046.9654
                                                                        42.0004
        19.2504
 -19892860.36748 -15453354.72746
                  21365859.1644                                   21365855.1484
                                                                        50.2504
        38.0004
  -6935559.80547  -5364899.31644
                  22988774.5394                                   22988770.4924
                                                                        44.0004
        25.5004
 09 10 13  0 36  0.0000000  0  9G02G04G05G13G29G23G16G10G25
 -10911522.92648  -8467097.28946
                  20534873.3674                                   20534867.4104
                                                                        53.2504
        41.5004
   2822827.80947   2215078.10545
                  22646363.4534                                   22646359.5704
                                                                        47.2504
        32.7504
 -14709826.45348 -11416381.75446
                  22069612.6094                                   22069608.5864
                                                                        50.2504
        38.0004
 -13966906.39548 -10842511.71546
                  21182387.3524                                   21182382.4924
                                                                        50.5004
        36.0004
 -17788976.39148 -13817448.14545
                  22146105.0314                                   22146100.9654
                                                                        49.0004
        35.7504
   -183601.60247   -121274.03144
                  23275803.0554                                   23275797.2894
                                                                        43.7504
        26.2504
   3224008.52346   2546416.77343
                  24109757.4774                                   24109751.9264
                                                                        41.5004
        20.7504
 -20044167.19548 -15571256.16046
                  21337066.4844                                   21337061.9804
                                                                        50.2504
        38.0004
  -7068183.18047  -5468242.18044
                  22963537.7664                                   22963533.2424
                                                                        45.2504
        27.5004
 09 10 13  0 36 30.0000000  0  9G02G04G05G13G29G23G16G10G25
 -10947833.16448  -8495390.96546
                  20527963.5394                                   20527957.3204
                                                                        52.7504
        41.7504
   2849867.71147   2236148.14145
                  22651508.5634                                   22651505.4654
                                                                        46.0004
        32.7504
 -14872474.10248 -11543120.18446
                  22038661.7974                                   22038657.1254
                                                                        50.0004
        38.0004
 -14014143.46148 -10879319.81646
                  21173398.3054                                   21173393.5784
                                                                        51.2504
        36.0004
 -17904111.71148 -13907163.96145
                  22124195.4694                                   22124191.7774
                                                                        49.5004
        35.5004
   -165071.66847   -106835.18744
                  23279330.0164                                   23279324.1294
                                                                        44.7504
        28.0004
   3086331.89147   2439136.26643
                  24083558.1334                                   24083552.6844
                                                                        42.0004
        20.7504
 -20195013.09848 -15688798.42246
                  21308361.4454                                   21308357.1764
                                                                        50.5004
        38.5004
  -7200301.55547  -5571191.57044
                  22938396.4844                                   22938392.3674
                                                                        45.5004
        28.2504
 09 10 13  0 37  0.0000000  0 10G02G04G05G13G29G23G16G07G10G25
  -9408135.32448  -7295626.40647
                  20820958.5004                                   20820952.0904
                                                                        52.0004
        42.0004
   4452620.66847   3485046.52745
                  22956502.4694                                   22956498.7734
                                                                        45.0004
        33.2504
 -13459339.80948 -10441976.58246
                  22307571.9614                                   22307568.1524
                                                                        49.0004
        37.5004
 -12485291.07848  -9688006.27745
                  21464329.1724                                   21464324.6804
                                                                        50.5004
        35.5004
 -16443237.47748 -12768820.39146
                  22402190.8754                                   22402186.7974
                                                                        49.0004
        36.7504
   1429254.78947   1135497.07444
                  23582720.5084                                   23582713.8404
                                                                        44.5004
        27.0004
   4524585.78947   3559853.60943
                  24357249.3364                                   24357243.8164
                                                                        42.7504
        21.5004
   6010204.80156   4724612.96153
                  24565488.9844                                   24565484.7274
                                                                        40.2504
        22.7504
 -18769974.30548 -14578378.56646
                  21579537.3284                                   21579532.7974
                                                                        50.5004
        38.2504
  -5756491.25047  -4446144.55944
                  23213144.5084                                   23213139.9104
                                                                        45.5004
        29.0004
 09 10 13  0 37 30.0000000  0 10G02G04G05G13G29G23G16G07G10G25
  -9443272.93748  -7323006.36346
                  20814272.2664                                   20814266.0164
                                                                        51.5004
        41.5004
   4480245.87947   3506572.65245
                  22961759.3914                                   22961755.5984
                                                                        44.5004
        32.5004
 -13621265.84848 -10568152.71146
                  22276758.7734                                   22276754.6214
                                                                        49.2504
        38.0004
 -12531193.92648  -9723774.73045
                  21455594.2814                                   21455589.5744
                                                                        50.5004
        35.5004
 -16557200.25448 -12857622.53946
                  22380504.4694                                   22380500.4104
                                                                        48.5004
        37.0004
   1448536.09447   1150521.45744
                  23586389.3524                                   23586382.8014
                                                                        45.0004
        24.5004
   4387922.91846   3453363.08243
                  24331242.0314                                   24331237.2074
                                                                        41.7504
        21.7504
   5837759.16047   4590239.82044
                  24532673.6564                                   24532669.5904
                                                                        43.0004
        25.0004
 -18919899.23848 -14695203.19946
                  21551007.5234                                   21551003.2304
                                                                        50.7504
        38.5004
  -5887599.55947  -4548306.85944
                  23188195.4454                                   23188191.2464
                                                                        45.0004
        28.7504
 09 10 13  0 38  0.0000000  0 10G02G04G05G13G29G23G16G07G10G25
  -9477829.55148  -7349933.59446
                  20807695.9774                                   20807689.8714
                                                                        51.7504
        41.2504
   4508156.60247   3528321.25045
                  22967070.3444                                   22967066.4884
                                                                        44.2504
        31.5004
 -13782832.99248 -10694049.18746
                  22246013.6174                                   22246009.2194
                                                                        49.7504
        39.0004
 -12576435.46548  -9759027.86345
                  21446985.1024                                   21446980.2344
                                                                        50.5004
        35.2504
 -16670579.10548 -12945969.68046
                  22358929.0864                                   22358925.0904
                                                                        48.2504
        36.5004
   1468185.55947   1165832.70744
                  23590128.5944                                   23590121.6094
                                                                        44.0004
        25.5004
   4251766.04746   3347266.83643
                  24305332.9614                                   24305327.1374
                                                                        41.5004
        22.0004
   5665585.66447   4456078.73444
                  24499910.0634                                   24499905.8984
                                                                        43.7504
        27.5004
 -19069364.84448 -14811669.91046
                  21522565.0314                                   21522560.8484
                                                                        50.5004
        38.5004
  -6018203.76247  -4650076.35944
                  23163342.2114                                   23163338.2154
                                                                        44.7504
        28.5004
 09 10 13  0 38 30.0000000  0 10G02G04G05G13G29G23G16G07G10G25
  -9511803.04348  -7376406.44547
                  20801231.0554                                   20801224.9654
                                                                        52.5004
        42.0004
   4536353.94547   3550293.19145
                  22972436.6024                                   22972432.7814
                                                                        46.0004
        32.2504
 -13944033.84048 -10819660.23046
                  22215337.9534                                   22215333.7974
                                                                        49.2504
        38.5004
 -12621013.83648  -9793764.25846
                  21438502.4064                                   21438497.2114
                                                                        50.2504
        36.0004
 -16783369.21948 -13033858.08646
                  22337465.7974                                   22337461.9924
                                                                        49.0004
        36.5004
   1488203.32447   1181430.98843
                  23593937.4144                                   23593930.4064
                                                                        43.0004
        22.7504
   4116120.78946   3241569.28943
                  24279519.6644                                   24279514.9884
                                                                        40.5004
        21.7504
   5493690.34047   4322134.41844
                  24467198.7974                                   24467194.8874
                                                                        43.5004
        27.2504
 -19218366.26648 -14927774.90646
                  21494211.2114                                   21494207.0594
                                                                        50.7504
        38.0004
  -6148298.56247  -4751448.90644
                  23138586.0864                                   23138582.0984
                                                                        45.0004
        29.0004
 09 10 13  0 39  0.0000000  0 10G02G04G05G13G29G23G16G07G10G25
  -9545192.62948  -7402424.30547
                  20794877.2734                                   20794870.8874
                                                                        51.7504
        42.0004
   4564837.34447   3572488.02745
                  22977856.4924                                   22977853.2934
                                                                        45.5004
        32.7504
 -14104868.62148 -10944986.03146
                  22184732.1334                                   22184727.9844
                                                                        48.7504
        38.7504
 -12664928.60248  -9827983.55145
                  21430145.3914                                   21430140.3914
                                                                        49.5004
        35.5004
 -16895567.04348 -13121284.95346
                  22316115.1724                                   22316111.3674
                                                                        49.5004
        36.7504
   1508588.38746   1197315.44143
                  23597815.9304                                   23597810.1454
                                                                        41.5004
        22.0004
   3980990.65246   3136273.10243
                  24253805.2344                                   24253800.7304
                                                                        40.0004
        21.7504
   5322077.78947   4188410.45343
                  24434542.1174                                   24434538.1644
                                                                        42.0004
        23.2504
 -19366899.47348 -15043515.05146
                  21465946.0234                                   21465941.9694
                                                                        50.0004
        38.5004
  -6277880.38747  -4852421.73844
                  23113926.8914                                   23113922.8954
                                                                        44.0004
        27.5004
 09 10 13  0 39 30.0000000  0 10G02G04G05G13G29G23G16G07G10G25
  -9577995.12948  -7427984.68746
                  20788635.1644                                   20788629.0594
                                                                        52.0004
        41.7504
   4593608.61747   3594907.17645
                  22983331.4144                                   22983328.0434
                                                                        46.0004
        32.2504
 -14265330.59048 -11070021.34446
                  22154197.2584                                   22154193.3874
                                                                        49.5004
        38.5004
 -12708177.23448  -9861683.78545
                  21421915.3674                                   21421910.9614
                                                                        49.5004
        35.7504
 -17007167.78148 -13208246.55946
                  22294878.1174                                   22294874.2734
                                                                        49.5004
        36.5004
   1529341.99247   1213487.07043
                  23601765.7034                                   23601759.4924
                                                                        42.5004
        23.0004
   3846382.56346   3031383.74243
                  24228189.8204                                   24228185.8714
                                                                        39.0004
        21.5004
   5150754.88746   4054912.20343
                  24401940.5164                                   24401936.2814
                                                                        41.5004
        22.7504
 -19514959.44948 -15158886.44146
                  21437771.0944                                   21437767.1724
                                                                        50.5004
        38.7504
  -6406943.36747  -4952990.27744
                  23089367.3204                                   23089363.3554
                                                                        43.0004
        26.7504
 09 10 13  0 40  0.0000000  0 10G02G04G05G13G29G23G16G07G10G25
  -9610211.48448  -7453088.35246
                  20782504.8204                                   20782498.2154
                                                                        52.2504
        41.5004
   4622665.96147   3617549.23445
                  22988860.6414                                   22988857.5664
                                                                        46.5004
        32.5004
 -14425417.09848 -11194764.07046
                  22123733.8834                                   22123729.6334
                                                                        49.0004
        38.2504
 -12750760.04748  -9894865.19545
                  21413812.5784                                   21413807.3204
                                                                        49.2504
        35.5004
 -17118169.53548 -13294741.44146
                  22273755.3364                                   22273751.4534
                                                                        49.5004
        37.0004
   1550461.66047   1229943.94544
                  23605785.2194                                   23605778.6804
                                                                        43.7504
        26.0004
   3712298.62546   2926902.75843
                  24202674.2664                                   24202670.7584
                                                                        38.2504
        20.5004
   4979725.24246   3921642.44943
                  24369394.1174                                   24369390.7034
                                                                        39.5004
        22.0004
 -19662543.98048 -15273887.35546
                  21409686.7664                                   21409682.6454
                                                                        50.5004
        39.0004
  -6535485.38347  -5053152.84044
                  23064906.2584                                   23064902.2464
                                                                        43.7504
        26.7504
 09 10 13  0 40 30.0000000  0 10G02G04G05G13G29G23G16G07G10G25
  -9641844.98848  -7477737.83646
                  20776485.1884                                   20776478.6054
                                                                        52.5004
        41.5004
   4652005.05947   3640410.84445
                  22994444.1484                                   22994440.6214
                                                                        46.7504
        31.7504
 -14585128.19148 -11319214.27046
                  22093341.9144                                   22093338.0434
                                                                        48.2504
        38.2504
 -12792681.59448  -9927531.33245
                  21405835.0234                                   21405830.0984
                                                                        48.5004
        35.5004
 -17228573.16048 -13380770.24646
                  22252746.3594                                   22252742.3134
                                                                        48.7504
        37.0004
   1571942.84047   1246682.50044
                  23609873.1954                                   23609866.6294
                                                                        44.5004
        27.7504
   3578738.32846   2822829.80143
                  24177259.0394                                   24177255.1684
                                                                        38.5004
        20.5004
   4808989.29746   3788601.50443
                  24336904.9384                                   24336899.8054
                                                                        41.2504
        22.7504
 -19809653.46148 -15388518.09846
                  21381692.7504                                   21381688.4304
                                                                        51.0004
        38.7504
  -6663506.48047  -5152909.52744
                  23040544.8134                                   23040540.5594
                                                                        44.5004
        27.5004
 09 10 13  0 41  0.0000000  0 10G02G04G05G13G29G23G16G07G10G25
  -9672898.34848  -7501935.26246
                  20770575.7344                                   20770569.8164
                                                                        51.7504
        41.2504
   4681621.77047   3663488.78545
                  23000080.0944                                   23000076.3874
                                                                        47.2504
        32.2504
 -14744463.96148 -11443372.00046
                  22063021.0004                                   22063016.7544
                                                                        48.5004
        38.0004
 -12833944.93748  -9959684.59446
                  21397982.5164                                   21397978.2814
                                                                        49.0004
        36.0004
 -17338379.17248 -13466333.36346
                  22231850.8204                                   22231847.3284
                                                                        48.7504
        37.0004
   1593780.75047   1263699.06344
                  23614028.8984                                   23614021.9264
                                                                        43.7504
        27.7504
   3445702.03146   2719165.21543
                  24151943.9774                                   24151939.3094
                                                                        40.5004
        21.7504
   4638547.84047   3655789.98843
                  24304470.6724                                   24304465.7664
                                                                        42.2504
        23.7504
 -19956287.84048 -15502778.62946
                  21353789.1884                                   21353785.2424
                                                                        50.5004
        38.5004
  -6791006.77047  -5252260.37944
                  23016282.4534                                   23016278.3054
                                                                        43.5004
        27.0004
 09 10 13  0 41 30.0000000  0 10G02G04G05G13G29G23G16G07G10G25
  -9703371.46548  -7525680.53946
                  20764776.9774                                   20764770.4654
                                                                        51.5004
        41.5004
   4711515.37947   3686782.50845
                  23005768.5234                                   23005764.8754
                                                                        47.5004
        31.0004
 -14903421.65648 -11567235.13346
                  22032772.7894                                   22032768.0354
                                                                        49.2504
        39.0004
 -12874549.39548  -9991324.42645
                  21390255.8444                                   21390251.1214
                                                                        48.2504
        35.0004
 -17447585.11348 -13551428.89146
                  22211069.6564                                   22211065.6564
                                                                        49.0004
        37.0004
   1615974.08247   1280992.51244
                  23618251.6484                                   23618245.3134
                                                                        43.2504
        25.0004
   3313193.84446   2615912.13343
                  24126728.2734                                   24126722.8794
                                                                        41.7504
        22.0004
   4468405.77347   3523211.78944
                  24272094.2584                                   24272088.9964
                                                                        43.5004
        25.0004
 -20102443.68748 -15616666.27746
                  21325976.8674                                   21325972.6454
                                                                        51.0004
        39.0004
  -6917982.79747  -5351202.73844
                  22992119.3674                                   22992115.0634
                                                                        44.7504
        28.0004
 09 10 13  0 42  0.0000000  0 10G02G04G05G13G29G23G16G07G10G25
  -9733265.84848  -7548974.87546
                  20759088.2974                                   20759081.8204
                                                                        51.7504
        41.7504
   4741682.87547   3710289.63345
                  23011509.2974                                   23011505.3364
                                                                        47.0004
        31.2504
 -15061998.85248 -11690801.78546
                  22002596.2424                                   22002592.1764
                                                                        49.5004
        39.2504
 -12914497.48448 -10022452.80545
                  21382653.7664                                   21382649.4804
                                                                        49.2504
        35.2504
 -17556189.67248 -13636055.79746
                  22190402.8364                                   22190398.6254
                                                                        49.0004
        36.2504
   1638519.53546   1298560.29343
                  23622541.7974                                   23622535.7814
                                                                        40.7504
        22.5004
   3181215.00847   2513071.48443
                  24101613.2584                                   24101608.1844
                                                                        42.5004
        22.0004
   4298564.91047   3390868.25044
                  24239774.3754                                   24239769.7704
                                                                        43.7504
        24.7504
 -20248120.49248 -15730180.66046
                  21298255.2734                                   21298251.2034
                                                                        50.5004
        38.7504
  -7044433.55547  -5449735.75844
                  22968056.8204                                   22968052.6564
                                                                        45.5004
        29.0004
 09 10 13  0 42 30.0000000  0 10G02G04G05G13G29G23G16G07G10G25
  -9762582.99248  -7571819.40246
                  20753509.4224                                   20753503.1174
                                                                        52.5004
        41.2504
   4772122.48047   3734008.81345
                  23017301.5944                                   23017298.0084
                                                                        47.2504
        30.7504
 -15220195.00048 -11814071.49646
                  21972492.4144                                   21972487.9344
                                                                        49.7504
        39.5004
 -12953790.26248 -10053070.55945
                  21375176.9454                                   21375172.4414
                                                                        49.0004
        35.5004
 -17664192.66448 -13720213.95746
                  22169850.5474                                   22169846.3404
                                                                        49.0004
        36.2504
   1661414.35946   1316400.35943
                  23626898.1254                                   23626892.2774
                                                                        39.7504
        22.0004
   3049766.93447   2410644.41443
                  24076599.8754                                   24076593.5554
                                                                        42.0004
        21.2504
   4129028.29747   3258761.84044
                  24207512.1484                                   24207508.0004
                                                                        42.5004
        25.2504
 -20393316.63348 -15843320.50046
                  21270625.2664                                   21270621.4184
                                                                        51.0004
        39.0004
  -7170357.33247  -5547858.16444
                  22944094.5394                                   22944090.0824
                                                                        44.0004
        28.5004
 09 10 13  0 43  0.0000000  0 10G02G04G05G13G29G23G16G07G10G25
  -9791325.28948  -7594216.00046
                  20748040.2274                                   20748033.4654
                                                                        52.5004
        41.7504
   4802830.11347   3757936.81645
                  23023145.5084                                   23023141.5704
                                                                        47.0004
        31.2504
 -15378009.23848 -11937043.59846
                  21942461.4144                                   21942457.1454
                                                                        49.0004
        38.7504
 -12992430.80148 -10083180.05545
                  21367823.8444                                   21367818.8794
                                                                        48.7504
        35.0004
 -17771593.80148 -13803903.13746
                  22149412.5864                                   22149408.7544
                                                                        48.7504
        36.5004
   1684654.22746   1334509.33243
                  23631320.8914                                   23631313.9614
                                                                        41.0004
        21.7504
   2918850.80546   2308631.84443
                  24051687.2194                                   24051680.6564
                                                                        41.0004
        19.0004
   3959797.35946   3126893.64144
                  24175308.6174                                   24175304.9064
                                                                        40.7504
        25.5004
 -20538031.71548 -15956085.49646
                  21243086.8674                                   21243082.5984
                                                                        50.5004
        39.0004
  -7295753.59447  -5645569.52744
                  22920232.5864                                   22920227.7304
                                                                        43.2504
        28.5004
 09 10 13  0 43 30.0000000  0 10G02G04G05G13G29G23G16G07G10G25
  -9819494.62948  -7616166.13746
                  20742679.4064                                   20742673.0664
                                                                        51.7504
        41.7504
   4833802.92647   3782071.45745
                  23029039.1254                                   23029035.6724
                                                                        46.5004
        31.5004
 -15535440.53148 -12059717.30546
                  21912503.4774                                   21912499.3014
                                                                        50.2504
        39.2504
 -13030422.21548 -10112783.76645
                  21360594.2344                                   21360589.4304
                                                                        49.7504
        35.5004
 -17878392.48448 -13887122.87546
                  22129089.2814                                   22129085.6804
                                                                        48.7504
        36.5004
   1708235.75847   1352884.60543
                  23635809.0394                                   23635801.8164
                                                                        44.0004
        22.7504
   2788467.68046   2207034.56643
                  24026876.1024                                   24026869.7344
                                                                        39.2504
        19.2504
   3790874.11746   2995265.25443
                  24143162.9304                                   24143159.6954
                                                                        39.5004
        23.5004
 -20682264.59448 -16068474.73446
                  21215640.1334                                   21215636.3754
                                                                        50.7504
        39.0004
  -7420621.38747  -5742869.10544
                  22896470.8204                                   22896466.2624
                                                                        45.0004
        28.7504
 09 10 13  0 44  0.0000000  0 10G02G04G05G13G29G23G16G07G10G25
  -9847092.89548  -7637671.27046
                  20737427.6334                                   20737421.2344
                                                                        50.7504
        41.5004
   4865038.35547   3806410.73845
                  23034983.0474                                   23034979.3984
                                                                        45.7504
        30.5004
 -15692487.71948 -12182091.72346
                  21882618.2424                                   21882613.9384
                                                                        50.2504
        39.2504
 -13067765.51248 -10141882.44945
                  21353488.0314                                   21353483.4774
                                                                        49.7504
        35.0004
 -17984588.45748 -13969872.97746
                  22108881.2034                                   22108877.1334
                                                                        48.5004
        36.5004
   1732156.10547   1371523.81344
                  23640360.7734                                   23640354.1764
                                                                        43.2504
        25.2504
   2658619.17646   2105853.88743
                  24002166.2424                                   24002161.0124
                                                                        38.5004
        19.5004
   3622261.18047   2863878.62544
                  24111078.0634                                   24111073.5984
                                                                        42.0004
        25.5004
 -20826014.26248 -16180487.44546
                  21188285.6254                                   21188281.7774
                                                                        50.0004
        39.0004
  -7544959.25447  -5839755.74244
                  22872809.9844                                   22872805.6374
                                                                        44.5004
        29.5004
 09 10 13  0 44 30.0000000  0 10G02G04G05G13G29G23G16G07G10G25
  -9874119.59048  -7658731.02346
                  20732284.5234                                   20732278.1214
                                                                        51.2504
        41.2504
   4896535.76647   3830954.15645
                  23040976.5164                                   23040973.7424
                                                                        45.7504
        31.0004
 -15849147.42248 -12304164.19146
                  21852806.7194                                   21852802.7774
                                                                        50.0004
        39.5004
 -13104460.99648 -10170476.33245
                  21346505.1334                                   21346500.2304
                                                                        49.7504
        35.5004
 -18090178.65648 -14052151.04346
                  22088788.1954                                   22088783.9144
                                                                        49.0004
        36.2504
   1756413.79747   1390425.88744
                  23644976.9144                                   23644970.3874
                                                                        43.5004
        26.2504
   2529308.87146   2005092.62543
                  23977558.6724                                   23977554.4534
                                                                        38.5004
        19.0004
   3453962.92247   2732737.15644
                  24079051.6024                                   24079047.1524
                                                                        43.2504
        26.0004
 -20969277.48048 -16292121.10246
                  21161023.6644                                   21161019.6414
                                                                        50.2504
        39.2504
  -7668764.09447  -5936227.03144
                  22849250.1254                                   22849246.5274
                                                                        44.2504
        27.5004
 09 10 13  0 45  0.0000000  0 10G02G04G05G13G29G23G16G07G10G25
  -9900576.07048  -7679346.46946
                  20727249.9144                                   20727243.4064
                                                                        51.0004
        41.5004
   4928292.69947   3855699.78545
                  23047019.7194                                   23047016.4694
                                                                        46.0004
        30.0004
 -16005418.21548 -12425933.60546
                  21823069.2194                                   21823065.7624
                                                                        49.7504
        39.0004
 -13140509.72748 -10198566.25845
                  21339645.3284                                   21339640.1564
                                                                        50.0004
        35.2504
 -18195162.19548 -14133956.38346
                  22068810.3914                                   22068806.6764
                                                                        48.2504
        36.2504
   1781005.69947   1409588.33644
                  23649656.4064                                   23649650.3714
                                                                        42.5004
        25.7504
   2400538.58646   1904752.19543
                  23953055.3284                                   23953051.1374
                                                                        38.2504
        20.7504
   3285981.79347   2601842.78144
                  24047085.8364                                   24047081.0434
                                                                        43.0004
        25.0004
 -21112052.79748 -16403374.57846
                  21133854.3754                                   21133850.6804
                                                                        50.2504
        39.2504
  -7792034.23847  -6032281.68444
                  22825792.8594                                   22825789.0204
                                                                        43.0004
        27.7504
 09 10 13  0 45 30.0000000  0 10G02G04G05G13G29G23G16G07G10G25
  -9926467.05948  -7699521.26646
                  20722323.2274                                   20722317.0394
                                                                        51.0004
        41.5004
   4960303.53547   3880643.26245
                  23053111.3674                                   23053108.2114
                                                                        46.0004
        30.5004
 -16161302.17248 -12547401.60246
                  21793405.8204                                   21793401.6174
                                                                        50.2504
        39.5004
 -13175917.80148 -10226156.96945
                  21332907.2344                                   21332902.6294
                                                                        50.0004
        35.0004
 -18299541.43448 -14215290.83646
                  22048947.8984                                   22048943.7344
                                                                        49.5004
        36.5004
   1805925.69946   1429006.44543
                  23654398.2734                                   23654392.8524
                                                                        41.2504
        22.7504
   2272306.60946   1804831.21943
                  23928653.5634                                   23928649.2934
                                                                        40.0004
        22.0004
   3118317.50047   2471195.28544
                  24015180.2344                                   24015175.4104
                                                                        43.0004
        25.5004
 -21254342.05948 -16514249.30946
                  21106777.7734                                   21106773.4494
                                                                        50.0004
        39.2504
  -7914771.47747  -6127921.06644
                  22802436.2584                                   22802432.2344
                                                                        43.0004
        28.2504
 09 10 13  0 46  0.0000000  0 10G02G04G05G13G29G23G16G07G10G25
  -9951794.00048  -7719256.57446
                  20717503.5314                                   20717497.4964
                                                                        51.5004
        41.2504
   4992565.85547   3905782.69945
                  23059250.6174                                   23059247.3204
                                                                        45.0004
        30.0004
 -16316797.25448 -12668566.59446
                  21763816.2664                                   21763811.8484
                                                                        50.0004
        39.2504
 -13210686.99648 -10253249.83645
                  21326291.2894                                   21326286.3484
                                                                        49.7504
        35.2504
 -18403315.53148 -14296153.75846
                  22029200.2034                                   22029195.9964
                                                                        49.2504
        37.0004
   1831170.93846   1448677.92643
                  23659202.5864                                   23659196.3984
                                                                        40.5004
        22.5004
   2144614.53946   1705330.91043
                  23904354.3754                                   23904350.3014
                                                                        38.2504
        22.7504
   2950972.64847   2340796.70743
                  23983335.7274                                   23983330.6844
                                                                        42.7504
        22.5004
 -21396144.06248 -16624744.37146
                  21079793.6804                                   21079789.1844
                                                                        50.5004
        39.0004
  -8036974.27347  -6223144.02344
                  22779182.3204                                   22779178.4144
                                                                        43.5004
        29.5004
 09 10 13  0 46 30.0000000  0 10G02G04G05G13G29G23G16G07G10G25
  -9976558.39848  -7738553.52046
                  20712791.1414                                   20712785.0554
                                                                        51.0004
        41.2504
   5025077.45347   3931116.40644
                  23065437.5004                                   23065433.8954
                                                                        44.5004
        29.7504
 -16471902.22348 -12789427.58646
                  21734300.9224                                   21734296.1484
                                                                        49.5004
        39.5004
 -13244818.30948 -10279845.65645
                  21319796.2034                                   21319791.1524
                                                                        48.2504
        35.5004
 -18506483.53148 -14376544.39546
                  22009567.9844                                   22009564.0904
                                                                        49.5004
        36.5004
   1856738.75047   1468600.82043
                  23664067.9694                                   23664061.8754
                                                                        42.0004
        22.7504
   2017464.79346   1606253.25043
                  23880158.2734                                   23880154.2624
                                                                        38.5004
        22.0004
   2783950.06347   2210649.24644
                  23951551.8594                                   23951547.4774
                                                                        43.0004
        25.5004
 -21537456.91048 -16734858.27046
                  21052902.6564                                   21052898.5314
                                                                        51.0004
        39.5004
  -8158641.10547  -6317949.30944
                  22756030.0474                                   22756026.2344
                                                                        43.7504
        28.5004
 09 10 13  0 47  0.0000000  0 10G02G04G05G13G29G23G16G07G10G25
 -10000762.13348  -7757413.55546
                  20708185.4304                                   20708179.3054
                                                                        51.0004
        41.2504
   5057835.19547   3956641.90645
                  23071671.2974                                   23071667.1994
                                                                        46.2504
        31.0004
 -16626615.41448 -12909983.32046
                  21704859.7114                                   21704855.4804
                                                                        50.2504
        39.0004
 -13278314.78548 -10305946.78946
                  21313421.7034                                   21313417.3014
                                                                        48.5004
        36.0004
 -18609045.11348 -14456462.50446
                  21990051.0634                                   21990047.0744
                                                                        48.7504
        37.0004
   1882625.41447   1488772.21543
                  23668994.7114                                   23668987.6094
                                                                        44.0004
        22.5004
   1890858.21146   1507598.81343
                  23856066.5864                                   23856061.5044
                                                                        40.5004
        23.0004
   2617251.68846   2080754.44144
                  23919830.3444                                   23919826.2544
                                                                        40.5004
        25.2504
 -21678280.07048 -16844590.60546
                  21026104.8834                                   21026100.7154
                                                                        50.5004
        39.2504
  -8279771.02047  -6412336.23844
                  22732979.8984                                   22732975.8444
                                                                        43.5004
        28.7504
 09 10 13  0 47 30.0000000  0 10G02G04G05G13G29G23G16G07G10G25
 -10024408.39548  -7775839.23046
                  20703685.7034                                   20703679.7074
                                                                        50.2504
        41.0004
   5090835.16047   3982356.16845
                  23077951.0784                                   23077947.1214
                                                                        47.0004
        30.2504
 -16780937.22348 -13030234.07846
                  21675493.0554                                   21675488.9304
                                                                        48.7504
        39.5004
 -13311179.18048 -10331555.39145
                  21307167.8914                                   21307163.4304
                                                                        48.0004
        35.0004
 -18711001.02748 -14535908.66446
                  21970649.5164                                   21970645.4574
                                                                        50.0004
        36.2504
   1908826.46147   1509188.60543
                  23673980.2664                                   23673973.0634
                                                                        43.5004
        22.0004
   1764794.64846   1409367.46943
                  23832077.3204                                   23832072.8134
                                                                        41.5004
        22.7504
   2450878.31646   1951112.91444
                  23888169.9694                                   23888166.6844
                                                                        41.0004
        24.7504
 -21818613.77348 -16953941.55546
                  20999400.1564                                   20999396.2974
                                                                        49.2504
        39.7504
  -8400364.24647  -6506304.98044
                  22710032.2734                                   22710027.3834
                                                                        44.0004
        29.2504
 09 10 13  0 48  0.0000000  0 10G02G04G05G13G29G23G16G07G10G25
  -8472078.14848  -6566231.23046
                  20999084.2344                                   20999078.0984
                                                                        51.5004
        41.2504
   6699493.84447   5235856.43845
                  23384068.6094                                   23384065.0664
                                                                        45.5004
        30.5004
 -15359441.38748 -11922574.97346
                  21945994.5314                                   21945990.2894
                                                                        49.2504
        39.5004
 -11767992.86747  -9129072.54745
                  21600826.7894                                   21600821.8984
                                                                        47.7504
        34.2504
 -17236927.26248 -13387279.75046
                  22251156.1484                                   22251152.4264
                                                                        49.2504
        36.2504
   3510758.15247   2757447.08643
                  23978818.2584                                   23978810.7074
                                                                        42.0004
        22.0004
   3214700.07847   2539163.94543
                  24107985.2734                                   24107980.5594
                                                                        42.2504
        22.7504
   3860258.59847   3049331.39144
                  24156366.4844                                   24156362.6374
                                                                        42.2504
        26.2504
 -20383031.92248 -15835306.34846
                  21272582.2584                                   21272577.8674
                                                                        49.7504
        39.7504
  -6944995.27347  -5372251.22744
                  22986979.4304                                   22986974.8094
                                                                        44.0004
        29.7504
 09 10 13  0 48 30.0000000  0 10G02G04G05G13G29G23G16G07G10G25
  -8494615.17648  -6583792.56246
                  20994795.4144                                   20994789.2854
                                                                        50.7504
        41.0004
   6732969.84047   5261941.59044
                  23390438.4454                                   23390434.9654
                                                                        45.5004
        29.2504
 -15512977.13348 -12042213.20746
                  21916777.5314                                   21916773.4734
                                                                        49.7504
        40.0004
 -11799601.19947  -9153702.41845
                  21594811.6334                                   21594806.9224
                                                                        47.7504
        35.0004
 -17337670.33648 -13465780.84046
                  22231985.6724                                   22231981.6054
                                                                        50.0004
        37.5004
   3537578.05946   2778345.62943
                  23983921.4844                                   23983915.0314
                                                                        41.5004
        22.5004
   3089726.85947   2441782.22743
                  24084203.5234                                   24084198.6334
                                                                        42.5004
        23.2504
   3694543.01647   2920202.41044
                  24124832.0704                                   24124827.9414
                                                                        43.0004
        27.0004
 -20522383.11348 -15943891.69546
                  21246064.7974                                   21246060.4534
                                                                        49.0004
        39.0004
  -7064511.90647  -5465381.07044
                  22964236.0004                                   22964231.7624
                                                                        44.5004
        29.7504
 09 10 13  0 49  0.0000000  0 10G02G04G05G13G29G23G16G07G10G25
  -8516600.47748  -6600923.96546
                  20990611.8984                                   20990605.9224
                                                                        51.5004
        41.0004
   6766679.71547   5288209.00044
                  23396853.2344                                   23396849.9574
                                                                        45.0004
        29.7504
 -15666118.47748 -12161544.12146
                  21887636.0164                                   21887632.0784
                                                                        49.5004
        40.2504
 -11830584.30548  -9177845.10245
                  21588915.8284                                   21588911.3324
                                                                        48.0004
        34.5004
 -17437807.08648 -13543809.47346
                  22212930.0864                                   22212926.6764
                                                                        49.7504
        37.7504
   3564702.42246   2799481.39843
                  23989082.8284                                   23989076.9884
                                                                        40.7504
        22.5004
   2965300.66847   2344826.78143
                  24060526.2734                                   24060520.7544
                                                                        42.0004
        22.0004
   3529159.73046   2791332.33644
                  24093360.6724                                   24093356.4694
                                                                        41.7504
        27.2504
 -20661242.12948 -16052093.52046
                  21219640.9224                                   21219636.6374
                                                                        49.5004
        39.5004
  -7183488.63347  -5558090.20344
                  22941595.3984                                   22941590.8984
                                                                        44.5004
        29.2504
 09 10 13  0 49 30.0000000  0 10G02G04G05G13G29G23G16G07G10G25
  -8538036.03948  -6617627.00446
                  20986532.9694                                   20986526.7384
                                                                        51.5004
        41.2504
   6800621.11347   5314656.81344
                  23403312.7974                                   23403308.9964
                                                                        45.5004
        29.0004
 -15818863.53148 -12280566.23446
                  21858569.6334                                   21858565.6764
                                                                        50.0004
        40.2504
 -11860944.94947  -9201502.74245
                  21583138.3364                                   21583133.4574
                                                                        47.0004
        34.7504
 -17537336.16048 -13621364.60546
                  22193990.4144                                   22193986.5514
                                                                        49.7504
        37.0004
   3592127.93446   2820851.85543
                  23994301.7814                                   23994295.3834
                                                                        40.7504
        22.5004
   2841422.89147   2248298.66043
                  24036952.5474                                   24036947.1334
                                                                        42.0004
        21.2504
   3364110.89847   2662722.87944
                  24061953.0704                                   24061948.5944
                                                                        43.5004
        25.5004
 -20799607.22748 -16159910.48046
                  21193310.5704                                   21193306.4384
                                                                        48.7504
        40.0004
  -7301924.30147  -5650377.72344
                  22919058.2584                                   22919053.9384
                                                                        44.5004
        29.0004
 09 10 13  0 50  0.0000000  0 10G02G04G05G13G29G23G16G07G10G25
  -8558924.40248  -6633903.65246
                  20982557.9224                                   20982551.2974
                                                                        50.7504
        41.0004
   6834789.91047   5341281.82445
                  23409814.6804                                   23409810.9414
                                                                        45.0004
        30.2504
 -15971212.19148 -12399279.47746
                  21829578.6954                                   21829574.5434
                                                                        50.5004
        40.0004
 -11890686.56248  -9224678.01645
                  21577478.5004                                   21577474.0124
                                                                        48.0004
        34.5004
 -17636258.49248 -13698446.94146
                  22175165.9694                                   22175162.1644
                                                                        50.2504
        37.2504
   3619850.41047   2842453.69943
                  23999577.0704                                   23999571.6054
                                                                        42.0004
        23.5004
   2718093.77046   2152198.02343
                  24013484.4144                                   24013478.4534
                                                                        41.5004
        20.7504
   3199397.80547   2534375.04344
                  24030609.2814                                   24030604.2974
                                                                        43.5004
        25.5004
 -20937478.51248 -16267342.65246
                  21167074.6954                                   21167070.4734
                                                                        49.5004
        39.5004
  -7419818.96147  -5742243.67244
                  22896622.9614                                   22896618.5314
                                                                        44.2504
        28.5004
 09 10 13  0 50 30.0000000  0 10G02G04G05G13G29G23G16G07G10G25
  -8579268.27048  -6649756.02046
                  20978686.6334                                   20978680.6254
                                                                        50.5004
        41.5004
   6869182.99647   5368081.62944
                  23416359.5474                                   23416355.9494
                                                                        46.7504
        28.5004
 -16123164.19148 -12517683.62946
                  21800663.5004                                   21800659.1334
                                                                        50.5004
        40.2504
 -11919811.39847  -9247372.70345
                  21571936.4454                                   21571931.9414
                                                                        47.7504
        34.7504
 -17734573.95348 -13775056.38346
                  22156457.4534                                   22156453.1954
                                                                        49.5004
        36.5004
   3647866.48047   2864284.35243
                  24004908.4144                                   24004902.5514
                                                                        42.0004
        22.2504
   2595313.98446   2056525.45743
                  23990119.8444                                   23990114.5664
                                                                        40.7504
        20.2504
   3035022.38747   2406290.30544
                  23999329.0944                                   23999324.2034
                                                                        42.5004
        25.2504
 -21074855.87548 -16374389.94946
                  21140932.6254                                   21140928.7424
                                                                        49.5004
        40.0004
  -7537172.20747  -5833687.73844
                  22874291.8444                                   22874286.8834
                                                                        45.0004
        28.2504
 09 10 13  0 51  0.0000000  0 10G02G04G05G13G29G23G16G07G10G25
  -8599070.20348  -6665186.09846
                  20974918.2734                                   20974912.2774
                                                                        51.0004
        40.7504
   6903797.12547   5395053.67244
                  23422946.1094                                   23422942.1804
                                                                        45.5004
        29.2504
 -16274718.98848 -12635778.27346
                  21771823.3054                                   21771818.6294
                                                                        49.7504
        39.5004
 -11948323.08247  -9269589.59845
                  21566510.8914                                   21566506.4804
                                                                        47.5004
        34.7504
 -17832283.15648 -13851193.42246
                  22137864.2034                                   22137859.7854
                                                                        49.2504
        37.0004
   3676171.49647   2886340.17643
                  24010295.2424                                   24010288.7854
                                                                        43.0004
        21.7504
   2473084.01646   1961281.39843
                  23966860.3204                                   23966854.5744
                                                                        40.5004
        19.5004
   2870986.21946   2278469.94943
                  23968113.9694                                   23968109.3134
                                                                        41.5004
        23.0004
 -21211738.66848 -16481051.85946
                  21114884.7274                                   21114880.2194
                                                                        50.2504
        39.5004
  -7653983.64147  -5924709.62544
                  22852062.9454                                   22852058.9654
                                                                        44.5004
        28.5004
 09 10 13  0 51 30.0000000  0 10G02G04G05G13G29G23G16G07G10G25
  -8618331.32848  -6680194.78546
                  20971253.3524                                   20971247.1174
                                                                        50.5004
        40.7504
   6938630.34447   5422196.42644
                  23429574.6414                                   23429571.1804
                                                                        46.2504
        28.0004
 -16425874.30148 -12753561.63346
                  21743059.4064                                   21743054.8244
                                                                        50.2504
        40.5004
 -11976222.69148  -9291329.54745
                  21561201.7974                                   21561197.1454
                                                                        48.0004
        34.5004
 -17929384.67648 -13926856.93046
                  22119386.0234                                   22119382.3204
                                                                        50.2504
        37.0004
   3704763.56647   2908619.64843
                  24015736.0704                                   24015729.7074
                                                                        42.5004
        22.7504
   2351406.03946   1866467.39543
                  23943704.7664                                   23943700.0084
                                                                        38.5004
        19.5004
   2707292.88346   2150916.73044
                  23936963.8524                                   23936959.9184
                                                                        40.0004
        25.2504
 -21348124.86348 -16587326.82046
                  21088931.2344                                   21088927.2034
                                                                        49.2504
        40.0004
  -7770251.31647  -6015307.78944
                  22829938.2974                                   22829933.9774
                                                                        44.5004
        28.0004
 09 10 13  0 52  0.0000000  0 10G02G04G05G13G29G23G16G07G10G25
  -8637055.08648  -6694784.74246
                  20967690.5634                                   20967684.0984
                                                                        51.5004
        41.0004
   6973678.23847   5449506.43045
                  23436243.9304                                   23436240.7734
                                                                        44.7504
        30.0004
 -16576630.53548 -12871034.02046
                  21714371.2664                                   21714366.7544
                                                                        51.0004
        40.2504
 -12003514.12547  -9312595.59845
                  21556008.1804                                   21556003.8404
                                                                        47.5004
        34.0004
 -18025879.89548 -14002048.00046
                  22101023.6094                                   22101019.9844
                                                                        49.5004
        37.5004
   3733637.60946   2931118.83243
                  24021230.0864                                   24021224.4884
                                                                        40.7504
        19.2504
   2230280.05546   1772083.52743
                  23920655.3914                                   23920651.0234
                                                                        40.5004
        19.7504
   2543942.58247   2023630.80144
                  23905880.3444                                   23905875.6564
                                                                        43.5004
        27.7504
 -21484015.29748 -16693215.46946
                  21063072.1334                                   21063067.9184
                                                                        50.0004
        40.2504
  -7885975.92247  -6105482.80544
                  22807915.9224                                   22807912.3674
                                                                        45.2504
        29.0004
 09 10 13  0 52 30.0000000  0 10G02G04G05G13G29G23G16G07G10G25
  -8655242.30948  -6708956.59446
                  20964229.2504                                   20964223.0784
                                                                        50.7504
        40.5004
   7008939.09047   5476982.27744
                  23442953.8674                                   23442950.9804
                                                                        44.5004
        29.5004
 -16726985.63348 -12988193.84046
                  21685759.6804                                   21685755.3134
                                                                        51.5004
        39.7504
 -12030199.16848  -9333389.13345
                  21550930.2734                                   21550925.4264
                                                                        48.7504
        34.0004
 -18121767.35548 -14076765.50046
                  22082776.8834                                   22082773.1994
                                                                        49.2504
        37.5004
   3762791.73447   2953836.29743
                  24026778.2894                                   24026772.2464
                                                                        42.0004
        19.5004
   2109708.09047   1678131.36343
                  23897712.6564                                   23897706.6644
                                                                        42.5004
        22.2504
   2380938.89547   1896614.97744
                  23874861.4384                                   23874857.1094
                                                                        42.7504
        28.2504
 -21619407.87148 -16798716.18446
                  21037307.8984                                   21037303.7504
                                                                        48.7504
        40.0004
  -8001155.47747  -6195233.07844
                  22785998.8914                                   22785994.1454
                                                                        45.7504
        29.5004
 09 10 13  0 53  0.0000000  0 10G02G04G05G13G29G23G16G07G10G25
  -8672896.46948  -6722713.09046
                  20960869.8594                                   20960863.7304
                                                                        51.0004
        41.0004
   7044409.05947   5504621.06344
                  23449704.0634                                   23449701.0044
                                                                        45.5004
        29.0004
 -16876939.75048 -13105041.20346
                  21657224.2344                                   21657219.9454
                                                                        51.0004
        39.7504
 -12056280.94548  -9353712.59045
                  21545967.1334                                   21545962.3484
                                                                        49.0004
        34.0004
 -18217048.20348 -14151010.30546
                  22064645.2974                                   22064641.3364
                                                                        49.5004
        37.0004
   3792221.33247   2976768.40243
                  24032378.5864                                   24032372.2034
                                                                        42.5004
        22.0004
   1989689.81647   1584610.63343
                  23874873.7664                                   23874867.9774
                                                                        42.5004
        22.5004
   2218282.74247   1769869.93044
                  23843908.7584                                   23843904.7274
                                                                        43.7504
        28.2504
 -21754303.12948 -16903829.39146
                  21011638.3134                                   21011633.9384
                                                                        49.2504
        40.0004
  -8115790.36347  -6284558.94944
                  22764184.2814                                   22764179.9734
                                                                        45.5004
        29.0004
 09 10 13  0 53 30.0000000  0 10G02G04G05G13G29G23G16G07G10G25
  -8690020.62548  -6736056.58646
                  20957611.2194                                   20957605.1884
                                                                        51.0004
        41.2504
   7080083.81347   5532419.13745
                  23456493.2974                                   23456490.1524
                                                                        45.7504
        30.7504
 -17026492.69148 -13221575.97346
                  21628765.4064                                   21628761.2854
                                                                        51.2504
        40.5004
 -12081762.96948  -9373568.69945
                  21541117.8594                                   21541113.2034
                                                                        49.0004
        34.0004
 -18311723.41048 -14224783.19546
                  22046628.9224                                   22046625.6334
                                                                        50.0004
        38.2504
   3821921.50847   2999911.38343
                  24038030.4694                                   24038023.9534
                                                                        43.2504
        23.5004
   1870225.09446   1491521.26643
                  23852139.9304                                   23852134.4414
                                                                        41.7504
        22.5004
   2055975.35246   1643396.60244
                  23813022.6884                                   23813018.7424
                                                                        40.5004
        28.5004
 -21888701.11748 -17008555.09446
                  20986062.9454                                   20986059.1914
                                                                        48.7504
        40.2504
  -8229880.72347  -6373460.52744
                  22742473.4534                                   22742469.4064
                                                                        46.2504
        29.5004
 09 10 13  0 54  0.0000000  0 10G02G04G05G13G29G23G16G07G10G25
  -8706616.55948  -6748988.49646
                  20954453.0704                                   20954446.6644
                                                                        50.7504
        41.2504
   7115961.89847   5560375.89144
                  23463320.9224                                   23463317.8014
                                                                        46.0004
        29.2504
 -17175643.24648 -13337797.19546
                  21600383.1564                                   21600378.9184
                                                                        50.7504
        40.2504
 -12106647.55548  -9392959.27045
                  21536382.4694                                   21536378.3244
                                                                        49.0004
        34.0004
 -18405792.10548 -14298083.44946
                  22028728.6254                                   22028724.6524
                                                                        49.5004
        37.7504
   3851889.96946   3023263.35943
                  24043733.2424                                   24043727.0434
                                                                        41.7504
        22.5004
   1751315.69147   1398864.59044
                  23829512.1804                                   23829507.2584
                                                                        42.7504
        24.5004
   1894019.32447   1517197.10544
                  23782203.6024                                   23782199.0474
                                                                        42.5004
        27.0004
 -22022600.51648 -17112892.29346
                  20960582.7814                                   20960578.6954
                                                                        49.2504
        40.5004
  -8343425.34447  -6461936.84045
                  22720866.5704                                   22720862.3634
                                                                        46.0004
        30.0004
 09 10 13  0 54 30.0000000  0 10G02G04G05G13G29G23G16G07G10G25
  -8722685.61348  -6761509.86346
                  20951395.5864                                   20951388.9534
                                                                        49.0004
        40.5004
   7152040.47347   5588488.66444
                  23470186.2274                                   23470183.2584
                                                                        45.0004
        28.7504
 -17324389.54748 -13453703.40646
                  21572077.6254                                   21572073.3914
                                                                        51.5004
        40.0004
 -12130937.09448  -9411886.17645
                  21531760.4694                                   21531755.8754
                                                                        48.5004
        34.2504
 -18499253.72348 -14370910.66846
                  22010943.3674                                   22010939.2624
                                                                        49.0004
        37.5004
   3882123.91447   3046822.17644
                  24049486.5164                                   24049480.5314
                                                                        42.5004
        24.2504
   1632963.35947   1306642.01644
                  23806990.8834                                   23806985.5234
                                                                        43.2504
        25.2504
   1732417.03147   1391273.07844
                  23751452.1884                                   23751447.5704
                                                                        42.0004
        26.2504
 -22155999.71548 -17216839.72746
                  20935197.9534                                   20935193.9184
                                                                        48.5004
        39.7504
  -8456422.80547  -6549986.81244
                  22699363.9224                                   22699359.8324
                                                                        45.5004
        29.0004
 09 10 13  0 55  0.0000000  0 10G02G04G05G13G29G23G16G07G10G25
  -8738229.57048  -6773622.03946
                  20948437.2194                                   20948431.3094
                                                                        49.7504
        40.7504
   7188317.81347   5616756.62944
                  23477089.8594                                   23477086.1414
                                                                        45.5004
        27.7504
 -17472730.19548 -13569293.51246
                  21543849.2664                                   21543845.0744
                                                                        51.0004
        40.5004
 -12154633.12548  -9430350.62145
                  21527250.9774                                   21527246.6804
                                                                        50.0004
        34.0004
 -18592107.51248 -14443264.25846
                  21993274.0314                                   21993269.9144
                                                                        49.2504
        37.5004
   3912620.23846   3070585.50843
                  24055290.1334                                   24055284.3054
                                                                        41.7504
        22.5004
   1515169.58247   1214854.68444
                  23784575.2974                                   23784570.4024
                                                                        42.0004
        24.0004
   1571171.33246   1265626.92643
                  23720768.6724                                   23720762.8244
                                                                        41.7504
        23.7504
 -22288897.76248 -17320396.67646
                  20909908.1094                                   20909903.8284
                                                                        49.5004
        39.7504
  -8568872.02747  -6637609.58245
                  22677965.7344                                   22677961.4344
                                                                        46.0004
        30.0004
 09 10 13  0 55 30.0000000  0 10G02G04G05G13G29G23G16G07G10G25
  -8753249.34848  -6785325.78146
                  20945579.7894                                   20945573.0474
                                                                        50.2504
        40.5004
   7224792.24247   5645178.21544
                  23484030.3914                                   23484027.8244
                                                                        44.2504
        27.7504
 -17620662.85548 -13684565.70346
                  21515698.4844                                   21515694.3054
                                                                        50.2504
        40.5004
 -12177737.34448  -9448353.91445
                  21522854.9694                                   21522850.3324
                                                                        49.0004
        34.2504
 -18684352.50048 -14515143.46146
                  21975720.5084                                   21975716.5044
                                                                        48.5004
        37.7504
   3943376.77746   3094551.61343
                  24061142.4534                                   24061136.7194
                                                                        40.5004
        21.7504
   1397936.09447   1123503.91444
                  23762266.2584                                   23762261.7464
                                                                        42.2504
        24.0004
   1410285.41046   1140260.84443
                  23690152.5234                                   23690147.7034
                                                                        41.5004
        22.5004
 -22421292.60248 -17423561.49246
                  20884714.2194                                   20884710.0164
                                                                        49.7504
        40.2504
  -8680771.00047  -6724803.58644
                  22656671.6334                                   22656667.9344
                                                                        45.5004
        29.2504
 09 10 13  0 56  0.0000000  0 10G02G04G05G13G29G23G16G07G10G25
  -8767746.77048  -6796622.48846
                  20942820.5084                                   20942814.6604
                                                                        49.7504
        40.7504
   7261461.56347   5673751.93444
                  23491008.0554                                   23491005.0204
                                                                        45.0004
        28.0004
 -17768185.91448 -13799518.73846
                  21487625.8364                                   21487621.3984
                                                                        50.5004
        40.0004
 -12200251.93748  -9465897.75445
                  21518570.4144                                   21518565.6914
                                                                        49.2504
        33.5004
 -18775987.86348 -14586547.62946
                  21958283.1644                                   21958278.6954
                                                                        49.5004
        37.7504
   3974391.11346   3118718.65643
                  24067043.7584                                   24067037.7464
                                                                        39.7504
        19.2504
   1281264.30946   1032590.84843
                  23740064.0234                                   23740059.7194
                                                                        41.5004
        22.5004
   1249763.34447   1015178.73444
                  23659606.5004                                   23659601.9264
                                                                        42.7504
        27.0004
 -22553182.93448 -17526333.16446
                  20859616.5084                                   20859612.6524
                                                                        49.7504
        40.7504
  -8792118.57847  -6811567.97744
                  22635483.2034                                   22635478.9694
                                                                        44.7504
        28.7504
 09 10 13  0 56 30.0000000  0 10G02G04G05G13G29G23G16G07G10G25
  -8781725.07448  -6807514.66046
                  20940160.7504                                   20940154.2624
                                                                        49.7504
        40.5004
   7298320.24647   5702472.57444
                  23498023.0634                                   23498019.5664
                                                                        44.7504
        29.2504
 -17915299.83248 -13914152.97346
                  21459630.7974                                   21459626.7114
                                                                        50.7504
        40.2504
 -12222180.27348  -9482984.78145
                  21514397.6254                                   21514392.7774
                                                                        49.0004
        34.7504
 -18867014.78148 -14657477.68446
                  21940961.3364                                   21940957.0784
                                                                        48.7504
        38.0004
   4005658.24246   3143082.66043
                  24072994.8594                                   24072988.0354
                                                                        39.5004
        20.0004
   1165154.62946    942115.76243
                  23717969.2814                                   23717964.5314
                                                                        41.0004
        22.5004
   1089605.47347    890380.51644
                  23629129.3754                                   23629125.0274
                                                                        42.0004
        28.7504
 -22684569.14148 -17628712.02346
                  20834614.7114                                   20834610.3284
                                                                        48.5004
        40.7504
  -8902915.08647  -6897902.94945
                  22614399.3674                                   22614395.3284
                                                                        45.2504
        31.0004
 09 10 13  0 57  0.0000000  0  9G02G04G05G13G29G16G07G10G25
  -8795186.55148  -6818004.12946
                  20937598.8204                                   20937592.3954
                                                                        50.0004
        40.0004
   7335367.67247   5731340.85544
                  23505072.7814                                   23505069.5044
                                                                        44.7504
        29.7504
 -18062003.47348 -14028467.49646
                  21431714.1804                                   21431709.8164
                                                                        50.5004
        40.5004
 -12243525.25848  -9499617.25045
                  21510335.5164                                   21510331.4614
                                                                        48.5004
        34.0004
 -18957433.15648 -14727933.54746
                  21923754.8524                                   21923750.4224
                                                                        49.0004
        38.0004
   1049607.56646    852079.11343
                  23695981.1024                                   23695976.6024
                                                                        39.7504
        22.0004
    929813.43047    765867.36744
                  23598722.0164                                   23598717.7624
                                                                        42.2504
        28.2504
 -22815450.49648 -17730697.46946
                  20809708.3674                                   20809704.2464
                                                                        49.5004
        40.5004
  -9013160.01247  -6983808.07844
                  22593419.9224                                   22593416.2424
                                                                        45.7504
        29.2504
 09 10 13  0 57 30.0000000  0  9G02G04G05G13G29G16G07G10G25
  -8808130.38748  -6828090.23846
                  20935135.8054                                   20935129.6054
                                                                        49.5004
        40.5004
   7372603.04347   5760355.57844
                  23512157.8444                                   23512155.2384
                                                                        43.0004
        28.5004
 -18208292.86348 -14142459.23046
                  21403876.3054                                   21403871.6374
                                                                        50.5004
        40.7504
 -12264286.38748  -9515794.75445
                  21506384.7344                                   21506380.3284
                                                                        48.5004
        33.7504
 -19047240.32448 -14797913.15246
                  21906665.1094                                   21906660.8244
                                                                        49.5004
        37.2504
    934627.12546    762483.95743
                  23674101.3834                                   23674096.0354
                                                                        40.0004
        22.2504
    770392.37147    641643.23444
                  23568384.7114                                   23568380.8244
                                                                        44.0004
        28.5004
 -22945823.28948 -17832286.65246
                  20784899.2974                                   20784895.2424
                                                                        49.7504
        41.0004
  -9122849.50847  -7069280.40644
                  22572547.1724                                   22572542.9734
                                                                        46.0004
        29.2504
 09 10 13  0 58  0.0000000  0  9G02G04G05G13G29G16G07G10G25
  -8820556.42248  -6837772.85246
                  20932771.0634                                   20932765.0434
                                                                        49.7504
        41.0004
   7410025.32847   5789515.80144
                  23519278.9384                                   23519276.0124
                                                                        42.2504
        27.2504
 -18354164.91048 -14256125.75446
                  21376117.7344                                   21376113.7234
                                                                        50.0004
        40.5004
 -12284464.31248  -9531517.81645
                  21502545.3754                                   21502541.1954
                                                                        48.2504
        34.5004
 -19136433.85947 -14867414.60546
                  21889692.3364                                   21889687.9804
                                                                        47.7504
        37.5004
    820216.35546    673332.73443
                  23652329.1564                                   23652324.2344
                                                                        39.0004
        20.2504
    611346.66047    517711.56344
                  23538119.1484                                   23538115.7194
                                                                        43.0004
        28.5004
 -23075683.96548 -17933476.77746
                  20760187.7034                                   20760183.8164
                                                                        49.7504
        40.5004
  -9231981.05947  -7154317.98844
                  22551780.3754                                   22551775.7974
                                                                        46.0004
        29.0004
 09 10 13  0 58 30.0000000  0  9G02G04G05G13G29G16G07G10G25
  -8832464.24648  -6847051.67246
                  20930505.2974                                   20930498.9414
                                                                        48.7504
        40.5004
   7447634.34447   5818821.06344
                  23526436.7504                                   23526433.4344
                                                                        43.0004
        26.5004
 -18499615.57048 -14369463.93746
                  21348439.7504                                   21348435.2624
                                                                        51.0004
        40.7504
 -12304058.69948  -9546786.17645
                  21498816.4454                                   21498812.1054
                                                                        49.5004
        33.7504
 -19225010.92248 -14936435.69946
                  21872836.7424                                   21872832.6094
                                                                        48.5004
        37.0004
    706379.29346    584628.53143
                  23630667.2194                                   23630661.8554
                                                                        40.0004
        21.7504
    452681.72347    394076.68844
                  23507926.6254                                   23507922.7624
                                                                        42.0004
        28.0004
 -23205029.32848 -18034265.35246
                  20735574.0864                                   20735569.7304
                                                                        48.7504
        39.7504
  -9340550.74647  -7238917.74644
                  22531120.0944                                   22531115.7664
                                                                        46.5004
        29.5004
 09 10 13  0 59  0.0000000  0  9G02G04G05G13G29G16G07G10G25
  -7268436.94548  -5628329.09846
                  21228129.7344                                   21228123.6414
                                                                        50.0004
        40.5004
   9060846.86747   7075869.76244
                  23833421.2584                                   23833417.5554
                                                                        43.5004
        28.5004
 -17069219.90648 -13254869.90646
                  21620634.7034                                   21620630.3244
                                                                        50.0004
        40.5004
 -10747652.63748  -8334002.23045
                  21794990.7814                                   21794986.0944
                                                                        48.2504
        33.2504
 -17737549.64848 -13777374.95346
                  22155891.0554                                   22155887.0164
                                                                        48.5004
        37.7504
   2168539.42246   1723974.09043
                  23908906.8594                                   23908902.0314
                                                                        40.7504
        22.0004
   1869823.59446   1498343.10244
                  23777599.6174                                   23777595.4774
                                                                        41.2504
        26.5004
 -21758435.42248 -16907049.30546
                  21010851.7504                                   21010847.4694
                                                                        50.0004
        40.5004
  -7873135.24647  -6095477.09044
                  22810359.9614                                   22810355.7664
                                                                        46.0004
        29.7504
 09 10 13  0 59 30.0000000  0  9G02G04G05G13G29G16G07G10G25
  -7279319.29748  -5636808.85946
                  21226058.8914                                   21226052.5824
                                                                        49.7504
        40.7504
   9098818.16047   7105457.34444
                  23840646.8134                                   23840644.1684
                                                                        44.5004
        28.7504
 -17213829.02748 -13367552.32846
                  21593116.5944                                   21593112.0314
                                                                        50.2504
        40.2504
 -10766092.50048  -8348370.96945
                  21791481.8914                                   21791477.0274
                                                                        48.7504
        32.7504
 -17824898.46148 -13845438.95746
                  22139269.0704                                   22139264.9574
                                                                        48.5004
        37.2504
   2055847.08647   1636161.88343
                  23887462.6414                                   23887457.0234
                                                                        42.0004
        21.5004
   1711920.83646   1375301.79344
                  23747551.8444                                   23747547.0554
                                                                        41.5004
        25.5004
 -21886752.62548 -17007036.72746
                  20986433.9534                                   20986429.4344
                                                                        49.5004
        40.5004
  -7980583.98047  -6179203.35245
                  22789913.4384                                   22789908.2234
                                                                        46.0004
        30.0004
 09 10 13  1  0  0.0000000  0  9G02G04G05G13G29G16G07G10G25
  -7289694.05948  -5644893.09046
                  21224084.6094                                   21224078.5904
                                                                        50.0004
        40.2504
   9136965.70747   7135182.94944
                  23847905.7664                                   23847903.5514
                                                                        43.7504
        28.0004
 -17358018.01248 -13479907.35946
                  21565678.1724                                   21565674.1024
                                                                        50.5004
        40.7504
 -10783961.20348  -8362294.65245
                  21788081.2114                                   21788076.7774
                                                                        49.0004
        33.2504
 -17911635.21148 -13913026.03146
                  22122763.5784                                   22122759.8594
                                                                        49.0004
        38.0004
   1943726.71947   1548795.34843
                  23866126.5004                                   23866121.7154
                                                                        42.0004
        21.7504
   1554401.49646   1252559.37544
                  23717577.2974                                   23717571.5234
                                                                        41.5004
        24.2504
 -22014556.90648 -17106624.46546
                  20962113.3364                                   20962109.4344
                                                                        50.0004
        40.5004
  -8087473.39547  -6262493.79344
                  22769572.5554                                   22769568.4304
                                                                        45.7504
        29.2504
 09 10 13  1  0 30.0000000  0  9G02G04G05G13G29G16G07G10G25
  -7299565.00048  -5652584.72746
                  21222206.1884                                   21222199.9884
                                                                        50.0004
        40.2504
   9175283.53947   7165040.84444
                  23855197.1094                                   23855194.3014
                                                                        42.5004
        27.2504
 -17501786.69148 -13591934.89546
                  21538320.2344                                   21538315.8594
                                                                        50.0004
        40.5004
 -10801262.62948  -8375776.30945
                  21784789.5084                                   21784784.8874
                                                                        49.0004
        33.7504
 -17997761.16848 -13980137.15246
                  22106374.3524                                   22106370.2074
                                                                        48.5004
        38.2504
   1832177.94146   1461874.21543
                  23844899.3594                                   23844894.3284
                                                                        41.5004
        22.5004
   1397265.52747   1130115.42644
                  23687675.0864                                   23687670.4494
                                                                        42.5004
        27.5004
 -22141848.05148 -17205812.35546
                  20937890.8754                                   20937886.6454
                                                                        50.5004
        40.7504
  -8193804.05547  -6345348.82844
                  22749338.5084                                   22749334.1524
                                                                        45.7504
        29.7504
 09 10 13  1  1  0.0000000  0  9G02G04G05G13G29G16G07G10G25
  -7308933.18448  -5659884.61346
                  21220423.5004                                   21220417.2384
                                                                        48.0004
        40.5004
   9213770.84847   7195030.71944
                  23862520.7114                                   23862518.4924
                                                                        42.0004
        25.0004
 -17645133.23448 -13703633.47746
                  21511041.9534                                   21511038.1024
                                                                        50.0004
        41.0004
 -10817998.02348  -8388816.88345
                  21781604.2114                                   21781599.7464
                                                                        49.0004
        32.5004
 -18083275.25048 -14046771.50046
                  22090101.6024                                   22090097.4734
                                                                        49.2504
        38.5004
   1721202.52347   1375399.87543
                  23823781.9224                                   23823776.5354
                                                                        42.0004
        22.5004
   1240517.44547   1007974.15644
                  23657847.5084                                   23657842.9534
                                                                        44.2504
        28.0004
 -22268624.59048 -17304599.27346
                  20913765.8674                                   20913761.9534
                                                                        49.0004
        40.2504
  -8299574.27347  -6427767.20345
                  22729211.1414                                   22729206.8484
                                                                        46.2504
        30.5004
 09 10 13  1  1 30.0000000  0  9G02G04G05G13G29G16G07G10G25
  -7317802.28948  -5666795.60946
                  21218735.5704                                   21218729.5004
                                                                        49.5004
        39.7504
   9252424.41447   7225150.54344
                  23869876.1724                                   23869874.1914
                                                                        42.0004
        27.2504
 -17788058.15648 -13815003.53546
                  21483844.2194                                   21483839.8134
                                                                        50.0004
        40.5004
 -10834171.85948  -8401419.87545
                  21778526.8444                                   21778522.5944
                                                                        48.5004
        33.0004
 -18168178.95348 -14112930.23446
                  22073944.9694                                   22073941.2504
                                                                        49.0004
        38.2504
   1610799.80947   1289371.80543
                  23802773.4774                                   23802767.5984
                                                                        42.7504
        22.5004
   1084157.16847    886135.10944
                  23628092.4224                                   23628087.5204
                                                                        43.7504
        28.5004
 -22394886.98048 -17402985.56246
                  20889739.2504                                   20889735.0314
                                                                        49.7504
        41.0004
  -8404784.96947  -6509749.55545
                  22709190.3054                                   22709185.7704
                                                                        46.2504
        30.2504
 09 10 13  1  2  0.0000000  0  9G02G04G05G13G29G16G07G10G25
  -7326170.11348  -5673315.98446
                  21217143.2034                                   21217137.1174
                                                                        49.0004
        40.0004
   9291243.48047   7255398.59444
                  23877264.3134                                   23877261.8364
                                                                        42.7504
        27.0004
 -17930555.43448 -13926040.35946
                  21456727.9304                                   21456723.9884
                                                                        49.2504
        41.0004
 -10849781.95348  -8413583.59845
                  21775556.1644                                   21775551.8954
                                                                        49.0004
        33.5004
 -18252468.02048 -14178610.03146
                  22057905.2194                                   22057901.1604
                                                                        48.5004
        37.2504
   1500975.40646   1203794.35943
                  23781873.6174                                   23781868.5784
                                                                        39.7504
        22.5004
    928191.58247    764603.62945
                  23598412.9534                                   23598409.1884
                                                                        43.0004
        30.0004
 -22520630.04748 -17500967.18046
                  20865811.1564                                   20865806.6484
                                                                        50.5004
        40.2504
  -8509430.75847  -6591291.74245
                  22689277.0314                                   22689272.2464
                                                                        46.0004
        30.0004
 09 10 13  1  2 30.0000000  0  9G02G04G05G13G29G16G07G10G25
  -7334038.49248  -5679447.19546
                  21215646.2664                                   21215639.6914
                                                                        49.2504
        40.2504
   9330228.03947   7285775.87144
                  23884683.2194                                   23884680.9884
                                                                        44.7504
        27.0004
 -18072624.33248 -14036743.37546
                  21429693.3984                                   21429689.0044
                                                                        50.5004
        40.7504
 -10864831.30948  -8425310.37145
                  21772692.6724                                   21772687.7154
                                                                        49.0004
        33.0004
 -18336142.30548 -14243810.77046
                  22041982.6724                                   22041978.5704
                                                                        48.7504
        37.7504
   1391729.91046   1118668.02743
                  23761085.3364                                   23761080.3134
                                                                        40.5004
        22.2504
    772622.55147    643381.04744
                  23568809.2734                                   23568805.1414
                                                                        42.2504
        28.5004
 -22645852.87548 -17598543.41046
                  20841981.7734                                   20841977.8054
                                                                        50.5004
        40.5004
  -8613511.26247  -6672393.44944
                  22669470.8984                                   22669466.3054
                                                                        46.2504
        29.5004
 09 10 13  1  3  0.0000000  0  9G02G04G05G13G29G16G07G10G25
  -7341409.74648  -5685191.03546
                  21214243.6094                                   21214237.5864
                                                                        50.5004
        40.2504
   9369374.87947   7316279.79344
                  23892132.7894                                   23892129.9224
                                                                        44.2504
        25.5004
 -18214263.31648 -14147111.41046
                  21402740.1564                                   21402735.8284
                                                                        51.2504
        41.0004
 -10879322.60948  -8436602.30145
                  21769934.8594                                   21769930.5084
                                                                        48.7504
        33.0004
 -18419201.71548 -14308532.38346
                  22026176.7814                                   22026173.1884
                                                                        49.0004
        38.2504
   1283064.52346   1033993.70743
                  23740406.9224                                   23740401.4964
                                                                        41.5004
        22.7504
    617452.24247    522468.93044
                  23539280.8524                                   23539277.3714
                                                                        42.5004
        28.2504
 -22770554.71948 -17695713.67246
                  20818251.7344                                   20818247.7854
                                                                        50.0004
        40.5004
  -8717025.60947  -6753053.98845
                  22649773.1024                                   22649768.4144
                                                                        46.7504
        30.0004
 09 10 13  1  3 30.0000000  0  9G02G04G05G13G29G16G07G10G25
  -7348285.80948  -5690549.03146
                  21212935.1564                                   21212929.2504
                                                                        50.7504
        40.2504
   9408681.13747   7346907.71943
                  23899612.1954                                   23899609.1134
                                                                        43.5004
        22.7504
 -18355471.61348 -14257143.84446
                  21375868.7344                                   21375864.7504
                                                                        50.5004
        40.5004
 -10893257.87948  -8447460.95745
                  21767283.1564                                   21767278.5314
                                                                        49.5004
        32.5004
 -18501646.66448 -14372775.19946
                  22010488.0784                                   22010484.3914
                                                                        48.7504
        38.2504
   1174979.96547    949771.98043
                  23719839.2734                                   23719833.7894
                                                                        42.0004
        22.7504
    462683.44547    401869.58244
                  23509829.8204                                   23509825.8714
                                                                        42.0004
        28.2504
 -22894734.53148 -17792477.16446
                  20794621.0634                                   20794617.1994
                                                                        50.5004
        40.7504
  -8819973.10547  -6833272.80945
                  22630182.6724                                   22630177.9694
                                                                        46.0004
        30.0004
 09 10 13  1  4  0.0000000  0  9G02G04G05G13G29G16G07G10G25
  -7354666.12548  -5695520.72746
                  21211720.7344                                   21211714.5394
                                                                        49.7504
        39.7504
   9448147.74647   7377660.89544
                  23907122.7424                                   23907120.1294
                                                                        42.5004
        26.0004
 -18496244.89148 -14366837.30146
                  21349080.6334                                   21349076.6024
                                                                        50.7504
        41.0004
 -10906637.33248  -8457886.50845
                  21764736.8674                                   21764732.8634
                                                                        49.0004
        33.2504
 -18583473.89148 -14436536.68046
                  21994917.0164                                   21994912.9774
                                                                        48.2504
        38.0004
   1067480.24247    866005.97743
                  23699382.7734                                   23699377.2734
                                                                        42.5004
        22.5004
    308321.81646    281587.89544
                  23480455.5634                                   23480451.7774
                                                                        41.7504
        27.7504
 -23018388.78948 -17888831.13746
                  20771090.5474                                   20771086.6564
                                                                        49.5004
        40.7504
  -8922350.45747  -6913047.37145
                  22610700.8134                                   22610696.0164
                                                                        46.5004
        30.5004
 09 10 13  1  4 30.0000000  0  9G02G04G05G13G29G16G07G10G25
  -7360552.55948  -5700107.58246
                  21210600.6174                                   21210594.4224
                                                                        49.7504
        39.5004
   9487771.01247   7408535.65244
                  23914663.0474                                   23914660.6644
                                                                        43.0004
        26.2504
 -18636582.38348 -14476191.18046
                  21322375.6484                                   21322371.1954
                                                                        50.7504
        41.0004
 -10919463.28548  -8467880.78545
                  21762296.4694                                   21762292.2274
                                                                        48.0004
        33.0004
 -18664683.95748 -14499817.24646
                  21979462.9224                                   21979459.3834
                                                                        49.0004
        37.7504
    960565.84447    782696.07444
                  23679037.6174                                   23679032.6254
                                                                        42.2504
        24.0004
    154368.94147    161624.43044
                  23451159.7734                                   23451155.6414
                                                                        43.5004
        28.2504
 -23141516.89148 -17984775.11346
                  20747659.9224                                   20747656.1844
                                                                        50.0004
        40.5004
  -9024156.78547  -6992376.98445
                  22591327.7584                                   22591323.6374
                                                                        46.2504
        30.7504
 09 10 13  1  5  0.0000000  0  9G02G04G05G13G29G16G07G10G25
  -7365947.96948  -5704311.80946
                  21209573.8594                                   21209567.6844
                                                                        49.0004
        39.5004
   9527547.92647   7439529.74644
                  23922233.3914                                   23922231.0044
                                                                        44.2504
        27.5004
 -18776482.75048 -14585204.44946
                  21295753.3984                                   21295748.6604
                                                                        51.5004
        41.5004
 -10931738.98048  -8477446.28545
                  21759960.4924                                   21759955.9024
                                                                        48.5004
        33.2504
 -18745276.67648 -14562616.75446
                  21964126.8054                                   21964122.5984
                                                                        50.0004
        37.7504
    854237.31647    699842.70344
                  23658803.4924                                   23658798.7194
                                                                        42.5004
        24.0004
       827.94147     41982.37944
                  23421941.9454                                   23421937.9654
                                                                        43.0004
        28.7504
 -23264117.86748 -18080308.34446
                  20724329.7114                                   20724325.9064
                                                                        49.5004
        40.7504
  -9125392.10547  -7071261.68444
                  22572063.3914                                   22572059.4064
                                                                        45.5004
        29.7504
 09 10 13  1  5 30.0000000  0  9G02G04G05G13G29G16G07G10G25
  -7370852.28948  -5708133.42246
                  21208640.7274                                   21208634.1684
                                                                        49.7504
        39.2504
   9567484.55547   7470234.80954
                  23929831.6254                                   23929828.8714
                                                                        44.5004
        28.7504
 -18915942.61748 -14693874.46946
                  21269214.8594                                   21269210.2934
                                                                        51.5004
        41.0004
 -10943464.24648  -8486582.88345
                  21757729.4454                                   21757724.4414
                                                                        48.7504
        33.2504
 -18825250.13748 -14624933.73446
                  21948908.3444                                   21948904.2774
                                                                        49.7504
        38.2504
    748498.33647    617448.72344
                  23638681.7664                                   23638677.3284
                                                                        42.2504
        24.5004
   -152297.06247    -77335.45344
                  23392803.5944                                   23392798.7624
                                                                        44.0004
        27.5004
 -23386188.75848 -18175428.51646
                  20701100.5864                                   20701096.6764
                                                                        50.2504
        41.0004
  -9226053.01647  -7149698.75445
                  22552908.5474                                   22552904.0944
                                                                        46.5004
        30.7504
 09 10 13  1  6  0.0000000  0  9G02G04G05G13G29G16G07G10G25
  -7375266.34448  -5711572.94546
                  21207800.8284                                   21207794.6094
                                                                        49.7504
        39.7504
   9607569.82847   7501469.82044
                  23937460.0084                                   23937457.0084
                                                                        44.2504
        26.7504
 -19054960.21148 -14802199.87546
                  21242761.0004                                   21242756.2344
                                                                        52.2504
        41.2504
 -10954641.28148  -8495292.25445
                  21755602.4614                                   21755597.6604
                                                                        48.0004
        32.5004
 -18904603.67248 -14686767.66446
                  21933807.7424                                   21933804.2584
                                                                        50.0004
        38.0004
    643350.05147    535514.99244
                  23618672.9384                                   23618668.1914
                                                                        42.5004
        25.2504
   -305004.10247   -196327.87944
                  23363743.9694                                   23363738.5984
                                                                        42.5004
        27.7504
 -23507727.62948 -18270134.13746
                  20677972.6094                                   20677968.8984
                                                                        49.7504
        41.0004
  -9326138.56247  -7227687.52745
                  22533862.5084                                   22533858.4804
                                                                        45.7504
        30.0004
 09 10 13  1  6 30.0000000  0  9G02G04G05G13G29G16G07G10G25
  -7379192.87548  -5714632.64546
                  21207053.8914                                   21207047.5164
                                                                        50.5004
        40.0004
   9647808.11347   7532825.41444
                  23945115.6334                                   23945113.5164
                                                                        43.0004
        25.5004
 -19193534.41048 -14910179.76646
                  21216391.0004                                   21216386.4224
                                                                        51.5004
        41.0004
 -10965272.57447  -8503576.35545
                  21753579.0164                                   21753574.3554
                                                                        47.7504
        32.5004
 -18983337.70348 -14748118.85946
                  21918825.3284                                   21918821.8094
                                                                        49.7504
        38.0004
    538793.30547    454042.23843
                  23598776.5234                                   23598771.8404
                                                                        42.0004
        23.2504
   -457290.35947   -314992.47344
                  23334764.7814                                   23334759.9344
                                                                        42.7504
        28.0004
 -23628733.91048 -18364424.75846
                  20654945.8754                                   20654941.4734
                                                                        50.5004
        41.0004
  -9425648.00047  -7305227.34844
                  22514926.6644                                   22514922.2934
                                                                        46.7504
        29.5004
 09 10 13  1  7  0.0000000  0  9G02G04G05G13G29G16G07G10G25
  -7382632.07848  -5717312.52746
                  21206399.2894                                   21206392.9494
                                                                        50.2504
        39.5004
   9688194.50046   7564295.75044
                  23952800.5634                                   23952798.0004
                                                                        41.2504
        24.2504
 -19331662.10548 -15017811.73846
                  21190106.6254                                   21190102.2114
                                                                        51.0004
        41.0004
 -10975359.10948  -8511436.00445
                  21751659.6094                                   21751655.2774
                                                                        48.7504
        32.7504
 -19061450.28148 -14808985.79746
                  21903961.0004                                   21903956.9964
                                                                        49.7504
        38.0004
    434830.53147    373032.30544
                  23578992.8594                                   23578988.5274
                                                                        42.2504
        24.0004
   -609151.86347   -433326.00844
                  23305866.1724                                   23305861.3284
                                                                        42.0004
        28.2504
 -23749205.37148 -18458298.61346
                  20632020.7114                                   20632016.7234
                                                                        51.2504
        40.5004
  -9524579.30947  -7382316.68045
                  22496100.8054                                   22496096.2114
                                                                        46.5004
        30.0004
 09 10 13  1  7 30.0000000  0  9G02G04G05G13G29G16G07G10G25
  -7385583.19148  -5719612.11346
                  21205837.7974                                   21205831.5124
                                                                        49.0004
        40.0004
   9728730.28946   7595882.14543
                  23960514.0314                                   23960511.8284
                                                                        39.7504
        22.7504
 -19469339.57848 -15125092.89146
                  21163907.0784                                   21163902.7194
                                                                        51.5004
        41.0004
 -10984900.90247  -8518871.19945
                  21749844.2034                                   21749839.1174
                                                                        47.7504
        32.2504
 -19138938.65648 -14869366.34446
                  21889215.4774                                   21889211.3594
                                                                        49.5004
        38.2504
    331465.67247    292488.27344
                  23559323.6484                                   23559319.0004
                                                                        42.0004
        24.0004
   -760582.70746   -551323.87944
                  23277049.6804                                   23277045.0864
                                                                        41.5004
        27.7504
 -23869138.17648 -18551752.73846
                  20609198.5784                                   20609194.1524
                                                                        48.7504
        41.0004
  -9622928.65647  -7458952.53545
                  22477385.4454                                   22477381.3914
                                                                        45.7504
        30.2504
 09 10 13  1  8  0.0000000  0  9G02G04G05G13G29G16G07G10G25
  -7388049.52048  -5721533.90646
                  21205368.5474                                   21205362.2544
                                                                        50.2504
        39.2504
   9769411.87946   7627581.75843
                  23968256.3524                                   23968252.8284
                                                                        41.5004
        23.5004
 -19606566.30948 -15232022.81646
                  21137793.5864                                   21137789.2894
                                                                        51.5004
        41.2504
 -10993901.16848  -8525884.39545
                  21748131.5314                                   21748126.8834
                                                                        48.0004
        32.5004
 -19215804.00448 -14929261.42246
                  21874588.3284                                   21874584.5514
                                                                        49.5004
        38.0004
    228698.19947    212409.71544
                  23539767.6724                                   23539763.0784
                                                                        42.5004
        24.5004
   -911582.85546   -668986.52744
                  23248314.5314                                   23248310.6804
                                                                        41.2504
        29.0004
 -23988532.51248 -18644787.28546
                  20586478.5704                                   20586474.5594
                                                                        50.7504
        40.7504
  -9720696.70347  -7535135.46944
                  22458780.8834                                   22458776.4844
                                                                        46.0004
        29.7504
 09 10 13  1  8 30.0000000  0  9G02G04G05G13G29G16G07G10G25
  -7390035.79348  -5723081.64546
                  21204990.3914                                   21204984.1764
                                                                        50.0004
        39.5004
   9810235.04347   7659391.98044
                  23976024.2344                                   23976021.3164
                                                                        42.0004
        24.7504
 -19743343.81648 -15338602.68746
                  21111765.6644                                   21111761.3914
                                                                        51.7504
        41.0004
 -11002365.53148  -8532479.98045
                  21746520.1804                                   21746515.9574
                                                                        48.2504
        32.0004
 -19292049.20748 -14988673.25846
                  21860079.6254                                   21860075.5824
                                                                        49.5004
        37.7504
    126526.65247    132795.55143
                  23520324.8444                                   23520319.8714
                                                                        42.2504
        23.2504
  -1062151.05147   -786312.15244
                  23219662.9224                                   23219658.7544
                                                                        42.5004
        29.2504
 -24107390.09848 -18737403.57846
                  20563860.5234                                   20563856.4224
                                                                        50.0004
        41.0004
  -9817885.60547  -7610867.07845
                  22440286.2814                                   22440282.2624
                                                                        46.2504
        30.2504
 09 10 13  1  9  0.0000000  0  9G02G04G05G13G29G16G07G10G25
  -7391539.97348  -5724253.77046
                  21204704.0554                                   21204697.9384
                                                                        50.2504
        39.5004
   9851201.21147   7691313.55944
                  23983820.8524                                   23983817.4774
                                                                        42.0004
        26.2504
 -19879667.19548 -15444828.69546
                  21085824.2504                                   21085820.0824
                                                                        50.5004
        41.2504
 -11010292.82847  -8538657.09845
                  21745012.0474                                   21745007.1994
                                                                        47.5004
        32.7504
 -19367670.44148 -15047598.89846
                  21845689.1954                                   21845685.2464
                                                                        48.5004
        37.5004
     24955.19947     53648.94943
                  23500996.0944                                   23500991.2894
                                                                        42.7504
        22.7504
  -1212281.87947   -903297.18744
                  23191094.4064                                   23191089.6914
                                                                        43.0004
        29.2504
 -24225705.91448 -18829597.71946
                  20541346.0314                                   20541341.4104
                                                                        50.5004
        40.7504
  -9914490.66847  -7686143.72745
                  22421902.8444                                   22421898.8444
                                                                        45.5004
        30.7504
 09 10 13  1  9 30.0000000  0  9G02G04G05G13G29G16G07G10G25
  -5817140.87148  -4497449.32846
                  21504302.4694                                   21504296.4414
                                                                        50.0004
        39.2504
  11467729.57847   8950945.49644
                  24291436.3444                                   24291433.4414
                                                                        42.2504
        25.5004
 -18440107.00448 -14323093.49646
                  21359763.1484                                   21359758.9184
                                                                        51.2504
        41.0004
  -9442261.21548  -7316814.29345
                  22043398.5784                                   22043394.0904
                                                                        48.0004
        31.5004
 -17867241.87948 -13878433.77746
                  22131211.3204                                   22131207.4844
                                                                        50.0004
        37.5004
   1499411.89847   1202576.28543
                  23781576.0164                                   23781570.7624
                                                                        42.2504
        22.5004
    213456.00447    207667.48045
                  23462402.4534                                   23462397.9884
                                                                        42.5004
        30.0004
 -22768051.90248 -17693763.41046
                  20818728.3204                                   20818724.2934
                                                                        51.0004
        41.2504
  -8435084.62947  -6533359.82045
                  22703424.4224                                   22703420.3754
                                                                        46.0004
        30.5004
 09 10 13  1 10  0.0000000  0  9G02G04G05G13G29G16G07G10G25
  -5817680.13748  -4497869.51646
                  21504199.4304                                   21504193.4654
                                                                        50.2504
        39.0004
  11508981.86346   8983089.75844
                  24299285.7894                                   24299283.8554
                                                                        41.5004
        25.5004
 -18575510.56648 -14428602.76646
                  21333996.8594                                   21333992.8554
                                                                        50.7504
        41.7504
  -9449113.71147  -7322153.91045
                  22042094.5394                                   22042089.9184
                                                                        47.7504
        32.0004
 -17941608.19548 -13936381.56246
                  22117059.6884                                   22117055.8834
                                                                        48.5004
        38.0004
   1399051.25047   1124373.21144
                  23762477.8284                                   23762473.0474
                                                                        42.5004
        24.0004
     64214.60547     91375.58244
                  23434003.3674                                   23433998.2304
                                                                        42.2504
        29.7504
 -22885274.82448 -17785105.93046
                  20796421.3134                                   20796416.9844
                                                                        50.2504
        41.0004
  -8530513.15247  -6607719.74245
                  22685264.9534                                   22685260.7934
                                                                        44.7504
        30.7504
 09 10 13  1 10 30.0000000  0  9G02G04G05G13G29G16G07G10G25
  -5817741.35948  -4497917.19146
                  21504188.2194                                   21504181.8954
                                                                        50.0004
        39.0004
  11550374.39147   9015344.12144
                  24307162.6254                                   24307159.8364
                                                                        42.0004
        24.7504
 -18710453.02348 -14533752.73846
                  21308318.6884                                   21308314.0084
                                                                        51.7504
        41.5004
  -9455433.62548  -7327078.54745
                  22040892.3284                                   22040887.5984
                                                                        48.0004
        31.5004
 -18015348.29348 -13993841.37946
                  22103027.6564                                   22103023.4144
                                                                        49.5004
        37.5004
   1299296.39147   1046642.12543
                  23743495.3524                                   23743490.1764
                                                                        42.7504
        22.2504
    -84579.05547    -24567.35545
                  23405689.0234                                   23405683.5784
                                                                        42.2504
        30.2504
 -23001950.90248 -17876022.35246
                  20774218.5944                                   20774214.6644
                                                                        50.0004
        41.0004
  -8625353.27347  -6681621.11745
                  22667218.1094                                   22667213.1374
                                                                        45.2504
        30.0004
 09 10 13  1 11  0.0000000  0  9G02G04G05G13G29G16G07G10G25
  -5817322.91848  -4497591.14146
                  21504267.8524                                   21504261.7274
                                                                        50.5004
        39.0004
  11591906.16047   9047706.52343
                  24315065.8594                                   24315063.0594
                                                                        42.5004
        23.5004
 -18844930.07448 -14638540.03946
                  21282728.5634                                   21282723.6994
                                                                        51.5004
        41.5004
  -9461220.26248  -7331587.59445
                  22039791.0004                                   22039785.9844
                                                                        48.0004
        32.0004
 -18088458.92248 -14050810.70346
                  22089115.1724                                   22089110.7774
                                                                        49.5004
        37.7504
   1200151.16047    969386.12144
                  23724629.4224                                   23724623.4144
                                                                        43.5004
        25.0004
   -232919.58247   -140157.28545
                  23377459.8674                                   23377455.0984
                                                                        42.0004
        30.5004
 -23118075.76248 -17966509.27046
                  20752121.0084                                   20752116.9454
                                                                        51.0004
        41.0004
  -8719601.24247  -6755061.10945
                  22649282.9844                                   22649278.6994
                                                                        45.7504
        30.5004
 09 10 13  1 11 30.0000000  0  9G02G04G05G13G29G16G07G10G25
  -5816424.79748  -4496891.35246
                  21504438.8054                                   21504432.3244
                                                                        49.7504
        39.2504
  11633577.57047   9080177.71943
                  24322995.6954                                   24322992.8984
                                                                        43.0004
        22.2504
 -18978938.55148 -14742962.22346
                  21257227.3914                                   21257222.4414
                                                                        50.5004
        41.7504
  -9466474.55947  -7335681.84845
                  22038791.4224                                   22038786.5864
                                                                        47.5004
        32.2504
 -18160938.32448 -14107288.17246
                  22075322.3984                                   22075318.3244
                                                                        48.7504
        37.7504
   1101618.62547    892607.55143
                  23705879.2344                                   23705873.5864
                                                                        43.2504
        23.0004
   -380802.42246   -255390.62944
                  23349319.2974                                   23349314.0274
                                                                        41.5004
        29.0004
 -23233646.77348 -18056564.60546
                  20730128.2504                                   20730124.3754
                                                                        50.7504
        40.7504
  -8813254.43447  -6828037.64545
                  22631461.6954                                   22631457.1524
                                                                        44.5004
        31.5004
 09 10 13  1 12  0.0000000  0  9G02G04G05G13G29G16G07G10G25
  -5815049.94148  -4495820.06246
                  21504700.1644                                   21504693.9574
                                                                        49.2504
        38.7504
  11675385.87147   9112755.64144
                  24330951.2344                                   24330948.5124
                                                                        44.0004
        25.2504
 -19112477.62548 -14847018.63347
                  21231815.8284                                   21231811.0514
                                                                        51.0004
        42.0004
  -9471199.12147  -7339363.33245
                  22037892.1564                                   22037887.2934
                                                                        47.5004
        32.0004
 -18232786.81248 -14163274.01246
                  22061650.0634                                   22061646.2384
                                                                        49.7504
        37.7504
   1003698.71547    816306.32044
                  23687245.2034                                   23687240.1604
                                                                        43.5004
        24.0004
   -528225.99647   -370266.09844
                  23321264.7584                                   23321260.0394
                                                                        42.2504
        28.5004
 -23348663.55948 -18146188.07446
                  20708241.3204                                   20708237.5704
                                                                        50.7504
        41.5004
  -8906312.96147  -6900550.79345
                  22613752.8054                                   22613748.5434
                                                                        45.0004
        31.0004
 09 10 13  1 12 30.0000000  0  9G02G04G05G13G29G16G07G10G25
  -5813200.15648  -4494378.67246
                  21505052.4844                                   21505045.6334
                                                                        49.5004
        38.5004
  11717328.54747   9145438.10944
                  24338933.8364                                   24338930.2544
                                                                        44.5004
        25.7504
 -19245545.82448 -14950708.12546
                  21206493.9144                                   21206488.9064
                                                                        51.0004
        41.5004
  -9475396.85247  -7342634.28145
                  22037093.2664                                   22037088.4224
                                                                        46.7504
        31.7504
 -18304004.70748 -14218768.46946
                  22048097.6724                                   22048093.8714
                                                                        48.7504
        38.0004
    906392.33247    740483.15643
                  23668728.5084                                   23668722.9454
                                                                        44.0004
        23.0004
   -675187.57047   -484781.57844
                  23293298.2584                                   23293294.2814
                                                                        42.5004
        28.5004
 -23463124.82048 -18235378.66046
                  20686460.1884                                   20686455.6844
                                                                        50.2504
        41.0004
  -8998776.10547  -6972600.02045
                  22596157.7894                                   22596153.0904
                                                                        45.5004
        30.2504
 09 10 13  1 13  0.0000000  0  9G02G04G05G13G29G16G07G10G25
  -5810875.12948  -4492566.96146
                  21505494.8134                                   21505488.4694
                                                                        49.0004
        39.0004
  11759406.15647   9178225.78944
                  24346940.7424                                   24346937.8874
                                                                        44.5004
        26.0004
 -19378139.01248 -15054027.50047
                  21181261.9454                                   21181257.7704
                                                                        51.2504
        42.0004
  -9479067.42247  -7345494.46545
                  22036394.7664                                   22036389.6524
                                                                        47.0004
        30.5004
 -18374589.60248 -14273769.68446
                  22034666.1884                                   22034662.0314
                                                                        49.2504
        38.0004
    809703.14147    665140.94944
                  23650329.4064                                   23650323.4104
                                                                        44.0004
        24.0004
   -821682.50446   -598933.41844
                  23265421.8834                                   23265417.4304
                                                                        41.5004
        29.2504
 -23577027.24648 -18324133.79346
                  20664785.4694                                   20664781.0474
                                                                        51.0004
        40.7504
  -9090640.95747  -7044183.01245
                  22578676.8524                                   22578672.0124
                                                                        44.5004
        31.2504
 09 10 13  1 13 30.0000000  0  9G02G04G05G13G29G16G07G10G25
  -5808075.46148  -4490385.41446
                  21506027.3204                                   21506021.6884
                                                                        49.2504
        38.5004
  11801618.50047   9211118.74244
                  24354972.8754                                   24354970.4694
                                                                        42.5004
        25.5004
 -19510255.36748 -15156975.30146
                  21156120.9224                                   21156116.3874
                                                                        51.2504
        41.5004
  -9482212.24247  -7347944.99245
                  22035796.2114                                   22035791.6174
                                                                        47.0004
        31.0004
 -18444540.91048 -14328277.19946
                  22021354.9774                                   22021351.0744
                                                                        49.0004
        39.0004
    713632.46147    590280.64843
                  23632047.2344                                   23632041.8244
                                                                        44.0004
        22.7504
   -967706.84047   -712718.50844
                  23237634.2034                                   23237629.8754
                                                                        42.5004
        29.5004
 -23690369.25048 -18412452.24246
                  20643217.0634                                   20643212.7034
                                                                        51.5004
        41.2504
  -9181905.60247  -7115298.32445
                  22561309.4924                                   22561304.6604
                                                                        45.0004
        31.5004
 09 10 13  1 14  0.0000000  0  9G02G04G05G13G29G16G07G10G25
  -5804805.10248  -4487837.07846
                  21506650.0314                                   21506643.1294
                                                                        49.5004
        38.5004
  11843960.78946   9244112.77343
                  24363029.9304                                   24363027.9574
                                                                        41.0004
        22.5004
 -19641895.26648 -15259551.85546
                  21131070.6644                                   21131066.0984
                                                                        51.5004
        41.5004
  -9484835.68047  -7349989.23045
                  22035297.1804                                   22035292.2584
                                                                        46.7504
        31.0004
 -18513860.39148 -14382292.37146
                  22008163.9454                                   22008160.3094
                                                                        49.0004
        37.5004
    618179.55147    515901.76243
                  23613883.1414                                   23613877.5594
                                                                        44.2504
        22.7504
  -1113260.15647   -826136.62144
                  23209936.2584                                   23209931.6954
                                                                        43.0004
        29.7504
 -23803151.38348 -18500334.40646
                  20621755.3914                                   20621750.7504
                                                                        50.7504
        41.0004
  -9272571.41447  -7185947.00445
                  22544056.4384                                   22544051.7274
                                                                        44.7504
        31.2504
 09 10 13  1 14 30.0000000  0  9G02G04G05G13G29G16G07G10G25
  -5801062.16448  -4484920.53146
                  21507361.8134                                   21507355.5554
                                                                        49.0004
        38.5004
  11886434.97347   9277209.51643
                  24371113.0004                                   24371109.8524
                                                                        42.5004
        22.5004
 -19773052.90648 -15361752.60546
                  21106112.4614                                   21106107.7814
                                                                        51.0004
        41.7504
  -9486936.46147  -7351626.23445
                  22034897.4454                                   22034892.3634
                                                                        46.5004
        31.5004
 -18582543.91448 -14435812.00846
                  21995093.5164                                   21995089.8364
                                                                        49.0004
        37.5004
    523349.18847    442007.96543
                  23595838.1254                                   23595832.2464
                                                                        43.5004
        22.5004
  -1258336.10247   -939182.76645
                  23182329.5784                                   23182324.8204
                                                                        43.7504
        30.5004
 -23915368.93448 -18587776.64546
                  20600401.0164                                   20600396.4804
                                                                        51.0004
        40.7504
  -9362633.63747  -7256125.32445
                  22526918.0704                                   22526913.7384
                                                                        44.5004
        30.7504
 09 10 13  1 15  0.0000000  0  9G02G04G05G13G29G16G07G10G25
  -5796848.58248  -4481637.23846
                  21508164.0704                                   21508157.8914
                                                                        49.7504
        39.0004
  11929035.148 7
                  24379221.133
                                                                        43.750

 -19903726.92648 -15463576.52746
                  21081245.8834                                   21081241.4924
                                                                        51.0004
        41.2504
  -9488516.58647  -7352857.49245
                  22034596.7734                                   22034591.9774
                                                                        47.2504
        31.2504
 -18650591.75848 -14488836.30546
                  21982144.7974                                   21982140.1524
                                                                        48.2504
        37.7504
    429142.28547    368599.98044
                  23577910.8134                                   23577904.5234
                                                                        43.0004
        24.0004
  -1402931.66847  -1051854.66044
                  23154814.3984                                   23154809.1174
                                                                        44.0004
        28.7504
 -24027020.40648 -18674777.77746
                  20579154.4304                                   20579150.3014
                                                                        52.0004
        41.0004
  -9452091.62147  -7325832.84445
                  22509894.5004                                   22509890.3634
                                                                        44.7504
        30.7504
 09 10 13  1 15 30.0000000  0  9G02G04G05G13G29G16G07G10G25
  -5792165.97348  -4477988.46546
                  21509054.7664                                   21509048.3954
                                                                        49.0004
        38.5004
  11971771.45347   9309558.52354
                  24387352.6024                                   24387347.9804
                                                                        43.5004
        24.2504
 -20033915.88348 -15565022.47347
                  21056471.8364                                   21056467.1994
                                                                        51.7504
        42.0004
  -9489578.91847  -7353685.27045
                  22034394.7194                                   22034389.6564
                                                                        47.0004
        31.5004
 -18718003.58248 -14541364.99246
                  21969316.7504                                   21969312.7504
                                                                        49.0004
        37.7504
    335560.00847    295678.72743
                  23560102.4844                                   23560096.4694
                                                                        42.2504
        22.2504
  -1547044.18447  -1164150.14145
                  23127390.1024                                   23127385.0904
                                                                        44.0004
        30.0004
 -24138104.89548 -18761337.11346
                  20558015.7734                                   20558011.1524
                                                                        51.5004
        41.2504
  -9540944.69947  -7395069.00445
                  22492986.2814                                   22492982.0204
                                                                        45.0004
        30.2504
 09 10 13  1 16  0.0000000  0  9G02G04G05G13G29G16G07G10G25
  -5787015.28948  -4473974.96146
                  21510034.9144                                   21510029.0434
                                                                        49.2504
        39.0004
  12014630.82047   9342955.41844
                  24395507.8594                                   24395504.2344
                                                                        43.0004
        24.5004
 -20163617.18448 -15666088.41446
                  21031790.5634                                   21031786.2384
                                                                        51.5004
        41.5004
  -9490123.99247  -7354110.00045
                  22034291.1884                                   22034286.0864
                                                                        46.5004
        32.2504
 -18784779.02048 -14593397.80146
                  21956609.9844                                   21956605.6484
                                                                        48.5004
        38.2504
    242603.94547    223245.42643
                  23542414.1954                                   23542408.2304
                                                                        42.2504
        22.5004
  -1690670.28547  -1276066.60245
                  23100059.0234                                   23100054.4774
                                                                        42.5004
        30.2504
 -24248620.74248 -18847453.35246
                  20536985.0084                                   20536981.1214
                                                                        50.0004
        41.0004
  -9629191.33647  -7463832.60545
                  22476193.5784                                   22476189.3054
                                                                        44.5004
        31.0004
