     2.11           OBSERVATION DATA    G (GPS)             RINEX VERSION / TYPE
teqc  2019Feb25                         20221121 12:28:36UTCPGM / RUN BY / DATE
OSX ker:10.11.6|Core i5|gcc 4.3 -m64|OSX ker:10.10+|=+      COMMENT
BIT 2 OF LLI FLAGS DATA COLLECTED UNDER A/S CONDITION       COMMENT
04712950                                                    MARKER NAME
2950                                                        MARKER NUMBER
-Unknown-           -Unknown-                               OBSERVER / AGENCY
0220400471          TRIMBLE R7          2.30                REC # / TYPE / VERS
-Unknown-           TRM39105.00     NONE                    ANT # / TYPE
  1449459.9603 -1709242.7503  5952443.4656                  APPROX POSITION XYZ
        0.0000        0.0000        0.0000                  ANTENNA: DELTA H/E/N
     1     1                                                WAVELENGTH FACT L1/2
    20    L1    L2    L5    L6    L7    L8    C1    P1    C2# / TYPES OF OBSERV
          P2    C5    C6    C7    C8    S1    S2    S5    S6# / TYPES OF OBSERV
          S7    S8                                          # / TYPES OF OBSERV
    30.0000                                                 INTERVAL
    15                                                      LEAP SECONDS
Forced Modulo Decimation to 30 seconds                      COMMENT
 SNR is mapped to RINEX snr flag value [0-9]                COMMENT
  L1 & L2: min(max(int(snr_dBHz/6), 0), 9)                  COMMENT
teqc edited: Beidou # 1 - 37 excluded                       COMMENT
  2009    10    22     0     0    0.0000000     GPS         TIME OF FIRST OBS
                                                            END OF HEADER
 09 10 22  0  0  0.0000000  0 10G02G04G05G10G13G23G29G16G07G25
  -8841144.23848  -6855910.30147
                  20758008.8204                                   20758002.3324
                                                                        52.2504
        42.0004
  -1219647.05547   -942992.19145
                  22937251.9534                                   22937248.2814
                                                                        46.2504
        31.0004
 -19865672.50848 -15424996.92246
                  22226307.7274                                   22226303.8364
                                                                        50.0004
        38.5004
 -19036687.70748 -14775763.95746
                  21455657.7734                                   21455653.4144
                                                                        51.0004
        39.7504
 -10263626.36348  -7959513.43745
                  21411775.0164                                   21411770.4534
                                                                        50.7504
        35.2504
  -2692248.68047  -2084524.26243
                  23494173.5704                                   23494167.2304
                                                                        44.0004
        23.7504
 -16221653.30948 -12587823.89146
                  22335808.2734                                   22335804.7344
                                                                        49.2504
        37.5004
  -2050236.28146  -1563315.68043
                  24300926.5704                                   24300922.3444
                                                                        41.7504
        21.5004
   -323494.58656   -237890.98053
                  24514737.7194                                   24514733.6954
                                                                        40.2504
        20.5004
 -13842085.32847 -10772412.48844
                  23156981.3054                                   23156977.0634
                                                                        44.5004
        29.0004
 09 10 22  0  0 30.0000000  0 10G02G04G05G10G13G23G29G16G07G25
  -8898947.82448  -6900952.03147
                  20747009.1024                                   20747003.2154
                                                                        52.0004
        42.0004
  -1213486.25047   -938191.58645
                  22938423.8914                                   22938420.5084
                                                                        46.5004
        32.0004
 -20049047.47348 -15567886.55146
                  22191412.7974                                   22191408.7664
                                                                        50.0004
        39.0004
 -19206443.66848 -14908041.34446
                  21423354.1254                                   21423350.2034
                                                                        51.0004
        39.0004
 -10331474.88748  -8012382.50445
                  21398863.8364                                   21398858.6134
                                                                        50.2504
        35.5004
  -2695559.00847  -2087103.74244
                  23493544.4224                                   23493536.9344
                                                                        44.0004
        26.5004
 -16357077.95748 -12693349.58246
                  22310037.7274                                   22310034.7774
                                                                        49.2504
        37.0004
  -2208769.79346  -1686848.28943
                  24270758.7114                                   24270754.6644
                                                                        41.5004
        20.7504
   -517916.31246   -389388.38243
                  24477740.1094                                   24477736.4884
                                                                        39.7504
        20.2504
 -13995180.55547 -10891707.51644
                  23127847.8914                                   23127843.9924
                                                                        44.5004
        27.0004
 09 10 22  0  1  0.0000000  0 10G02G04G05G10G13G23G29G16G07G25
  -8956172.11748  -6945542.40246
                  20736119.3834                                   20736113.5864
                                                                        52.5004
        41.7504
  -1207045.93447   -933173.17245
                  22939649.9774                                   22939646.2194
                                                                        46.7504
        32.2504
 -20232063.89548 -15710496.73446
                  22156585.9454                                   22156581.5084
                                                                        50.0004
        38.5004
 -19375734.64548 -15039956.39146
                  21391139.0314                                   21391135.3524
                                                                        51.7504
        39.2504
 -10398664.80948  -8064738.43445
                  21386077.6804                                   21386073.5864
                                                                        49.0004
        35.7504
  -2698500.19547  -2089395.62144
                  23492984.1414                                   23492978.0634
                                                                        44.2504
        26.5004
 -16491921.09048 -12798422.14146
                  22284378.2734                                   22284374.5434
                                                                        49.0004
        38.0004
  -2366800.22346  -1809988.90643
                  24240686.4694                                   24240682.3364
                                                                        39.0004
        19.0004
   -712068.66046   -540675.86743
                  24440795.5474                                   24440790.5274
                                                                        40.7504
        20.7504
 -14147774.16847 -11010611.65244
                  23098810.5634                                   23098806.4184
                                                                        44.5004
        27.7504
 09 10 22  0  1 30.0000000  0 10G02G04G05G10G13G23G29G16G07G25
  -9012817.29348  -6989681.49247
                  20725340.2664                                   20725334.2894
                                                                        52.5004
        42.0004
  -1200328.31647   -927938.71145
                  22940928.4774                                   22940924.7584
                                                                        46.5004
        32.2504
 -20414717.61348 -15852824.27046
                  22121827.9774                                   22121823.7734
                                                                        50.0004
        39.2504
 -19544556.98448 -15171506.29346
                  21359013.3284                                   21359009.1414
                                                                        51.2504
        39.0004
 -10465196.50448  -8116581.42245
                  21373417.3984                                   21373412.9184
                                                                        49.5004
        35.7504
  -2701073.87947  -2091401.10544
                  23492494.5004                                   23492488.4574
                                                                        44.5004
        27.0004
 -16626178.35548 -12903038.21546
                  22258829.9064                                   22258825.8674
                                                                        49.5004
        37.5004
  -2524323.76246  -1932734.55543
                  24210710.1414                                   24210706.0984
                                                                        39.5004
        19.2504
   -905948.42246   -691750.94943
                  24403900.0944                                   24403896.2384
                                                                        40.5004
        22.5004
 -14299863.88347 -11129123.10544
                  23069868.6414                                   23069864.6254
                                                                        44.5004
        28.0004
 09 10 22  0  2  0.0000000  0 10G02G04G05G10G13G23G29G16G07G25
  -9068879.95748  -7033366.68446
                  20714671.7584                                   20714665.5514
                                                                        52.0004
        41.7504
  -1193330.71147   -922486.02745
                  22942259.8914                                   22942256.8524
                                                                        46.2504
        31.2504
 -20597003.70348 -15994865.36746
                  22087140.5864                                   22087136.0744
                                                                        50.0004
        39.0004
 -19712905.05148 -15302686.59046
                  21326977.5314                                   21326973.6484
                                                                        51.0004
        39.0004
 -10531067.17648  -8167909.29345
                  21360882.8444                                   21360878.4924
                                                                        49.5004
        35.0004
  -2703278.63747  -2093119.14144
                  23492074.7114                                   23492068.4694
                                                                        42.7504
        26.0004
 -16759845.71548 -13007194.62146
                  22233394.0394                                   22233390.6294
                                                                        49.5004
        37.5004
  -2681334.00846  -2055080.21143
                  24180832.7424                                   24180828.0314
                                                                        41.2504
        19.5004
  -1099548.18447   -842607.80544
                  24367060.3594                                   24367055.9414
                                                                        43.0004
        25.5004
 -14451443.24247 -11247236.90644
                  23041023.7034                                   23041019.6134
                                                                        43.7504
        25.5004
 09 10 22  0  2 30.0000000  0 10G02G04G05G10G13G23G29G16G07G25
  -9124359.15248  -7076597.20347
                  20704114.6024                                   20704108.2704
                                                                        51.7504
        42.5004
  -1186053.52747   -916815.50445
                  22943644.2114                                   22943641.1914
                                                                        44.5004
        31.0004
 -20778917.84848 -16136616.74246
                  22052523.5234                                   22052519.0474
                                                                        50.5004
        39.7504
 -19880774.24248 -15433493.68746
                  21295033.0164                                   21295028.8674
                                                                        51.2504
        40.0004
 -10596276.19948  -8218721.57846
                  21348474.3054                                   21348469.8674
                                                                        49.0004
        36.0004
  -2705114.84447  -2094549.98444
                  23491725.4454                                   23491719.3204
                                                                        44.0004
        26.2504
 -16892918.45348 -13110887.64846
                  22208070.8284                                   22208066.7154
                                                                        49.7504
        37.0004
  -2837827.09046  -2177022.90243
                  24151052.6804                                   24151048.7274
                                                                        41.0004
        19.0004
  -1292863.33247   -993242.95744
                  24330273.9774                                   24330269.1174
                                                                        44.2504
        27.7504
 -14602508.39847 -11364950.02044
                  23012277.8134                                   23012273.0824
                                                                        44.2504
        26.5004
 09 10 22  0  3  0.0000000  0 10G02G04G05G10G13G23G29G16G07G25
  -9179250.79348  -7119369.92246
                  20693669.0554                                   20693662.6994
                                                                        52.2504
        41.5004
  -1178493.56647   -910924.62145
                  22945082.8674                                   22945079.4264
                                                                        45.0004
        31.5004
 -20960452.70348 -16278072.45746
                  22017978.3204                                   22017974.2424
                                                                        50.0004
        40.5004
 -20048158.73448 -15563923.16446
                  21263180.9774                                   21263176.6024
                                                                        51.2504
        39.2504
 -10660819.36748  -8269014.98445
                  21336191.8204                                   21336187.4264
                                                                        49.2504
        35.7504
  -2706580.16047  -2095691.80944
                  23491446.7194                                   23491440.5084
                                                                        42.2504
        25.7504
 -17025391.12948 -13214113.11346
                  22182861.9224                                   22182858.2154
                                                                        49.0004
        37.0004
  -2993795.51246  -2298556.71943
                  24121373.1564                                   24121368.8094
                                                                        41.0004
        20.7504
  -1485885.39547  -1143649.73044
                  24293542.6334                                   24293538.3364
                                                                        42.5004
        27.0004
 -14753052.22747 -11482256.92244
                  22983630.6804                                   22983625.1644
                                                                        44.5004
        27.0004
 09 10 22  0  3 30.0000000  0 10G02G04G05G10G13G23G29G16G07G25
  -9233556.94148  -7161686.36747
                  20683334.9064                                   20683328.5004
                                                                        52.2504
        42.0004
  -1170654.21147   -904816.03145
                  22946574.9614                                   22946570.8914
                                                                        45.5004
        30.7504
 -21141607.90248 -16419232.32446
                  21983505.7194                                   21983501.3754
                                                                        50.0004
        39.7504
 -20215057.52748 -15693974.21546
                  21231420.9224                                   21231416.9064
                                                                        51.5004
        40.0004
 -10724699.34848  -8318791.59445
                  21324036.0474                                   21324031.4734
                                                                        48.5004
        35.2504
  -2707678.23047  -2096547.48044
                  23491237.6094                                   23491231.2114
                                                                        42.7504
        26.5004
 -17157263.14548 -13316870.53146
                  22157767.6334                                   22157763.6914
                                                                        49.7504
        36.7504
  -3149237.95346  -2419680.69143
                  24091793.7894                                   24091789.3324
                                                                        40.5004
        20.5004
  -1678612.74647  -1293826.85244
                  24256867.0944                                   24256863.7034
                                                                        42.5004
        26.5004
 -14903073.95747 -11599157.02344
                  22955081.8134                                   22955077.4304
                                                                        44.7504
        27.7504
 09 10 22  0  4  0.0000000  0 10G02G04G05G10G13G23G29G16G07G25
  -9287279.04348  -7203547.71547
                  20673112.2504                                   20673105.6804
                                                                        52.0004
        42.0004
  -1162538.08647   -898491.75845
                  22948119.3984                                   22948115.4534
                                                                        45.5004
        31.0004
 -21322382.49648 -16560095.60246
                  21949105.3204                                   21949101.0124
                                                                        48.7504
        40.0004
 -20381469.48448 -15823645.89846
                  21199754.4144                                   21199749.8914
                                                                        51.5004
        40.2504
 -10787918.16048  -8368053.01245
                  21312005.8754                                   21312001.4024
                                                                        48.5004
        35.0004
  -2708412.50047  -2097119.66443
                  23491097.4774                                   23491091.5354
                                                                        42.7504
        22.7504
 -17288533.98448 -13419159.49646
                  22132787.5864                                   22132783.7934
                                                                        49.5004
        37.0004
  -3304153.16846  -2540393.82043
                  24062314.6724                                   24062309.9414
                                                                        40.7504
        23.0004
  -1871042.83246  -1443772.29744
                  24220248.8524                                   24220244.6684
                                                                        40.5004
        24.7504
 -15052571.95747 -11715648.96144
                  22926633.7504                                   22926629.2704
                                                                        43.0004
        27.0004
 09 10 22  0  4 30.0000000  0 10G02G04G05G10G13G23G29G16G07G25
  -9340418.60248  -7244955.15646
                  20662999.8364                                   20662993.3984
                                                                        51.7504
        41.7504
  -1154148.33247   -891954.28945
                  22949716.1094                                   22949711.8914
                                                                        46.5004
        30.2504
 -21502774.91448 -16700661.22746
                  21914777.8834                                   21914773.5594
                                                                        48.5004
        39.0004
 -20547393.14148 -15952937.06646
                  21168179.7194                                   21168175.7814
                                                                        51.2504
        40.0004
 -10850478.02048  -8416800.99645
                  21300101.1644                                   21300096.2854
                                                                        48.5004
        35.7504
  -2708786.39147  -2097410.96143
                  23491026.6094                                   23491020.2934
                                                                        42.0004
        22.7504
 -17419202.19148 -13520978.84846
                  22107922.2974                                   22107918.0554
                                                                        49.5004
        37.0004
  -3458539.60946  -2660694.91443
                  24032935.0634                                   24032931.3834
                                                                        40.5004
        22.0004
  -2063174.09846  -1593484.87543
                  24183687.4924                                   24183683.3444
                                                                        37.5004
        22.0004
 -15201545.48447 -11831732.19944
                  22898284.6884                                   22898280.3364
                                                                        44.5004
        29.2504
 09 10 22  0  5  0.0000000  0 10G02G04G05G10G13G23G29G16G07G25
  -9392975.89848  -7285908.86747
                  20652998.6024                                   20652992.4304
                                                                        52.0004
        42.0004
  -1145485.07047   -885203.62545
                  22951364.2974                                   22951359.9884
                                                                        46.7504
        31.5004
 -21682782.34848 -16840926.80546
                  21880523.7974                                   21880519.2114
                                                                        49.7504
        39.2504
 -20712826.19148 -16081845.92246
                  21136698.7344                                   21136694.9734
                                                                        51.2504
        40.0004
 -10912378.31648  -8465035.00045
                  21288321.8754                                   21288317.0434
                                                                        49.5004
        35.2504
  -2708800.77747  -2097422.24244
                  23491023.6804                                   23491017.8094
                                                                        42.5004
        24.5004
 -17549266.18448 -13622327.38746
                  22083171.8364                                   22083168.1374
                                                                        49.5004
        37.2504
  -3612393.94146  -2780581.52343
                  24003658.1414                                   24003653.9844
                                                                        40.5004
        22.0004
  -2255001.16846  -1742960.41843
                  24147183.7424                                   24147179.5664
                                                                        37.5004
        22.5004
 -15349990.64847 -11947403.73044
                  22870036.3204                                   22870032.0634
                                                                        45.0004
        29.2504
 09 10 22  0  5 30.0000000  0 10G02G04G05G10G13G23G29G16G07G25
  -9444950.75448  -7326408.73047
                  20643108.1484                                   20643101.1884
                                                                        52.5004
        42.0004
  -1136550.27047   -878241.44145
                  22953064.4144                                   22953060.9224
                                                                        45.7504
        30.7504
 -21862401.62948 -16980889.92646
                  21846342.7734                                   21846338.7894
                                                                        49.2504
        39.0004
 -20877765.61348 -16210370.17246
                  21105312.0704                                   21105308.2974
                                                                        51.0004
        39.7504
 -10973620.10248  -8512755.78945
                  21276668.0234                                   21276663.4574
                                                                        48.5004
        35.5004
  -2708458.01647  -2097155.15244
                  23491089.4304                                   23491083.0554
                                                                        43.0004
        24.7504
 -17678723.18048 -13723202.94946
                  22058536.7584                                   22058533.0634
                                                                        49.5004
        36.5004
  -3765713.25446  -2900051.07843
                  23974482.7194                                   23974478.1954
                                                                        39.0004
        22.0004
  -2446521.00046  -1892196.57843
                  24110738.9304                                   24110734.6604
                                                                        39.5004
        22.2504
 -15497905.31247 -12062661.90644
                  22841889.1804                                   22841885.2934
                                                                        44.2504
        29.2504
 09 10 22  0  6  0.0000000  0 10G02G04G05G10G13G23G29G16G07G25
  -9496346.54348  -7366457.36346
                  20633327.7274                                   20633320.9774
                                                                        53.0004
        41.5004
  -1127347.97347   -871070.85945
                  22954815.3984                                   22954812.8164
                                                                        46.2504
        31.2504
 -22041633.38348 -17120551.05546
                  21812236.6484                                   21812232.3554
                                                                        51.0004
        40.0004
 -21042211.99248 -16338510.18446
                  21074018.6724                                   21074014.8134
                                                                        51.2504
        39.7504
 -11034206.86748  -8559966.28945
                  21265139.0234                                   21265134.1524
                                                                        49.0004
        35.2504
  -2707762.50847  -2096613.12944
                  23491221.8914                                   23491215.0634
                                                                        43.0004
        24.2504
 -17807574.59848 -13823606.70346
                  22034017.3834                                   22034014.1254
                                                                        49.0004
        37.7504
  -3918497.26646  -3019103.45743
                  23945408.2114                                   23945404.1954
                                                                        39.2504
        22.2504
  -2637732.55147  -2041192.67243
                  24074353.2274                                   24074347.5904
                                                                        43.0004
        22.5004
 -15645289.42647 -12177506.64844
                  22813843.0234                                   22813838.9264
                                                                        43.5004
        29.2504
 09 10 22  0  6 30.0000000  0 10G02G04G05G10G13G23G29G16G07G25
  -9547164.09448  -7406055.44546
                  20623657.3984                                   20623650.9884
                                                                        52.5004
        41.2504
  -1117879.88347   -863693.14845
                  22956617.6024                                   22956613.8524
                                                                        46.7504
        30.5004
 -22220475.21548 -17259908.27346
                  21778204.5234                                   21778199.5434
                                                                        50.0004
        39.7504
 -21206163.47348 -16466264.60946
                  21042820.0474                                   21042816.1954
                                                                        51.2504
        39.7504
 -11094139.54348  -8606667.12945
                  21253734.0784                                   21253729.1644
                                                                        48.5004
        35.5004
  -2706716.94547  -2095798.42643
                  23491420.4844                                   23491414.0824
                                                                        42.2504
        22.7504
 -17935818.63748 -13923537.16846
                  22009613.6804                                   22009610.3874
                                                                        48.7504
        38.0004
  -4070744.01646  -3137737.28943
                  23916436.3444                                   23916432.5514
                                                                        38.0004
        21.7504
  -2828632.49247  -2189945.88344
                  24038026.0474                                   24038021.2384
                                                                        42.5004
        26.7504
 -15792141.02747 -12291936.44544
                  22785897.5084                                   22785894.0944
                                                                        43.5004
        29.7504
 09 10 22  0  7  0.0000000  0 10G02G04G05G10G13G23G29G16G07G25
  -8021983.00448  -6217602.64146
                  20913889.7114                                   20913883.3834
                                                                        52.5004
        41.0004
    467271.16047    371489.50845
                  23258261.6254                                   23258258.5704
                                                                        47.0004
        30.0004
 -20823499.71548 -16171355.93446
                  22044039.5634                                   22044035.3834
                                                                        49.7504
        40.0004
 -19794192.69548 -15366027.62946
                  21311509.0474                                   21311504.7894
                                                                        51.2504
        40.0004
  -9577997.93448  -7425258.05945
                  21542245.8364                                   21542241.5204
                                                                        50.0004
        35.2504
  -1129904.01646   -867112.96543
                  23791478.1884                                   23791471.9384
                                                                        41.5004
        22.5004
 -16488029.44548 -12795389.73046
                  22285118.8834                                   22285115.2464
                                                                        49.5004
        38.0004
  -2647025.98046  -2028346.59843
                  24187361.2424                                   24187356.7344
                                                                        39.0004
        21.5004
  -1443791.90647  -1110849.28944
                  24301552.0784                                   24301548.2344
                                                                        42.0004
        27.2504
 -14363033.68747 -11178346.30144
                  23057847.7734                                   23057843.7814
                                                                        43.0004
        29.5004
 09 10 22  0  7 30.0000000  0 10G02G04G05G10G13G23G29G16G07G25
  -8071651.12148  -6256305.09446
                  20904438.1564                                   20904431.7734
                                                                        52.2504
        41.7504
    477260.29747    379273.25045
                  23260162.6954                                   23260158.9414
                                                                        47.2504
        30.7504
 -21001560.24648 -16310104.38746
                  22010155.9694                                   22010151.3714
                                                                        50.0004
        40.0004
 -19957152.61748 -15493009.30946
                  21280498.6254                                   21280494.5824
                                                                        50.2504
        39.5004
  -9636631.00048  -7470946.12945
                  21531088.3674                                   21531083.7234
                                                                        50.5004
        34.7504
  -1128170.01647   -865761.89143
                  23791808.1884                                   23791801.8324
                                                                        42.7504
        23.2504
 -16615058.52348 -12894373.37946
                  22260945.6724                                   22260941.9494
                                                                        49.2504
        38.0004
  -2798194.90646  -2146140.53143
                  24158594.3204                                   24158590.0314
                                                                        39.2504
        21.7504
  -1634063.87546  -1259113.11344
                  24265344.5084                                   24265340.6254
                                                                        40.0004
        24.7504
 -14508818.51247 -11291944.83644
                  23030105.7974                                   23030101.7664
                                                                        42.7504
        28.2504
 09 10 22  0  8  0.0000000  0 10G02G04G05G10G13G23G29G16G07G25
  -8120746.81248  -6294561.48847
                  20895095.6804                                   20895089.4344
                                                                        52.5004
        42.0004
    487506.35247    387257.18445
                  23262112.2584                                   23262108.6994
                                                                        46.7504
        30.2504
 -21179228.66448 -16448547.28546
                  21976346.8834                                   21976342.2234
                                                                        51.0004
        40.0004
 -20119615.27348 -15619603.59446
                  21249583.1564                                   21249579.2344
                                                                        51.0004
        40.0004
  -9694616.97348  -7516129.97345
                  21520053.8674                                   21520049.4144
                                                                        49.2504
        35.5004
  -1126095.98847   -864145.86743
                  23792202.2734                                   23792196.5314
                                                                        42.5004
        23.5004
 -16741479.50448 -12992883.19546
                  22236888.7894                                   22236884.7424
                                                                        49.5004
        38.7504
  -2948823.14146  -2263513.19943
                  24129931.2814                                   24129926.6764
                                                                        39.5004
        22.0004
  -1824017.76246  -1407129.02344
                  24229197.8984                                   24229193.5124
                                                                        38.7504
        26.2504
 -14654067.57847 -11405125.93444
                  23002465.7504                                   23002461.5904
                                                                        43.2504
        29.2504
 09 10 22  0  8 30.0000000  0 10G02G04G05G10G13G23G29G16G07G25
  -8169272.28148  -6332373.52347
                  20885861.4144                                   20885855.1524
                                                                        52.0004
        42.0004
    498005.73047    395438.53144
                  23264110.1954                                   23264106.5434
                                                                        44.7504
        29.7504
 -21356503.42248 -16586683.46146
                  21942612.4454                                   21942608.3284
                                                                        49.7504
        40.2504
 -20281579.49248 -15745809.39146
                  21218762.3984                                   21218757.9844
                                                                        51.0004
        40.2504
  -9751959.03948  -7560812.12145
                  21509142.5554                                   21509137.8134
                                                                        50.2504
        34.5004
  -1123686.25047   -862268.08643
                  23792661.2814                                   23792655.0904
                                                                        42.0004
        22.5004
 -16867291.57448 -13090918.64146
                  22212947.5554                                   22212943.6254
                                                                        49.5004
        38.0004
  -3098909.37946  -2380463.53143
                  24101370.8984                                   24101366.1024
                                                                        41.0004
        22.5004
  -2013652.44946  -1554896.25844
                  24193110.5944                                   24193107.5594
                                                                        41.2504
        25.7504
 -14798780.89547 -11517889.53944
                  22974928.1174                                   22974923.2584
                                                                        43.0004
        27.7504
 09 10 22  0  9  0.0000000  0 10G02G04G05G10G13G23G29G16G07G25
  -8217229.75048  -6369742.94146
                  20876735.3834                                   20876729.1214
                                                                        52.0004
        41.7504
    508755.76647    403815.15644
                  23266155.9694                                   23266152.0434
                                                                        45.0004
        28.7504
 -21533384.33648 -16724512.73046
                  21908953.0944                                   21908948.9104
                                                                        50.0004
        40.5004
 -20443045.77748 -15871627.23446
                  21188036.1954                                   21188031.8284
                                                                        51.5004
        40.0004
  -9808658.91448  -7604993.88345
                  21498352.7344                                   21498348.1644
                                                                        49.0004
        34.0004
  -1120944.13347   -860131.37143
                  23793183.0084                                   23793176.8364
                                                                        42.7504
        22.7504
 -16992495.19548 -13188479.86746
                  22189121.9224                                   22189118.6804
                                                                        49.7504
        37.7504
  -3248452.68446  -2496990.77343
                  24072914.1094                                   24072909.2424
                                                                        41.7504
        22.0004
  -2202965.19546  -1702412.64543
                  24157086.1564                                   24157081.7584
                                                                        39.7504
        23.2504
 -14942956.92647 -11630234.47344
                  22947492.1724                                   22947487.7154
                                                                        42.0004
        28.2504
 09 10 22  0  9 30.0000000  0 10G02G04G05G10G13G23G29G16G07G25
  -8264619.73448  -6406670.18746
                  20867717.6024                                   20867711.2464
                                                                        52.0004
        41.5004
    519754.32047    412385.41845
                  23268248.8674                                   23268245.2274
                                                                        46.0004
        30.7504
 -21709868.11348 -16862032.53946
                  21875369.6484                                   21875365.0704
                                                                        50.0004
        40.2504
 -20604010.57048 -15997054.24646
                  21157405.7034                                   21157401.8204
                                                                        50.5004
        40.5004
  -9864718.16848  -7648676.44945
                  21487685.0554                                   21487679.9144
                                                                        48.7504
        34.5004
  -1117871.95747   -857737.44943
                  23793767.6174                                   23793761.9344
                                                                        42.0004
        22.5004
 -17117088.08248 -13285565.25446
                  22165413.0234                                   22165408.9304
                                                                        50.0004
        38.0004
  -3397450.59446  -2613093.07443
                  24044560.5474                                   24044554.9414
                                                                        40.7504
        22.0004
  -2391953.07846  -1849675.89543
                  24121123.0164                                   24121118.7734
                                                                        39.2504
        22.7504
 -15086593.95347 -11742159.42644
                  22920159.2344                                   22920154.4384
                                                                        42.2504
        27.0004
 09 10 22  0 10  0.0000000  0 10G02G04G05G10G13G23G29G16G07G25
  -8311444.50848  -6443157.03146
                  20858807.0234                                   20858800.4924
                                                                        52.5004
        41.7504
    530998.91847    421147.41044
                  23270389.0164                                   23270384.7624
                                                                        46.7504
        29.7504
 -21885954.58648 -16999242.74646
                  21841861.1484                                   21841857.2034
                                                                        50.5004
        39.5004
 -20764473.80548 -16122090.53146
                  21126870.7114                                   21126866.3794
                                                                        51.5004
        40.2504
  -9920138.77048  -7691861.32045
                  21477139.1254                                   21477134.2424
                                                                        48.5004
        34.7504
  -1114472.73446   -855088.65243
                  23794414.6174                                   23794408.1804
                                                                        41.7504
        22.0004
 -17241070.46548 -13382174.97746
                  22141819.5944                                   22141815.8014
                                                                        49.7504
        38.2504
  -3545901.30947  -2728769.01643
                  24016311.5394                                   24016305.7194
                                                                        42.0004
        21.7504
  -2580613.82446  -1996684.24643
                  24085221.7274                                   24085216.8714
                                                                        39.7504
        23.5004
 -15229690.69147 -11853663.40244
                  22892928.1564                                   22892923.7234
                                                                        44.5004
        28.2504
 09 10 22  0 10 30.0000000  0 10G02G04G05G10G13G23G29G16G07G25
  -8357704.36348  -6479203.68746
                  20850003.8984                                   20849997.7664
                                                                        51.5004
        41.2504
    542487.73447    430099.67245
                  23272574.8524                                   23272571.8364
                                                                        45.0004
        30.5004
 -22061640.82448 -17136141.04746
                  21808429.6414                                   21808425.1024
                                                                        50.5004
        40.5004
 -20924432.84048 -16246733.92646
                  21096431.4924                                   21096427.0864
                                                                        51.5004
        40.2504
  -9974922.12948  -7734549.60945
                  21466713.8674                                   21466709.2734
                                                                        49.0004
        34.7504
  -1110749.34446   -852187.23443
                  23795123.1644                                   23795116.2504
                                                                        41.5004
        21.5004
 -17364440.17248 -13478307.30146
                  22118343.5554                                   22118339.6174
                                                                        49.5004
        38.2504
  -3693802.71146  -2844016.93743
                  23988167.2814                                   23988161.6254
                                                                        41.2504
        21.5004
  -2768944.54347  -2143435.45744
                  24049384.1804                                   24049378.7274
                                                                        42.5004
        24.0004
 -15372245.13747 -11964744.77044
                  22865801.0394                                   22865796.4344
                                                                        44.2504
        29.2504
 09 10 22  0 11  0.0000000  0 10G02G04G05G10G13G23G29G16G07G25
  -8403402.23448  -6514812.42646
                  20841307.9384                                   20841301.5744
                                                                        53.0004
        41.7504
    554217.74247    439239.88745
                  23274807.3284                                   23274803.6684
                                                                        44.5004
        30.7504
 -22236927.53148 -17272728.03546
                  21775073.3524                                   21775068.7344
                                                                        49.5004
        40.5004
 -21083888.67648 -16370985.25046
                  21066087.8284                                   21066083.4804
                                                                        50.7504
        40.2504
 -10029070.87948  -7776743.41445
                  21456409.9064                                   21456405.3404
                                                                        49.0004
        35.2504
  -1106705.04346   -849035.82443
                  23795892.5784                                   23795886.5234
                                                                        41.7504
        22.5004
 -17487198.77748 -13573963.36746
                  22094983.3524                                   22094979.4804
                                                                        50.0004
        37.5004
  -3841154.29746  -2958836.30543
                  23960126.5084                                   23960121.1564
                                                                        40.0004
        22.0004
  -2956941.78947  -2289926.80944
                  24013609.7344                                   24013604.4384
                                                                        44.0004
        26.5004
 -15514256.09447 -12075402.59844
                  22838777.5164                                   22838773.1214
                                                                        43.5004
        28.5004
 09 10 22  0 11 30.0000000  0 10G02G04G05G10G13G23G29G16G07G25
  -8448540.80548  -6549985.31246
                  20832718.2734                                   20832711.9414
                                                                        52.2504
        41.0004
    566184.59447    448564.69544
                  23277084.5554                                   23277080.8134
                                                                        44.2504
        28.7504
 -22411813.87948 -17409003.17246
                  21741793.7114                                   21741789.2154
                                                                        50.5004
        40.5004
 -21242840.25848 -16494843.59846
                  21035840.1804                                   21035835.9654
                                                                        51.2504
        40.5004
 -10082588.78548  -7818445.64145
                  21446225.5234                                   21446220.9384
                                                                        48.5004
        34.2504
  -1102344.86346   -845638.29343
                  23796722.0314                                   23796716.1724
                                                                        40.7504
        22.2504
 -17609345.62948 -13669142.69946
                  22071739.4774                                   22071735.2584
                                                                        49.7504
        37.7504
  -3987955.99246  -3073227.15243
                  23932190.7344                                   23932186.8914
                                                                        40.0004
        22.5004
  -3144605.78947  -2436158.46944
                  23977898.3054                                   23977893.5554
                                                                        43.5004
        26.7504
 -15655724.56247 -12185637.65644
                  22811856.6484                                   22811852.6954
                                                                        43.0004
        28.5004
 09 10 22  0 12  0.0000000  0 10G02G04G05G10G13G23G29G16G07G25
  -8493122.90648  -6584724.64146
                  20824234.9064                                   20824228.1414
                                                                        52.2504
        41.0004
    578385.00847    458071.50044
                  23279405.9384                                   23279402.1604
                                                                        44.0004
        29.2504
 -22586299.19948 -17544965.84046
                  21708590.0944                                   21708585.7894
                                                                        50.0004
        39.7504
 -21401287.39548 -16618308.85246
                  21005688.2584                                   21005684.8794
                                                                        52.5004
        41.0004
 -10135478.60248  -7859658.46545
                  21436161.1484                                   21436156.1094
                                                                        48.0004
        35.0004
  -1097672.36346   -841997.36744
                  23797611.6094                                   23797605.5234
                                                                        41.5004
        25.2504
 -17730881.17248 -13763845.77046
                  22048612.0394                                   22048607.8714
                                                                        50.5004
        38.0004
  -4134207.12946  -3187189.06643
                  23904359.2504                                   23904356.4064
                                                                        39.5004
        21.0004
  -3331934.92247  -2582129.18744
                  23942250.1484                                   23942245.6724
                                                                        43.7504
        26.2504
 -15796649.94147 -12295449.53944
                  22785040.0864                                   22785035.8284
                                                                        44.0004
        28.5004
 09 10 22  0 12 30.0000000  0 10G02G04G05G10G13G23G29G16G07G25
  -8537148.84448  -6619030.66046
                  20815857.3204                                   20815850.6884
                                                                        52.0004
        41.0004
    590817.78147    467759.35544
                  23281771.8984                                   23281768.2114
                                                                        44.2504
        29.0004
 -22760381.23448 -17680614.16446
                  21675463.5004                                   21675459.2034
                                                                        49.7504
        40.0004
 -21559227.73448 -16741379.28546
                  20975633.8364                                   20975629.6094
                                                                        51.7504
        40.5004
 -10187741.00848  -7900382.36745
                  21426215.5314                                   21426210.6174
                                                                        48.2504
        34.7504
  -1092689.52047   -838114.64144
                  23798559.3754                                   23798553.7624
                                                                        42.5004
        24.2504
 -17851803.84448 -13858071.23046
                  22025601.2974                                   22025597.1214
                                                                        50.0004
        37.0004
  -4279904.76646  -3300719.65243
                  23876633.8834                                   23876630.9614
                                                                        37.2504
        22.7504
  -3518924.94546  -2727835.66044
                  23906666.7274                                   23906662.5904
                                                                        41.5004
        25.5004
 -15937029.62147 -12404836.26245
                  22758326.1484                                   22758321.8714
                                                                        43.5004
        30.0004
 09 10 22  0 13  0.0000000  0 10G02G04G05G10G13G23G29G16G07G25
  -8580619.31248  -6652903.81646
                  20807584.8834                                   20807578.5864
                                                                        52.5004
        41.0004
    603481.34847    477627.06344
                  23284181.9224                                   23284178.0124
                                                                        45.5004
        29.2504
 -22934056.93048 -17815945.80146
                  21642413.9384                                   21642409.5744
                                                                        49.2504
        40.0004
 -21716659.24248 -16864053.18046
                  20945675.4844                                   20945671.4414
                                                                        52.2504
        40.0004
 -10239377.12547  -7940618.32045
                  21416390.2344                                   21416385.3594
                                                                        46.7504
        34.5004
  -1087398.20747   -833991.65643
                  23799566.9304                                   23799560.6994
                                                                        42.5004
        22.5004
 -17972111.88348 -13951817.80946
                  22002707.3364                                   22002703.3054
                                                                        50.7504
        37.7504
  -4425046.27346  -3413816.83243
                  23849014.9064                                   23849011.4844
                                                                        40.0004
        22.5004
  -3705572.67246  -2873275.37944
                  23871147.8364                                   23871145.1414
                                                                        40.0004
        25.0004
 -16076861.66047 -12513796.34844
                  22731717.3444                                   22731713.0904
                                                                        44.2504
        29.7504
 09 10 22  0 13 30.0000000  0 10G02G04G05G10G13G23G29G16G07G25
  -8623536.45348  -6686345.80546
                  20799418.1094                                   20799411.6844
                                                                        53.0004
        41.0004
    616372.73847    487672.29345
                  23286635.0474                                   23286631.3324
                                                                        45.7504
        30.5004
 -23107325.86348 -17950960.53146
                  21609441.9774                                   21609437.7774
                                                                        50.0004
        40.5004
 -21873580.89148 -16986329.80546
                  20915814.1094                                   20915810.4104
                                                                        52.0004
        40.5004
 -10290389.83247  -7980368.52745
                  21406682.4534                                   21406677.9264
                                                                        47.0004
        33.7504
  -1081802.22746   -829631.18443
                  23800631.7974                                   23800625.4454
                                                                        41.7504
        22.0004
 -18091805.12148 -14045085.21546
                  21979930.5164                                   21979926.6174
                                                                        50.2504
        38.2504
  -4569631.34846  -3526480.44143
                  23821501.4534                                   23821497.3524
                                                                        40.7504
        22.7504
  -3891876.05147  -3018446.80944
                  23835696.9064                                   23835692.4964
                                                                        42.5004
        24.7504
 -16216145.03547 -12622328.84444
                  22705212.1724                                   22705208.1294
                                                                        44.0004
        29.2504
 09 10 22  0 14  0.0000000  0 10G02G04G05G10G13G23G29G16G07G25
  -8665898.01248  -6719354.78946
                  20791356.8364                                   20791350.8754
                                                                        53.0004
        41.0004
    629493.31347    497896.10244
                  23289131.8134                                   23289128.3634
                                                                        44.7504
        29.0004
 -23280182.81648 -18085654.21546
                  21576548.2114                                   21576544.1414
                                                                        49.7504
        40.7504
 -22029988.04348 -17108205.47346
                  20886051.3984                                   20886047.0044
                                                                        52.5004
        40.5004
 -10340777.07047  -8019631.30945
                  21397093.9224                                   21397089.3874
                                                                        47.0004
        34.0004
  -1075900.73047   -825032.59043
                  23801754.9064                                   23801747.3794
                                                                        43.2504
        22.5004
 -18210879.58248 -14137870.56646
                  21957271.1024                                   21957267.3524
                                                                        50.2504
        38.0004
  -4713654.52347  -3638706.27043
                  23794095.0314                                   23794090.3404
                                                                        42.2504
        23.5004
  -4077828.58247  -3163344.82844
                  23800311.0704                                   23800306.9614
                                                                        44.0004
        25.7504
 -16354874.66447 -12730429.85944
                  22678812.5944                                   22678808.6414
                                                                        44.2504
        28.5004
 09 10 22  0 14 30.0000000  0 10G02G04G05G10G13G23G29G16G07G25
  -8707708.47348  -6751934.26646
                  20783400.4064                                   20783394.2934
                                                                        52.0004
        41.0004
    642837.94147    508294.48044
                  23291671.2114                                   23291667.4774
                                                                        44.5004
        28.7504
 -23452629.32848 -18220028.06646
                  21543732.9224                                   21543728.3954
                                                                        51.0004
        41.0004
 -22185882.16448 -17229681.39846
                  20856385.5944                                   20856381.4614
                                                                        52.0004
        41.0004
 -10390543.84847  -8058410.63745
                  21387623.8754                                   21387619.3404
                                                                        47.5004
        34.5004
  -1069699.10246   -820200.08643
                  23802934.5164                                   23802927.7034
                                                                        41.2504
        20.5004
 -18329336.80548 -14230174.97346
                  21934729.8914                                   21934726.0164
                                                                        50.0004
        37.2504
  -4857116.48447  -3750494.82843
                  23766795.6414                                   23766790.5784
                                                                        42.7504
        23.5004
  -4263430.52747  -3307969.65644
                  23764992.1644                                   23764987.6054
                                                                        44.2504
        27.7504
 -16493051.87147 -12838100.38745
                  22652518.4614                                   22652514.2974
                                                                        45.2504
        30.0004
 09 10 22  0 15  0.0000000  0 10G02G04G05G10G13G23G29G16G07G25
  -8748965.43448  -6784082.45346
                  20775549.5634                                   20775543.0514
                                                                        53.0004
        41.5004
    656408.32447    518868.80544
                  23294253.2344                                   23294250.0514
                                                                        44.5004
        29.0004
 -23624659.39848 -18354077.46146
                  21510996.5784                                   21510992.1094
                                                                        51.5004
        41.0004
 -22341258.01248 -17350753.46146
                  20826818.2194                                   20826814.0944
                                                                        53.0004
        40.2504
 -10439688.06248  -8096704.84445
                  21378271.9924                                   21378267.3284
                                                                        48.7504
        34.5004
  -1063196.38346   -815133.02743
                  23804171.1884                                   23804165.9224
                                                                        39.5004
        21.2504
 -18447172.61348 -14321995.05946
                  21912306.1884                                   21912302.2154
                                                                        50.2504
        38.2504
  -5000011.80947  -3861841.81244
                  23739603.3754                                   23739598.5784
                                                                        43.5004
        25.0004
  -4448674.98447  -3452315.92244
                  23729741.6174                                   23729736.4774
                                                                        45.5004
        27.7504
 -16630671.49647 -12945336.44144
                  22626330.5394                                   22626326.2934
                                                                        44.5004
        28.7504
 09 10 22  0 15 30.0000000  0 10G02G04G05G10G13G23G29G16G07G25
  -7214252.85948  -5588202.44946
                  21067595.5784                                   21067589.1134
                                                                        52.7504
        41.2504
   2245617.37947   1757213.48845
                  23596670.0234                                   23596666.0354
                                                                        46.0004
        30.0004
 -22220850.15248 -17260200.09846
                  21778132.5004                                   21778128.0474
                                                                        51.0004
        40.7504
 -20920692.95348 -16243819.62146
                  21097142.5084                                   21097138.8134
                                                                        51.7504
        40.2504
  -8912794.31248  -6906917.52045
                  21668829.9224                                   21668825.1524
                                                                        48.0004
        33.7504
    519020.16446    417762.98043
                  24105257.0864                                   24105251.8324
                                                                        39.0004
        21.5004
 -16988966.06648 -13185730.19146
                  22189793.7034                                   22189789.8794
                                                                        50.2504
        38.0004
  -3566918.36747  -2745145.54344
                  24012312.2504                                   24012306.8634
                                                                        43.0004
        24.0004
  -3058137.42647  -2368780.15244
                  23994351.8674                                   23994347.7114
                                                                        45.5004
        26.5004
 -15192311.91047 -11824536.77344
                  22900041.1254                                   22900037.0904
                                                                        45.0004
        29.7504
 09 10 22  0 16  0.0000000  0 10G02G04G05G10G13G23G29G16G07G25
  -7254418.96548  -5619500.73046
                  21059952.2974                                   21059945.4064
                                                                        52.7504
        41.0004
   2259620.61747   1768125.03144
                  23599334.6954                                   23599331.0664
                                                                        45.7504
        29.5004
 -22392054.98448 -17393606.40246
                  21745553.3284                                   21745548.7114
                                                                        50.5004
        40.0004
 -21075039.72348 -16364089.78546
                  21067771.5554                                   21067767.6884
                                                                        52.2504
        40.2504
  -8960710.66048  -6944254.93745
                  21659711.9384                                   21659707.0634
                                                                        48.0004
        34.5004
    526104.82046    423283.40643
                  24106606.3204                                   24106600.0314
                                                                        41.2504
        23.0004
 -17105568.30148 -13276589.09046
                  22167605.2504                                   22167601.4384
                                                                        50.2504
        38.0004
  -3708688.02347  -2855615.54743
                  23985334.3364                                   23985329.4804
                                                                        42.7504
        22.7504
  -3242670.43447  -2512572.10944
                  23959236.6724                                   23959231.2234
                                                                        44.5004
        26.2504
 -15328823.94547 -11930909.85944
                  22874063.7974                                   22874059.4534
                                                                        45.0004
        29.2504
 09 10 22  0 16 30.0000000  0 10G02G04G05G10G13G23G29G16G07G25
  -7294045.09448  -5650378.22746
                  21052411.7894                                   21052405.3364
                                                                        53.0004
        41.0004
   2273833.61347   1779200.10544
                  23602039.5554                                   23602035.4024
                                                                        46.7504
        29.5004
 -22562847.33248 -17526691.30546
                  21713052.5554                                   21713048.1374
                                                                        50.5004
        40.0004
 -21228872.52348 -16483959.48046
                  21038498.1564                                   21038493.9884
                                                                        52.2504
        41.0004
  -9008019.71548  -6981119.09045
                  21650709.4304                                   21650704.6484
                                                                        48.0004
        34.2504
    533472.66847    429024.59044
                  24108008.3834                                   24108002.4454
                                                                        42.5004
        26.5004
 -17221555.43748 -13366968.69146
                  22145533.1954                                   22145529.5004
                                                                        50.2504
        38.2504
  -3849895.21147  -2965647.14143
                  23958463.2034                                   23958457.4144
                                                                        42.0004
        22.0004
  -3426847.34047  -2656086.53144
                  23924188.2504                                   23924184.0824
                                                                        43.7504
        25.7504
 -15464783.80547 -12036852.69544
                  22848191.3364                                   22848187.5314
                                                                        45.0004
        28.5004
 09 10 22  0 17  0.0000000  0 10G02G04G05G10G13G23G29G16G07G25
  -7333129.96148  -5680833.96546
                  21044973.8674                                   21044967.5634
                                                                        53.2504
        41.2504
   2288257.12547   1790439.21544
                  23604784.0784                                   23604780.5044
                                                                        45.7504
        28.0004
 -22733223.57848 -17659452.05146
                  21680631.1094                                   21680626.3874
                                                                        50.7504
        40.7504
 -21382188.14848 -16603426.16046
                  21009323.1724                                   21009318.9804
                                                                        52.0004
        40.5004
  -9054719.98448  -7017508.89545
                  21641822.3134                                   21641817.9184
                                                                        48.0004
        35.0004
    541124.61347    434987.10544
                  24109464.2664                                   24109458.2734
                                                                        43.0004
        25.5004
 -17336924.23848 -13456866.52046
                  22123579.4454                                   22123576.0234
                                                                        49.7504
        38.5004
  -3990535.58246  -3075237.10943
                  23931699.6094                                   23931695.0944
                                                                        41.2504
        21.5004
  -3610661.87147  -2799318.60544
                  23889209.6174                                   23889205.0664
                                                                        43.2504
        25.7504
 -15600186.34447 -12142361.20345
                  22822425.3204                                   22822421.1954
                                                                        45.5004
        30.0004
 09 10 22  0 17 30.0000000  0 10G02G04G05G10G13G23G29G16G07G25
  -7371671.30948  -5710866.20746
                  21037639.9694                                   21037633.5554
                                                                        52.7504
        41.0004
   2302892.89847   1801843.66844
                  23607569.2194                                   23607565.6294
                                                                        45.0004
        28.5004
 -22903178.53548 -17791884.69546
                  21648289.9304                                   21648285.5314
                                                                        51.5004
        40.5004
 -21534980.70348 -16722485.25046
                  20980247.8984                                   20980243.6524
                                                                        52.2504
        40.7504
  -9100809.73848  -7053422.96545
                  21633051.6414                                   21633046.8134
                                                                        48.5004
        33.7504
    549061.34847    441171.63743
                  24110974.3594                                   24110968.6024
                                                                        42.5004
        22.2504
 -17451671.01248 -13546279.75446
                  22101744.0004                                   22101740.8244
                                                                        50.0004
        38.0004
  -4130604.32446  -3184381.66843
                  23905045.8594                                   23905040.2664
                                                                        41.0004
        21.5004
  -3794107.37146  -2942263.10244
                  23854301.0234                                   23854296.5984
                                                                        41.0004
        24.5004
 -15735026.82447 -12247431.79344
                  22796766.3984                                   22796761.9774
                                                                        46.0004
        29.2504
 09 10 22  0 18  0.0000000  0 10G02G04G05G10G13G23G29G16G07G25
  -7409673.63748  -5740478.40646
                  21030408.2424                                   21030401.8714
                                                                        52.2504
        41.0004
   2317735.51647   1813409.30944
                  23610393.3754                                   23610389.8484
                                                                        45.5004
        28.5004
 -23072712.32448 -17923988.88346
                  21616028.9454                                   21616024.2274
                                                                        51.5004
        40.7504
 -21687252.19948 -16841138.40646
                  20951271.4224                                   20951267.0314
                                                                        52.0004
        41.5004
  -9146293.79748  -7088865.05545
                  21624396.6094                                   21624391.8984
                                                                        48.5004
        34.0004
    557277.28946    447573.67643
                  24112537.8594                                   24112531.2194
                                                                        38.5004
        18.2504
 -17565797.02348 -13635209.18446
                  22080026.6334                                   22080023.2424
                                                                        49.5004
        38.5004
  -4270101.64846  -3293080.89143
                  23878500.1484                                   23878495.2194
                                                                        41.5004
        21.5004
  -3977184.41047  -3084920.44944
                  23819462.5554                                   23819458.3674
                                                                        42.7504
        26.5004
 -15869306.72747 -12352065.52044
                  22771214.0004                                   22771209.3714
                                                                        45.7504
        29.7504
 09 10 22  0 18 30.0000000  0 10G02G04G05G10G13G23G29G16G07G25
  -7447139.15648  -5769672.32446
                  21023278.8134                                   21023272.5664
                                                                        53.0004
        40.5004
   2332782.06347   1825133.83644
                  23613256.6484                                   23613253.0664
                                                                        45.0004
        28.5004
 -23241824.32448 -18055764.43746
                  21583847.7114                                   21583843.4614
                                                                        51.5004
        41.0004
 -21839001.66448 -16959384.76646
                  20922394.4304                                   20922390.3834
                                                                        51.2504
        40.0004
  -9191175.31248  -7123837.62145
                  21615855.7504                                   21615850.9104
                                                                        49.5004
        33.5004
    565769.09046    454190.72742
                  24114153.3834                                   24114147.1294
                                                                        37.5004
        17.2504
 -17679301.58248 -13723654.30146
                  22058427.1564                                   22058424.0554
                                                                        50.2504
        39.0004
  -4409027.07847  -3401334.50843
                  23852063.4774                                   23852058.9024
                                                                        42.2504
        22.0004
  -4159891.16447  -3227289.32444
                  23784694.8054                                   23784689.9534
                                                                        42.0004
        26.5004
 -16003025.59847 -12456262.06645
                  22745767.8914                                   22745763.6844
                                                                        45.7504
        30.0004
 09 10 22  0 19  0.0000000  0 10G02G04G05G10G13G23G29G16G07G25
  -7484070.02748  -5798449.64146
                  21016251.0474                                   21016244.9104
                                                                        52.7504
        40.7504
   2348030.13747   1837015.41444
                  23616158.9384                                   23616155.5744
                                                                        44.5004
        28.5004
 -23410514.52348 -18187211.32046
                  21551746.8984                                   21551742.6294
                                                                        51.0004
        40.7504
 -21990229.16448 -17077224.39146
                  20893616.7584                                   20893612.7974
                                                                        51.7504
        40.0004
  -9235456.73448  -7158342.58245
                  21607429.3204                                   21607424.3284
                                                                        49.5004
        34.0004
    574532.65646    461019.48843
                  24115821.1884                                   24115814.9494
                                                                        38.0004
        19.0004
 -17792186.63748 -13811616.70346
                  22036946.3134                                   22036943.1094
                                                                        49.2504
        38.7504
  -4547380.59447  -3509142.46943
                  23825735.6954                                   23825730.8484
                                                                        42.0004
        22.2504
  -4342224.76247  -3369367.43444
                  23749998.1334                                   23749993.1294
                                                                        44.5004
        27.7504
 -16136182.53547 -12560020.72744
                  22720429.1954                                   22720424.6524
                                                                        45.5004
        29.7504
 09 10 22  0 19 30.0000000  0 10G02G04G05G10G13G23G29G16G07G25
  -7520469.65248  -5826813.00446
                  21009324.4064                                   21009318.2384
                                                                        52.0004
        41.5004
   2363475.23447   1849050.49244
                  23619097.5084                                   23619094.0164
                                                                        43.5004
        27.2504
 -23578782.33248 -18318329.05546
                  21519726.5554                                   21519722.2894
                                                                        51.0004
        41.0004
 -22140934.14548 -17194656.84046
                  20864938.5634                                   20864934.4144
                                                                        51.5004
        40.0004
  -9279141.57448  -7192382.69145
                  21599116.2894                                   21599111.5824
                                                                        49.2504
        34.2504
    583564.10246    468056.97343
                  24117540.5164                                   24117533.7504
                                                                        41.0004
        21.7504
 -17904452.10548 -13899096.36346
                  22015582.8444                                   22015579.1804
                                                                        49.7504
        38.5004
  -4685161.46946  -3616504.30943
                  23799516.8674                                   23799512.2624
                                                                        41.5004
        21.7504
  -4524184.70747  -3511154.38344
                  23715372.5084                                   23715367.7154
                                                                        43.7504
        28.7504
 -16268778.14547 -12663341.96944
                  22695196.5784                                   22695192.8914
                                                                        45.5004
        29.5004
 09 10 22  0 20  0.0000000  0 10G02G04G05G10G13G23G29G16G07G25
  -7556341.13348  -5854764.79346
                  21002498.2584                                   21002491.9454
                                                                        52.2504
        40.7504
   2379114.30147   1861236.73044
                  23622073.8134                                   23622070.1414
                                                                        43.7504
        27.7504
 -23746627.94548 -18449117.85546
                  21487786.9384                                   21487782.4144
                                                                        51.5004
        41.2504
 -22291117.62548 -17311682.93046
                  20836359.5234                                   20836355.6484
                                                                        51.0004
        40.5004
  -9322233.79348  -7225961.03145
                  21590916.3754                                   21590911.7034
                                                                        49.0004
        34.0004
    592859.16047    475299.88344
                  24119309.3674                                   24119302.7894
                                                                        42.5004
        26.0004
 -18016099.40648 -13986094.28546
                  21994337.3524                                   21994333.9654
                                                                        49.0004
        38.0004
  -4822369.82446  -3723419.91043
                  23773407.4064                                   23773403.1214
                                                                        41.0004
        22.2504
  -4705769.32447  -3652648.87944
                  23680817.6644                                   23680813.2194
                                                                        43.0004
        28.0004
 -16400812.44947 -12766225.89844
                  22670071.5944                                   22670066.9414
                                                                        46.5004
        29.7504
 09 10 22  0 20 30.0000000  0 10G02G04G05G10G13G23G29G16G07G25
  -7591684.34848  -5882305.00046
                  20995772.9774                                   20995766.4064
                                                                        52.0004
        40.7504
   2394946.12947   1873573.18444
                  23625086.6414                                   23625083.3754
                                                                        43.2504
        27.0004
 -23914047.23448 -18579574.44546
                  21455927.8054                                   21455923.7814
                                                                        50.5004
        40.5004
 -22440775.58248 -17428299.51246
                  20807880.4454                                   20807876.5554
                                                                        50.7504
        40.5004
  -9364733.46548  -7259077.66045
                  21582828.7424                                   21582824.1214
                                                                        49.2504
        33.5004
    602416.57846    482747.24243
                  24121127.9454                                   24121121.6294
                                                                        41.2504
        23.7504
 -18127125.05148 -14072607.72746
                  21973209.8984                                   21973206.5314
                                                                        49.0004
        38.7504
  -4959002.55546  -3829886.98443
                  23747406.6724                                   23747402.6054
                                                                        41.5004
        23.2504
  -4886974.93447  -3793848.02344
                  23646335.4144                                   23646331.0904
                                                                        42.2504
        27.5004
 -16532283.09047 -12868670.58644
                  22645053.9844                                   22645048.8054
                                                                        46.2504
        29.5004
 09 10 22  0 21  0.0000000  0  9G02G04G05G10G13G29G16G07G25
  -7626501.12148  -5909434.92646
                  20989147.4774                                   20989141.0824
                                                                        51.5004
        40.5004
   2410968.60947   1886058.18044
                  23628135.7034                                   23628132.1024
                                                                        43.7504
        29.0004
 -24081040.24248 -18709698.92247
                  21424150.2664                                   21424145.7774
                                                                        51.0004
        42.0004
 -22589907.99248 -17544506.59046
                  20779501.6884                                   20779497.3874
                                                                        51.0004
        40.7504
  -9406642.93448  -7291734.37545
                  21574853.4614                                   21574849.0904
                                                                        48.2504
        34.0004
 -18237530.26248 -14158637.76246
                  21952200.2734                                   21952196.4144
                                                                        48.7504
        38.5004
  -5095058.26246  -3935904.37943
                  23721515.7734                                   23721512.3794
                                                                        41.2504
        22.7504
  -5067798.46146  -3934749.41444
                  23611925.6024                                   23611921.5664
                                                                        41.0004
        27.0004
 -16663188.42647 -12970674.78544
                  22620142.8364                                   22620139.1454
                                                                        46.0004
        29.2504
 09 10 22  0 21 30.0000000  0  9G02G04G05G10G13G29G16G07G25
  -7660792.79748  -5936155.70346
                  20982621.9384                                   20982615.5044
                                                                        52.0004
        40.5004
   2427179.86747   1898690.31644
                  23631220.6174                                   23631216.9494
                                                                        44.0004
        27.7504
 -24247604.27348 -18839489.10946
                  21392454.0704                                   21392449.6884
                                                                        51.0004
        41.0004
 -22738512.95748 -17660302.65246
                  20751223.0864                                   20751218.9184
                                                                        51.5004
        41.2504
  -9447964.12148  -7323932.71145
                  21566990.6644                                   21566985.5394
                                                                        48.7504
        33.2504
 -18347313.88348 -14244183.46146
                  21931308.8914                                   21931305.6174
                                                                        49.5004
        38.7504
  -5230535.76247  -4041471.18744
                  23695735.4924                                   23695731.5634
                                                                        42.2504
        24.2504
  -5248236.70346  -4075350.62944
                  23577589.6334                                   23577584.9614
                                                                        41.5004
        27.0004
 -16793527.34847 -13072237.61344
                  22595340.7974                                   22595336.5164
                                                                        46.0004
        28.7504
 09 10 22  0 22  0.0000000  0  9G02G04G05G10G13G29G16G07G25
  -7694553.53548  -5962462.79346
                  20976197.3834                                   20976191.3524
                                                                        51.7504
        41.0004
   2443585.23047   1911473.72344
                  23634342.0004                                   23634338.3754
                                                                        43.0004
        26.5004
 -24413729.80148 -18968937.49646
                  21360841.3914                                   21360836.9494
                                                                        50.0004
        41.0004
 -22886581.48448 -17775680.71546
                  20723046.3134                                   20723042.4384
                                                                        51.5004
        41.5004
  -9488691.37948  -7355668.21945
                  21559240.2274                                   21559235.2304
                                                                        49.5004
        33.0004
 -18456466.41048 -14329237.39146
                  21910538.3134                                   21910534.4454
                                                                        49.5004
        38.7504
  -5365425.48846  -4146580.03944
                  23670067.4924                                   23670062.4964
                                                                        41.5004
        25.5004
  -5428279.78146  -4215643.96944
                  23543328.7194                                   23543323.2814
                                                                        41.0004
        25.7504
 -16923290.78947 -13173351.96944
                  22570647.1174                                   22570643.2154
                                                                        45.7504
        29.7504
 09 10 22  0 22 30.0000000  0  9G02G04G05G10G13G29G16G07G25
  -7727781.20748  -5988354.49646
                  20969874.3364                                   20969868.4104
                                                                        51.0004
        40.5004
   2460186.25447   1924409.51644
                  23637501.2974                                   23637498.2114
                                                                        42.5004
        26.5004
 -24579412.55948 -19098040.85546
                  21329313.0084                                   21329308.9144
                                                                        50.5004
        41.0004
 -23034109.36348 -17890637.51246
                  20694973.0554                                   20694969.0904
                                                                        51.2504
        41.0004
  -9528823.72748  -7386940.17645
                  21551603.5394                                   21551598.7854
                                                                        49.0004
        33.0004
 -18564986.44548 -14413798.48046
                  21889887.4694                                   21889884.1564
                                                                        49.5004
        38.7504
  -5499723.01247  -4251227.41844
                  23644511.5004                                   23644507.1914
                                                                        42.0004
        24.7504
  -5607920.88346  -4355624.09044
                  23509144.0084                                   23509138.9384
                                                                        41.0004
        27.0004
 -17052473.97747 -13274014.17244
                  22546064.5474                                   22546060.6564
                                                                        45.5004
        28.7504
 09 10 22  0 23  0.0000000  0  9G02G04G05G10G13G29G16G07G25
  -7760476.79348  -6013831.57446
                  20963652.7504                                   20963645.9804
                                                                        51.5004
        40.2504
   2476981.24247   1937496.43444
                  23640697.5784                                   23640694.3914
                                                                        43.0004
        28.0004
 -24744649.16848 -19226796.55546
                  21297869.3364                                   21297865.1294
                                                                        50.0004
        41.2504
 -23181093.34448 -18005170.48046
                  20667002.7894                                   20666998.8364
                                                                        52.0004
        41.0004
  -9568361.71548  -7417748.99645
                  21544079.7734                                   21544075.1764
                                                                        48.2504
        33.2504
 -18672869.86347 -14497863.44546
                  21869357.8984                                   21869354.1644
                                                                        47.7504
        37.5004
  -5633425.06646  -4355410.78943
                  23619068.2734                                   23619064.5904
                                                                        41.2504
        23.2504
  -5787157.29746  -4495288.89544
                  23475035.8754                                   23475031.7504
                                                                        41.0004
        27.5004
 -17181075.07047 -13374222.73045
                  22521592.1484                                   22521588.3324
                                                                        45.7504
        30.0004
 09 10 22  0 23 30.0000000  0  9G02G04G05G10G13G29G16G07G25
  -6217227.59848  -4811299.75046
                  21257323.2974                                   21257317.1684
                                                                        50.7504
        40.0004
   4069380.85947   3178327.23444
                  23943721.0864                                   23943718.0204
                                                                        44.0004
        27.2504
 -23334020.34448 -18127605.21946
                  21566303.1804                                   21566298.7734
                                                                        50.7504
        41.2504
 -21752115.15648 -16891680.96946
                  20938928.3834                                   20938924.2154
                                                                        52.2504
        41.2504
  -8031893.30948  -6220500.91845
                  21836460.0234                                   21836455.4804
                                                                        49.5004
        33.5004
 -17204701.35948 -13353836.03146
                  22148741.2894                                   22148737.4654
                                                                        48.5004
        38.5004
  -4191113.61747  -3231531.64844
                  23893531.5784                                   23893526.9694
                                                                        42.2504
        24.0004
  -4390566.32846  -3407036.19944
                  23740798.7034                                   23740794.7424
                                                                        41.2504
        28.5004
 -15733675.45347 -12246378.86745
                  22797023.6804                                   22797019.2734
                                                                        46.0004
        30.0004
 09 10 22  0 24  0.0000000  0  9G02G04G05G10G13G29G16G07G25
  -6248879.78148  -4835963.78946
                  21251300.0164                                   21251294.1524
                                                                        51.7504
        40.7504
   4086542.33247   3191699.82444
                  23946987.0004                                   23946983.4534
                                                                        43.7504
        27.2504
 -23498377.45348 -18255675.68046
                  21535027.2344                                   21535022.8054
                                                                        51.7504
        41.5004
 -21898025.50048 -17005377.35946
                  20911162.5084                                   20911158.6954
                                                                        51.5004
        40.7504
  -8070265.34048  -6250401.22745
                  21829158.0314                                   21829153.5164
                                                                        49.5004
        34.0004
 -17311329.72348 -13436923.16046
                  22128450.5164                                   22128446.8914
                                                                        48.5004
        38.5004
  -4323638.01647  -3334797.32044
                  23868312.1334                                   23868308.4534
                                                                        42.0004
        25.0004
  -4568999.27246  -3546074.78744
                  23706844.0704                                   23706839.7584
                                                                        40.7504
        28.5004
 -15861124.41047 -12345689.70344
                  22772770.9774                                   22772766.9184
                                                                        46.5004
        29.7504
 09 10 22  0 24 30.0000000  0  9G02G04G05G10G13G29G16G07G25
  -6280014.29348  -4860224.46546
                  21245375.5474                                   21245369.0434
                                                                        51.5004
        40.5004
   4103881.41847   3205210.62144
                  23950286.6804                                   23950283.8834
                                                                        43.7504
        28.0004
 -23662293.15248 -18383402.20746
                  21503835.0634                                   21503830.6954
                                                                        50.7504
        41.5004
 -22043397.83248 -17118654.50846
                  20883499.1954                                   20883495.2894
                                                                        52.0004
        41.2504
  -8108059.71948  -6279851.41445
                  21821966.1024                                   21821961.2154
                                                                        49.0004
        33.0004
 -17417330.10248 -13519520.96146
                  22108279.3594                                   22108275.7934
                                                                        48.5004
        37.5004
  -4455572.48046  -3437603.29743
                  23843205.6254                                   23843202.2464
                                                                        41.5004
        22.0004
  -4747028.98847  -3684799.34844
                  23672966.3674                                   23672962.0944
                                                                        43.0004
        28.5004
 -15987997.62147 -12444551.91445
                  22748627.6094                                   22748623.7154
                                                                        46.2504
        30.2504
 09 10 22  0 25  0.0000000  0  9G02G04G05G10G13G29G16G07G25
  -6310636.04748  -4884085.57446
                  21239548.4064                                   21239541.6524
                                                                        51.7504
        40.5004
   4121393.91047   3218856.54344
                  23953619.0394                                   23953615.8444
                                                                        42.7504
        26.0004
 -23825769.92648 -18510786.60946
                  21472726.3444                                   21472721.5514
                                                                        50.5004
        41.0004
 -22188234.68048 -17231514.39846
                  20855937.7974                                   20855933.6564
                                                                        52.5004
        41.2504
  -8145280.98448  -6308855.05945
                  21814882.7274                                   21814878.4614
                                                                        49.0004
        33.0004
 -17522706.35548 -13601632.41046
                  22088226.6334                                   22088223.0594
                                                                        48.0004
        38.5004
  -4586919.59046  -3539951.55943
                  23818211.3674                                   23818206.9304
                                                                        40.7504
        22.0004
  -4924654.58647  -3823208.85544
                  23639164.7734                                   23639160.8554
                                                                        42.5004
        28.7504
 -16114296.46547 -12542966.54745
                  22724593.6484                                   22724589.7504
                                                                        46.2504
        30.5004
 09 10 22  0 25 30.0000000  0  9G02G04G05G10G13G29G16G07G25
  -6340749.00848  -4907550.21146
                  21233817.8284                                   21233811.5594
                                                                        51.5004
        40.0004
   4139074.44547   3232633.31344
                  23956984.1024                                   23956980.8014
                                                                        43.2504
        25.2504
 -23988808.30148 -18637829.46946
                  21441700.9614                                   21441696.6054
                                                                        51.0004
        41.5004
 -22332537.41448 -17343958.08246
                  20828477.6724                                   20828473.5514
                                                                        51.7504
        41.0004
  -8181933.97348  -6337415.83645
                  21807908.1024                                   21807903.6484
                                                                        48.7504
        33.0004
 -17627459.93048 -13683258.50046
                  22068292.7894                                   22068289.3594
                                                                        49.0004
        38.7504
  -4717680.36746  -3641842.98443
                  23793328.0944                                   23793323.7774
                                                                        40.0004
        22.0004
  -5101876.46147  -3961303.78144
                  23605441.0944                                   23605436.9264
                                                                        42.0004
        28.5004
 -16240022.53547 -12640934.82445
                  22700668.6804                                   22700664.4344
                                                                        46.0004
        31.0004
 09 10 22  0 26  0.0000000  0  9G02G04G05G10G13G29G16G07G25
  -6370355.00448  -4930619.82846
                  21228184.1724                                   21228177.9304
                                                                        51.5004
        40.2504
   4156921.63747   3246540.22744
                  23960379.8674                                   23960376.5434
                                                                        42.7504
        25.5004
 -24151406.81648 -18764529.58646
                  21410759.7894                                   21410755.4734
                                                                        51.5004
        41.5004
 -22476304.37148 -17455984.31646
                  20801119.9064                                   20801115.4884
                                                                        52.5004
        41.2504
  -8218020.96548  -6365535.59845
                  21801040.8754                                   21801036.5744
                                                                        48.2504
        32.7504
 -17731591.08248 -13764399.75446
                  22048477.3444                                   22048473.6484
                                                                        49.0004
        38.5004
  -4847852.76646  -3743275.95343
                  23768556.9924                                   23768551.8914
                                                                        41.2504
        21.5004
  -5278691.87146  -4099082.01644
                  23571793.7114                                   23571789.5594
                                                                        41.5004
        27.5004
 -16365175.02047 -12738456.26645
                  22676853.0784                                   22676849.1334
                                                                        47.0004
        30.2504
 09 10 22  0 26 30.0000000  0  9G02G04G05G10G13G29G16G07G25
  -6399456.10948  -4953296.04346
                  21222646.3444                                   21222640.0944
                                                                        52.2504
        41.0004
   4174932.36747   3260574.24244
                  23963807.9064                                   23963804.5274
                                                                        43.2504
        25.5004
 -24313564.37948 -18890886.13346
                  21379901.8204                                   21379897.7344
                                                                        51.5004
        41.7504
 -22619534.91448 -17567592.50846
                  20773863.9614                                   20773859.9694
                                                                        52.2504
        41.2504
  -8253544.23848  -6393216.12945
                  21794281.2584                                   21794276.8524
                                                                        48.7504
        32.7504
 -17835099.50048 -13845055.63346
                  22028780.4844                                   22028776.7074
                                                                        49.0004
        38.7504
  -4977436.27046  -3844250.02743
                  23743898.5084                                   23743892.8834
                                                                        41.5004
        21.2504
  -5455097.98446  -4236541.28944
                  23538224.6484                                   23538220.4774
                                                                        41.0004
        27.0004
 -16489752.62947 -12835529.75045
                  22653146.8754                                   22653142.7854
                                                                        46.2504
        31.0004
 09 10 22  0 27  0.0000000  0  9G02G04G05G10G13G29G16G07G25
  -6428052.41448  -4975578.91446
                  21217204.6484                                   21217198.6844
                                                                        50.7504
        40.0004
   4193106.88347   3274736.10244
                  23967266.3444                                   23967263.4694
                                                                        43.2504
        26.0004
 -24475277.03148 -19016895.98046
                  21349128.8914                                   21349124.9104
                                                                        52.0004
        41.2504
 -22762226.02048 -17678780.33646
                  20746710.6174                                   20746706.6764
                                                                        52.7504
        41.7504
  -8288504.43748  -6420457.85945
                  21787628.5084                                   21787623.8404
                                                                        48.7504
        32.5004
 -17937983.11348 -13925224.66846
                  22009202.5474                                   22009198.7544
                                                                        49.7504
        38.7504
  -5106428.27046  -3944763.32843
                  23719351.8364                                   23719347.0514
                                                                        39.7504
        21.0004
  -5631091.32846  -4373678.89844
                  23504734.5554                                   23504729.8594
                                                                        41.5004
        27.5004
 -16613753.13347 -12932153.54745
                  22629550.3674                                   22629545.9574
                                                                        46.5004
        30.5004
 09 10 22  0 27 30.0000000  0  9G02G04G05G10G13G29G16G07G25
  -6456144.40648  -4997468.81646
                  21211858.9844                                   21211852.6724
                                                                        51.5004
        40.2504
   4211443.02047   3289023.64144
                  23970755.7114                                   23970752.7234
                                                                        44.2504
        27.7504
 -24636542.77348 -19142557.58646
                  21318441.1884                                   21318436.8364
                                                                        51.7504
        41.5004
 -22904375.43448 -17789546.12146
                  20719660.5314                                   20719656.5634
                                                                        52.0004
        41.0004
  -8322902.98048  -6447261.94945
                  21781082.7814                                   21781078.2304
                                                                        48.7504
        32.5004
 -18040240.22348 -14004905.52046
                  21989743.5084                                   21989739.8484
                                                                        49.2504
        38.5004
  -5234826.41046  -4044813.87143
                  23694918.6564                                   23694913.4614
                                                                        40.2504
        22.2504
  -5806667.62547  -4510491.59444
                  23471323.5234                                   23471318.9654
                                                                        42.0004
        27.5004
 -16737174.45347 -13028326.01245
                  22606064.2114                                   22606060.2194
                                                                        46.2504
        30.7504
 09 10 22  0 28  0.0000000  0  9G02G04G05G10G13G29G16G07G25
  -6483735.52348  -5018968.38346
                  21206608.6254                                   21206602.1914
                                                                        51.2504
        40.0004
   4229937.84047   3303434.74244
                  23974275.9224                                   23974272.9304
                                                                        45.2504
        27.5004
 -24797361.89148 -19267871.16846
                  21287838.3524                                   21287833.9694
                                                                        51.0004
        41.5004
 -23045984.16048 -17899890.59446
                  20692713.4064                                   20692709.4344
                                                                        52.0004
        41.0004
  -8356743.56648  -6473631.23445
                  21774643.1644                                   21774637.9804
                                                                        48.5004
        32.5004
 -18141872.40648 -14084099.42646
                  21970403.4064                                   21970399.6454
                                                                        50.0004
        38.0004
  -5362630.29746  -4144401.27743
                  23670598.1484                                   23670593.9064
                                                                        39.5004
        22.0004
  -5981825.39847  -4646978.17644
                  23437992.1564                                   23437987.8134
                                                                        42.2504
        25.2504
 -16860016.71147 -13124047.23045
                  22582688.1954                                   22582683.5784
                                                                        46.5004
        31.2504
 09 10 22  0 28 30.0000000  0  9G02G04G05G10G13G29G16G07G25
  -6510828.18048  -5040079.58646
                  21201452.7734                                   21201447.0394
                                                                        52.0004
        40.2504
   4248588.86747   3317967.82044
                  23977825.1644                                   23977821.8164
                                                                        42.5004
        25.5004
 -24957732.95748 -19392835.62146
                  21257320.6804                                   21257316.2114
                                                                        51.0004
        41.5004
 -23187050.96548 -18009812.78546
                  20665869.2894                                   20665865.2234
                                                                        52.2504
        41.0004
  -8390028.99648  -6499567.94145
                  21768309.0944                                   21768304.4574
                                                                        48.7504
        33.0004
 -18242879.64148 -14162806.36746
                  21951182.3754                                   21951178.6564
                                                                        50.2504
        39.2504
  -5489839.83646  -4243525.59443
                  23646391.1254                                   23646387.2154
                                                                        40.0004
        22.7504
  -6156563.15647  -4783137.43044
                  23404740.8364                                   23404736.0044
                                                                        43.2504
        28.0004
 -16982279.87147 -13219317.23045
                  22559421.8674                                   22559417.6884
                                                                        45.7504
        30.2504
 09 10 22  0 29  0.0000000  0  9G02G04G05G10G13G29G16G07G25
  -6537420.95748  -5060801.24646
                  21196392.7274                                   21196386.6024
                                                                        51.2504
        40.0004
   4267396.46947   3332622.68844
                  23981404.0784                                   23981401.0204
                                                                        42.7504
        24.7504
 -25117651.87548 -19517447.78947
                  21226889.2974                                   21226884.7584
                                                                        52.5004
        42.0004
 -23327572.12548 -18119309.76646
                  20639128.8984                                   20639124.8954
                                                                        52.5004
        41.0004
  -8422758.41448  -6525071.40245
                  21762080.9224                                   21762076.0824
                                                                        48.0004
        32.2504
 -18343259.50848 -14241024.45346
                  21932080.6024                                   21932077.0234
                                                                        50.0004
        37.7504
  -5616450.89146  -4342183.58243
                  23622298.0704                                   23622293.9224
                                                                        40.7504
        23.0004
  -6330874.68047  -4918964.54345
                  23371570.6174                                   23371565.8594
                                                                        43.5004
        30.0004
 -17103959.79347 -13314132.74645
                  22536266.8364                                   22536262.7194
                                                                        46.2504
        30.5004
 09 10 22  0 29 30.0000000  0  9G02G04G05G10G13G29G16G07G25
  -6563515.34448  -5081134.59046
                  21191426.9384                                   21191420.7194
                                                                        51.2504
        40.7504
   4286358.45846   3347397.22643
                  23985012.5004                                   23985010.2504
                                                                        39.7504
        22.2504
 -25277116.09848 -19641705.68747
                  21196543.9144                                   21196539.8674
                                                                        52.0004
        42.2504
 -23467545.71148 -18228380.07046
                  20612492.5234                                   20612488.6884
                                                                        52.0004
        41.0004
  -8454933.35548  -6550142.82445
                  21755958.1254                                   21755953.4924
                                                                        48.0004
        32.0004
 -18443010.14548 -14318752.24246
                  21913099.0394                                   21913095.4884
                                                                        49.5004
        38.5004
  -5742461.48446  -4440373.68444
                  23598318.4144                                   23598314.5514
                                                                        41.0004
        25.2504
  -6504756.77047  -5054457.07444
                  23338481.9304                                   23338477.2384
                                                                        43.7504
        29.5004
 -17225054.88347 -13408492.55945
                  22513222.8834                                   22513218.9104
                                                                        46.0004
        30.0004
 09 10 22  0 30  0.0000000  0  9G02G04G05G10G13G29G16G07G25
  -6589114.19548  -5101081.75446
                  21186555.9304                                   21186549.7344
                                                                        51.7504
        40.7504
   4305475.12146   3362293.84843
                  23988650.6484                                   23988648.0124
                                                                        41.2504
        23.0004
 -25436125.84048 -19765609.41447
                  21166285.9224                                   21166281.2544
                                                                        51.5004
        42.0004
 -23606972.46948 -18337024.29746
                  20585960.6884                                   20585956.9964
                                                                        52.5004
        41.0004
  -8486557.68048  -6574785.17245
                  21749940.4844                                   21749935.8714
                                                                        48.0004
        32.7504
 -18542133.94148 -14395991.53546
                  21894236.1174                                   21894232.6884
                                                                        50.2504
        38.5004
  -5867872.18447  -4538096.33244
                  23574454.2114                                   23574449.9064
                                                                        42.0004
        25.2504
  -6678208.28546  -5189614.10944
                  23305475.1254                                   23305470.4574
                                                                        41.5004
        28.5004
 -17345565.61747 -13502397.02744
                  22490290.9224                                   22490286.4534
                                                                        46.2504
        29.0004
 09 10 22  0 30 30.0000000  0  9G02G04G05G10G13G29G16G07G25
  -6614222.56248  -5120646.73446
                  21181777.6484                                   21181771.7034
                                                                        51.5004
        39.7504
   4324735.32446   3377300.83644
                  23992316.3134                                   23992314.3204
                                                                        40.5004
        24.5004
 -25594681.97348 -19889159.74247
                  21136113.7274                                   21136109.3834
                                                                        51.2504
        42.0004
 -23745853.39548 -18445243.20746
                  20559532.5474                                   20559528.4024
                                                                        52.5004
        41.5004
  -8517636.91448  -6599002.75845
                  21744026.0474                                   21744021.7464
                                                                        48.7504
        32.5004
 -18640632.32048 -14472743.51646
                  21875492.8524                                   21875488.8524
                                                                        50.0004
        38.5004
  -5992684.22747  -4635352.50044
                  23550703.4454                                   23550698.7384
                                                                        42.2504
        24.2504
  -6851230.23046  -5324436.44944
                  23272549.7424                                   23272545.6844
                                                                        41.7504
        27.0004
 -17465494.60947 -13595848.19145
                  22467468.9534                                   22467464.9414
                                                                        45.0004
        30.0004
 09 10 22  0 31  0.0000000  0  9G02G04G05G10G13G29G16G07G25
  -6638839.27748  -5139828.63346
                  21177093.2504                                   21177087.3794
                                                                        51.0004
        39.2504
   4344143.21946   3392422.65644
                  23996010.3444                                   23996009.1484
                                                                        41.0004
        25.0004
 -25752780.68448 -20012353.54747
                  21106028.3444                                   21106024.1914
                                                                        51.2504
        42.0004
 -23884185.24648 -18553034.27046
                  20533208.9694                                   20533204.5474
                                                                        53.0004
        41.5004
  -8548169.69948  -6622794.51645
                  21738216.2584                                   21738211.7424
                                                                        48.0004
        32.5004
 -18738503.69548 -14549006.95746
                  21856868.6024                                   21856865.0044
                                                                        50.0004
        38.5004
  -6116894.00046  -4732139.45744
                  23527067.9304                                   23527062.7074
                                                                        41.5004
        24.7504
  -7023815.91047  -5458918.84844
                  23239707.4694                                   23239703.8874
                                                                        42.2504
        28.5004
 -17584837.13347 -13688842.34445
                  22444758.6644                                   22444755.0904
                                                                        45.0004
        30.2504
 09 10 22  0 31 30.0000000  0  9G02G04G05G10G13G29G16G07G25
  -6662964.12948  -5158627.26246
                  21172502.3444                                   21172496.2424
                                                                        51.2504
        39.7504
   4363700.18046   3407661.60243
                  23999732.2584                                   23999730.7584
                                                                        41.5004
        22.7504
 -25910418.29748 -20135188.08247
                  21076030.8284                                   21076026.6134
                                                                        51.7504
        42.2504
 -24021965.16848 -18660395.24246
                  20506990.3984                                   20506986.4494
                                                                        52.0004
        41.2504
  -8578157.53547  -6646161.69545
                  21732509.2894                                   21732505.3834
                                                                        47.5004
        32.0004
 -18835745.24648 -14624779.57446
                  21838363.8284                                   21838360.6054
                                                                        49.5004
        38.5004
  -6240498.70747  -4828454.88744
                  23503546.7504                                   23503541.9534
                                                                        43.0004
        25.5004
  -7195961.54347  -5593058.34844
                  23206949.8524                                   23206945.3284
                                                                        43.7504
        29.5004
 -17703591.40247 -13781378.16044
                  22422160.0944                                   22422156.4264
                                                                        45.7504
        29.5004
 09 10 22  0 32  0.0000000  0  9G02G04G05G10G13G29G16G07G25
  -5111179.85248  -3949444.71946
                  21467797.1644                                   21467791.0594
                                                                        51.0004
        39.7504
   5958818.703 7
                  24303274.039
                                                                        43.500

 -24492169.98848 -19030059.65247
                  21345914.7034                                   21345911.0164
                                                                        51.7504
        42.0004
 -22583768.63348 -17539722.69946
                  20780669.9224                                   20780665.9384
                                                                        52.2504
        41.5004
  -7032183.03147  -5441506.21945
                  22026698.6804                                   22026694.4024
                                                                        47.7504
        32.2504
 -17356934.90248 -13472459.82846
                  22119771.9924                                   22119768.5274
                                                                        50.0004
        38.7504
  -4788074.34447  -3696695.71544
                  23779933.2504                                   23779928.8094
                                                                        43.0004
        24.7504
  -5792240.30547  -4499249.59845
                  23474069.3284                                   23474064.6024
                                                                        43.2504
        30.2504
 -16246333.72347 -12645852.67645
                  22699467.7274                                   22699463.1054
                                                                        46.2504
        30.7504
 09 10 22  0 32 30.0000000  0  9G02G04G05G10G13G29G16G07G25
  -5134325.19948  -3967480.09446
                  21463392.9454                                   21463386.9384
                                                                        51.5004
        39.5004
   5978666.55947   4657945.25454
                  24307051.1414                                   24307049.1414
                                                                        43.0004
        26.0004
 -24648880.16448 -19152171.61747
                  21316093.8204                                   21316089.7624
                                                                        50.7504
        42.7504
 -22720439.19148 -17646219.23846
                  20754662.5704                                   20754658.3794
                                                                        52.5004
        41.0004
  -7061085.28547  -5464027.50045
                  22021198.6954                                   22021194.6254
                                                                        47.5004
        32.2504
 -17452915.27748 -13547249.72346
                  22101507.4144                                   22101504.1214
                                                                        49.5004
        38.7504
  -4910463.90247  -3792064.36744
                  23756643.8984                                   23756638.8364
                                                                        43.0004
        26.7504
  -5963495.78547  -4632695.39545
                  23441480.7814                                   23441476.0904
                                                                        43.7504
        30.0004
 -16363906.17647 -12737467.59845
                  22677094.7734                                   22677090.1684
                                                                        45.5004
        31.0004
 09 10 22  0 33  0.0000000  0  9G02G04G05G10G13G29G16G07G25
  -5156985.30948  -3985137.35546
                  21459080.8754                                   21459074.8284
                                                                        50.7504
        39.7504
   5998654.20747   4673520.16044
                  24310854.7814                                   24310852.7854
                                                                        44.5004
        26.5004
 -24805126.01248 -19273921.77047
                  21286361.3054                                   21286357.0124
                                                                        51.5004
        42.2504
 -22856555.41048 -17752283.84446
                  20728760.2974                                   20728756.5044
                                                                        53.0004
        41.0004
  -7089450.13348  -5486130.01645
                  22015801.0634                                   22015796.5274
                                                                        48.0004
        31.7504
 -17548266.34048 -13621549.23046
                  22083362.9454                                   22083359.5474
                                                                        49.2504
        38.2504
  -5032245.55547  -3886959.21944
                  23733468.7734                                   23733464.8134
                                                                        42.5004
        25.5004
  -6134304.27047  -4765792.93444
                  23408976.6094                                   23408971.9454
                                                                        44.5004
        29.0004
 -16480888.74247 -12828622.90645
                  22654833.3914                                   22654829.2504
                                                                        46.0004
        31.0004
 09 10 22  0 33 30.0000000  0  9G02G04G05G10G13G29G16G07G25
  -5179160.70348  -4002416.90646
                  21454861.3204                                   21454854.9924
                                                                        51.5004
        39.5004
   6018783.03547   4689205.95744
                  24314683.2734                                   24314682.3164
                                                                        43.2504
        24.5004
 -24960904.19148 -19395307.43747
                  21256717.7894                                   21256713.4144
                                                                        51.5004
        42.0004
 -22992114.85548 -17857914.65246
                  20702964.2974                                   20702960.4614
                                                                        52.7504
        41.7504
  -7117278.41447  -5507814.44145
                  22010505.3914                                   22010500.9734
                                                                        47.7504
        31.0004
 -17642986.73048 -13695357.34046
                  22065338.3594                                   22065335.4924
                                                                        49.5004
        38.2504
  -5153417.28947  -3981378.84044
                  23710410.6884                                   23710407.0204
                                                                        42.5004
        24.5004
  -6304661.63347  -4898539.01244
                  23376558.8754                                   23376553.6524
                                                                        44.2504
        28.2504
 -16597278.94947 -12919316.61745
                  22632685.0314                                   22632681.1684
                                                                        45.5004
        31.0004
 09 10 22  0 34  0.0000000  0  9G02G04G05G10G13G29G16G07G25
  -5200849.09048  -4019317.00446
                  21450733.9534                                   21450727.8014
                                                                        51.5004
        39.0004
   6039053.79747   4705002.31644
                  24318539.8054                                   24318538.6564
                                                                        42.0004
        24.0004
 -25116209.89148 -19516324.84046
                  21227164.0554                                   21227159.8954
                                                                        51.2504
        41.7504
 -23127112.94548 -17963108.05946
                  20677274.9534                                   20677271.2734
                                                                        52.5004
        41.0004
  -7144568.60247  -5529079.51245
                  22005312.3984                                   22005307.6024
                                                                        47.7504
        31.7504
 -17737073.07048 -13768671.41446
                  22047434.1884                                   22047431.1764
                                                                        50.0004
        39.2504
  -5273974.47746  -4075319.56644
                  23687470.2194                                   23687465.7154
                                                                        41.7504
        25.2504
  -6474561.07847  -5030928.37144
                  23344228.2194                                   23344223.2664
                                                                        44.7504
        27.7504
 -16713071.62947 -13009544.76245
                  22610650.4774                                   22610646.3954
                                                                        45.0004
        30.5004
 09 10 22  0 34 30.0000000  0  9G02G04G05G10G13G29G16G07G25
  -5222054.57448  -4035840.78946
                  21446698.8284                                   21446692.9654
                                                                        50.0004
        39.7504
   6059456.668 6
                  24322423.305
                                                                        41.000

 -25271043.05148 -19636974.12946
                  21197700.5234                                   21197696.2424
                                                                        51.2504
        41.7504
 -23261550.09048 -18067864.35946
                  20651692.5234                                   20651688.9884
                                                                        52.5004
        41.5004
  -7171325.09448  -5549928.78545
                  22000220.9064                                   22000216.2664
                                                                        48.0004
        31.7504
 -17830526.39848 -13841492.14146
                  22029650.3524                                   22029646.9734
                                                                        50.0004
        39.0004
  -5393917.52047  -4168781.64543
                  23664645.8054                                   23664641.1094
                                                                        42.0004
        23.2504
  -6644002.49647  -5162960.69944
                  23311984.0554                                   23311979.5204
                                                                        43.5004
        29.0004
 -16828268.63347 -13099308.66045
                  22588729.5474                                   22588725.3204
                                                                        45.7504
        31.2504
 09 10 22  0 35  0.0000000  0  9G02G04G05G10G13G29G16G07G25
  -5242782.62148  -4051992.51246
                  21442754.5474                                   21442748.3164
                                                                        51.0004
        39.5004
   6079992.54347   4726491.43053
                  24326331.9774                                   24326329.9734
                                                                        42.5004
        23.2504
 -25425406.28548 -19757257.22347
                  21168326.0704                                   21168321.9104
                                                                        51.7504
        42.0004
 -23395428.99248 -18172185.60546
                  20626216.1884                                   20626212.2584
                                                                        52.0004
        41.2504
  -7197553.57847  -5570366.57045
                  21995229.5704                                   21995225.3094
                                                                        46.7504
        31.5004
 -17923350.75848 -13913822.77346
                  22011986.7194                                   22011983.5944
                                                                        49.7504
        38.7504
  -5513249.60247  -4261767.69143
                  23641937.0944                                   23641932.9304
                                                                        42.2504
        23.7504
  -6812986.84047  -5294637.11744
                  23279827.6804                                   23279823.5204
                                                                        43.2504
        28.7504
 -16942872.59047 -13188610.44945
                  22566921.1174                                   22566916.6294
                                                                        44.5004
        31.2504
 09 10 22  0 35 30.0000000  0  9G02G04G05G10G13G29G16G07G25
  -5263032.35548  -4067771.60546
                  21438901.0634                                   21438894.9964
                                                                        51.0004
        39.5004
   6100663.16447   4742598.78943
                  24330265.3914                                   24330263.1564
                                                                        44.5004
        22.5004
 -25579295.38748 -19877170.82847
                  21139042.2894                                   21139038.0004
                                                                        52.0004
        42.0004
 -23528745.95348 -18276068.96946
                  20600846.7194                                   20600842.9654
                                                                        52.2504
        41.2504
  -7223253.71147  -5590392.60245
                  21990338.7974                                   21990334.6914
                                                                        47.2504
        32.5004
 -18015543.69148 -13985661.47746
                  21994443.1644                                   21994439.6024
                                                                        50.0004
        38.5004
  -5631966.66047  -4354274.46544
                  23619346.1094                                   23619341.4454
                                                                        42.5004
        24.0004
  -6981509.59046  -5425954.43745
                  23247759.5784                                   23247755.3404
                                                                        41.0004
        30.0004
 -17056879.84047 -13277447.25045
                  22545225.8524                                   22545221.5004
                                                                        45.0004
        30.5004
 09 10 22  0 36  0.0000000  0  9G02G04G05G10G13G29G16G07G25
  -5282805.48048  -4083179.24646
                  21435138.2664                                   21435132.0634
                                                                        50.5004
        39.5004
   6121464.24247   4758807.94543
                  24334223.7194                                   24334220.8204
                                                                        44.2504
        22.0004
 -25732708.34048 -19996713.38347
                  21109848.3524                                   21109844.2034
                                                                        50.5004
        42.0004
 -23661499.88748 -18379513.59046
                  20575584.6564                                   20575580.7974
                                                                        52.2504
        41.5004
  -7248428.11747  -5610008.98845
                  21985548.3984                                   21985544.0904
                                                                        46.7504
        31.5004
 -18107104.68048 -14057007.66446
                  21977019.8914                                   21977016.2734
                                                                        48.0004
        38.5004
  -5750067.59846  -4446301.04344
                  23596871.5234                                   23596867.6884
                                                                        40.7504
        24.5004
  -7149565.82447  -5556907.74645
                  23215779.8204                                   23215776.1334
                                                                        43.5004
        30.0004
 -17170289.77347 -13365818.65645
                  22523645.0554                                   22523640.6024
                                                                        44.5004
        30.7504
 09 10 22  0 36 30.0000000  0  9G02G04G05G10G13G29G16G07G25
  -5302096.55148  -4098211.17246
                  21431467.6024                                   21431461.0824
                                                                        50.5004
        39.0004
   6142400.53147   4775122.35244
                  24338207.8284                                   24338204.7584
                                                                        43.0004
        24.5004
 -25885636.94148 -20115878.54747
                  21080746.8834                                   21080742.5824
                                                                        51.0004
        42.2504
 -23793683.00848 -18482513.47346
                  20550431.1024                                   20550427.2034
                                                                        52.0004
        41.7504
  -7273072.15247  -5629212.15645
                  21980858.6644                                   21980854.8014
                                                                        47.0004
        31.7504
 -18198026.98048 -14127856.19946
                  21959717.6484                                   21959714.0634
                                                                        49.5004
        38.5004
  -5867544.69946  -4537841.56644
                  23574516.3984                                   23574512.6724
                                                                        41.5004
        24.2504
  -7317146.85547  -5687490.43745
                  23183891.0164                                   23183886.8554
                                                                        44.7504
        30.5004
 -17283094.66447 -13453718.55145
                  22502178.7664                                   22502174.6174
                                                                        44.5004
        31.2504
 09 10 22  0 37  0.0000000  0  9G02G04G05G10G13G29G16G07G25
  -5320912.80948  -4112873.15646
                  21427886.6564                                   21427880.5704
                                                                        50.5004
        39.5004
   6163464.55146   4791535.71943
                  24342215.9064                                   24342213.5044
                                                                        40.7504
        23.0004
 -26038085.19148 -20234669.35247
                  21051737.0394                                   21051733.1134
                                                                        51.5004
        42.0004
 -23925299.27048 -18585071.64546
                  20525385.4304                                   20525382.0164
                                                                        52.5004
        41.0004
  -7297192.85947  -5648007.49645
                  21976268.9384                                   21976264.2624
                                                                        47.0004
        32.0004
 -18288315.79748 -14198211.10246
                  21942536.1414                                   21942532.6214
                                                                        49.7504
        39.0004
  -5984402.51646  -4628899.57844
                  23552279.2424                                   23552275.1724
                                                                        41.7504
        24.0004
  -7484254.64847  -5817704.28945
                  23152091.2974                                   23152087.3554
                                                                        43.7504
        31.0004
 -17395298.88747 -13541150.43445
                  22480827.1884                                   22480822.9024
                                                                        44.2504
        30.7504
 09 10 22  0 37 30.0000000  0  9G02G04G05G10G13G29G16G07G25
  -5339263.51648  -4127172.39146
                  21424394.7424                                   21424388.2344
                                                                        49.7504
        39.5004
   6184648.16846   4808042.53143
                  24346246.6954                                   24346244.9884
                                                                        38.7504
        23.0004
 -26190058.87548 -20353090.45347
                  21022817.6024                                   21022813.0744
                                                                        51.0004
        42.2504
 -24056354.87148 -18687192.88746
                  20500446.1334                                   20500442.3914
                                                                        51.5004
        41.7504
  -7320799.91847  -5666402.55945
                  21971776.8364                                   21971772.3594
                                                                        47.5004
        31.5004
 -18377978.44948 -14268078.07446
                  21925474.1174                                   21925470.7074
                                                                        49.2504
        39.7504
  -6100646.82446  -4719479.46143
                  23530158.8834                                   23530153.8204
                                                                        41.0004
        23.7504
  -7650894.18047  -5947553.00045
                  23120380.1564                                   23120376.3554
                                                                        45.0004
        31.0004
 -17506909.05147 -13628119.47345
                  22459588.6724                                   22459583.9574
                                                                        44.5004
        31.0004
 09 10 22  0 38  0.0000000  0  9G02G04G05G10G13G29G16G07G25
  -5357144.79348  -4141106.16846
                  21420992.1884                                   21420985.9884
                                                                        50.0004
        39.5004
   6205955.02346   4824645.14144
                  24350300.9144                                   24350300.2464
                                                                        40.5004
        26.0004
 -26341549.50048 -20471134.99246
                  20993989.9844                                   20993985.2234
                                                                        50.2504
        41.7504
 -24186842.86748 -18788871.89846
                  20475615.4454                                   20475611.3284
                                                                        52.2504
        41.5004
  -7343890.00847  -5684394.88745
                  21967382.5234                                   21967377.9304
                                                                        46.5004
        31.5004
 -18467008.80948 -14337452.35246
                  21908532.0164                                   21908528.7114
                                                                        48.7504
        39.0004
  -6216270.75846  -4809575.96943
                  23508155.8754                                   23508151.6024
                                                                        41.2504
        22.7504
  -7817059.07847  -6077032.97745
                  23088760.4614                                   23088756.3714
                                                                        44.7504
        30.0004
 -17617918.23847 -13714620.23445
                  22438464.0314                                   22438460.3284
                                                                        43.7504
        30.7504
 09 10 22  0 38 30.0000000  0  9G02G04G05G10G13G29G16G07G25
  -5374557.23048  -4154674.42246
                  21417678.6954                                   21417672.3404
                                                                        49.0004
        38.7504
   6227383.47347   4841342.53144
                  24354379.3134                                   24354377.4614
                                                                        42.5004
        24.7504
 -26492555.36748 -20588801.79747
                  20965254.2734                                   20965250.1954
                                                                        51.0004
        42.0004
 -24316761.54348 -18890107.25446
                  20450892.6334                                   20450888.7734
                                                                        52.5004
        41.7504
  -7366465.02747  -5701985.87145
                  21963086.9774                                   21963082.3834
                                                                        46.7504
        30.5004
 -18555406.27348 -14406333.51646
                  21891710.5864                                   21891707.0594
                                                                        48.5004
        38.5004
  -6331272.89846  -4899188.02743
                  23486271.8984                                   23486266.9844
                                                                        41.2504
        22.7504
  -7982743.80547  -6206138.31244
                  23057232.4064                                   23057228.1524
                                                                        44.5004
        29.7504
 -17728325.22347 -13800651.58645
                  22417454.7504                                   22417450.2734
                                                                        45.5004
        30.5004
 09 10 22  0 39  0.0000000  0  9G02G04G05G10G13G29G16G07G25
  -5391498.57048  -4167875.61346
                  21414455.0474                                   21414449.0744
                                                                        49.7504
        39.2504
   6248936.60247   4858137.10944
                  24358481.0704                                   24358479.6414
                                                                        44.5004
        26.7504
 -26643071.23848 -20706086.91447
                  20936612.1724                                   20936607.6564
                                                                        51.7504
        42.2504
 -24446105.45348 -18990894.68746
                  20426279.3204                                   20426275.4574
                                                                        52.0004
        41.5004
  -7388522.08247  -5719173.23445
                  21958889.7974                                   21958884.7704
                                                                        47.0004
        31.2504
 -18643166.82048 -14474718.35946
                  21875010.4454                                   21875006.7504
                                                                        49.0004
        39.0004
  -6445648.03147  -4988311.43443
                  23464507.2734                                   23464502.5664
                                                                        42.7504
        22.7504
  -8147939.86347  -6334862.18444
                  23025796.4844                                   23025791.8014
                                                                        44.5004
        29.2504
 -17838124.60947 -13886209.49645
                  22396560.6414                                   22396556.1484
                                                                        46.0004
        31.5004
 09 10 22  0 39 30.0000000  0  9G02G04G05G10G13G29G16G07G25
  -5407975.25448  -4180714.48446
                  21411319.6954                                   21411313.2814
                                                                        49.5004
        39.0004
   6270607.28547   4875023.57043
                  24362604.7344                                   24362602.5394
                                                                        44.0004
        23.2504
 -26793100.31648 -20822992.65647
                  20908062.4614                                   20908057.9384
                                                                        52.0004
        43.0004
 -24574879.00848 -19091237.70746
                  20401774.8444                                   20401770.6954
                                                                        52.7504
        41.7504
  -7410069.59047  -5735963.59845
                  21954789.5474                                   21954784.5204
                                                                        46.5004
        30.2504
 -18730295.35948 -14542610.71546
                  21858430.1724                                   21858426.7034
                                                                        49.5004
        39.0004
  -6559400.75047  -5076949.88343
                  23442861.1484                                   23442855.2894
                                                                        43.0004
        23.5004
  -8312652.64847  -6463209.63344
                  22994452.3134                                   22994448.0554
                                                                        43.7504
        28.2504
 -17947321.57847 -13971297.95745
                  22375781.0394                                   22375776.4534
                                                                        44.2504
        32.0004
 09 10 22  0 40  0.0000000  0  9G02G04G05G10G13G29G16G07G25
  -5423991.12548  -4193194.38346
                  21408271.7974                                   21408265.4304
                                                                        49.5004
        39.0004
   6292392.62947   4891999.57443
                  24366750.2894                                   24366746.6884
                                                                        43.0004
        22.0004
 -26942642.12548 -20939518.67247
                  20879605.7114                                   20879601.0234
                                                                        52.2504
        42.7504
 -24703082.42248 -19191136.46146
                  20377378.3444                                   20377374.3204
                                                                        52.2504
        41.7504
  -7431110.77347  -5752359.44945
                  21950785.3984                                   21950781.0354
                                                                        46.2504
        31.0004
 -18816793.30548 -14610011.68746
                  21841970.1954                                   21841966.8134
                                                                        49.7504
        38.7504
  -6672530.84847  -5165103.17244
                  23421332.8284                                   23421327.8054
                                                                        43.0004
        24.2504
  -8476879.14147  -6591177.90244
                  22963200.3054                                   22963195.9734
                                                                        44.0004
        28.7504
 -18055916.45747 -14055917.35245
                  22355115.9614                                   22355111.6914
                                                                        44.7504
        31.0004
 09 10 22  0 40 30.0000000  0  9G02G04G05G10G13G29G16G07G25
  -3864127.49648  -2977716.19146
                  21705104.0944                                   21705098.0984
                                                                        49.7504
        39.0004
   7889708.91846   6136661.82043
                  24670707.8914                                   24670705.9184
                                                                        40.0004
        19.7504
 -25516271.19548 -19828060.77747
                  21151034.6884                                   21151030.5704
                                                                        52.7504
        42.5004
 -23255290.77348 -18062987.13346
                  20652883.7814                                   20652879.7464
                                                                        52.5004
        41.5004
  -5876227.23447  -4540761.97345
                  22246670.3834                                   22246665.5354
                                                                        46.2504
        31.0004
 -17327238.26248 -13449319.46146
                  22125423.0164                                   22125419.5004
                                                                        50.0004
        38.5004
  -5209614.21147  -4025168.11343
                  23699717.3054                                   23699711.5554
                                                                        43.5004
        23.2504
  -7065192.44147  -5491162.11744
                  23231835.1254                                   23231831.4414
                                                                        44.0004
        29.7504
 -16588485.36347 -12912464.64545
                  22634358.4774                                   22634354.5004
                                                                        44.7504
        30.2504
 09 10 22  0 41  0.0000000  0  9G02G04G05G10G13G29G16G07G25
  -3879226.77748  -2989481.88346
                  21702230.7504                                   21702224.4304
                                                                        50.0004
        39.5004
   7911716.71546   6153810.79743
                  24674896.5554                                   24674893.6914
                                                                        38.7504
        20.2504
 -25664835.03148 -19943824.87947
                  21122764.1174                                   21122760.0044
                                                                        51.0004
        42.7504
 -23382351.28948 -18161995.38746
                  20628704.9384                                   20628701.2624
                                                                        52.5004
        41.7504
  -5896262.42247  -4556373.83245
                  22242857.3444                                   22242853.1024
                                                                        46.0004
        30.0004
 -17412475.66848 -13515738.21146
                  22109202.8524                                   22109198.9654
                                                                        50.0004
        38.5004
  -5321497.22747  -4112349.64543
                  23678425.8674                                   23678420.8014
                                                                        44.2504
        23.5004
  -7228440.25447  -5618368.02045
                  23200770.5234                                   23200766.2894
                                                                        43.5004
        30.5004
 -16695874.10247 -12996144.24645
                  22613923.2504                                   22613919.2234
                                                                        44.5004
        30.0004
 09 10 22  0 41 30.0000000  0  9G02G04G05G10G13G29G16G07G25
  -3893870.90648  -3000892.77046
                  21699444.1724                                   21699437.8834
                                                                        49.2504
        39.0004
   7933832.15646   6171043.50443
                  24679104.7274                                   24679102.4574
                                                                        41.0004
        22.7504
 -25812908.00848 -20059206.44147
                  21094586.7584                                   21094582.3524
                                                                        52.5004
        42.5004
 -23508839.47348 -18260557.60246
                  20604635.3364                                   20604631.3054
                                                                        52.0004
        41.7504
  -5915798.82847  -4571597.10245
                  22239140.0634                                   22239135.5394
                                                                        45.5004
        30.2504
 -17497083.21948 -13581666.15246
                  22093102.3444                                   22093098.8324
                                                                        49.2504
        38.7504
  -5432755.80947  -4199044.60944
                  23657254.6254                                   23657249.2304
                                                                        44.2504
        24.7504
  -7391195.09047  -5745189.80545
                  23169799.4384                                   23169795.3364
                                                                        45.0004
        30.7504
 -16802659.54347 -13079353.80945
                  22593602.8524                                   22593598.7464
                                                                        44.5004
        30.2504
 09 10 22  0 42  0.0000000  0  9G02G04G05G10G13G29G16G07G25
  -3908060.39848  -3011949.78146
                  21696743.8754                                   21696737.9924
                                                                        49.0004
        38.2504
   7956056.50847   6188361.27744
                  24683334.9304                                   24683332.2854
                                                                        43.0004
        26.7504
 -25960486.51648 -20174202.80147
                  21066503.8364                                   21066499.0864
                                                                        50.7504
        42.2504
 -23634752.14548 -18358671.35546
                  20580674.9384                                   20580671.2384
                                                                        52.0004
        41.5004
  -5934836.25847  -4586431.43045
                  22235517.2114                                   22235512.1214
                                                                        45.7504
        30.5004
 -17581059.12948 -13647101.87146
                  22077122.5004                                   22077118.9304
                                                                        49.5004
        38.5004
  -5543387.10247  -4285250.73843
                  23636201.5704                                   23636196.3364
                                                                        43.5004
        23.7504
  -7553451.87947  -5871623.39545
                  23138922.7584                                   23138918.8364
                                                                        44.5004
        31.7504
 -16908838.48847 -13162090.73045
                  22573397.5314                                   22573393.1374
                                                                        45.5004
        30.0004
 09 10 22  0 42 30.0000000  0  9G02G04G05G10G13G29G16G07G25
  -3921798.67248  -3022655.16046
                  21694129.8524                                   21694123.6764
                                                                        49.5004
        39.0004
   7978384.98847   6205760.14844
                  24687583.0164                                   24687581.3484
                                                                        42.5004
        25.2504
 -26107570.61748 -20288813.75847
                  21038514.4774                                   21038510.1604
                                                                        51.7504
        42.5004
 -23760090.28948 -18456337.38346
                  20556823.8674                                   20556819.8054
                                                                        52.2504
        41.0004
  -5953379.79747  -4600880.95744
                  22231988.3204                                   22231984.0474
                                                                        46.0004
        29.2504
 -17664405.74648 -13712047.26246
                  22061262.2504                                   22061258.7974
                                                                        49.5004
        38.5004
  -5653392.50047  -4370969.16844
                  23615268.6564                                   23615263.3204
                                                                        44.0004
        24.2504
  -7715210.76647  -5997669.03945
                  23108140.6644                                   23108136.8404
                                                                        45.0004
        32.0004
 -17014412.63747 -13244356.30545
                  22553307.6954                                   22553303.2544
                                                                        44.7504
        31.5004
 09 10 22  0 43  0.0000000  0  9G02G04G05G10G13G29G16G07G25
  -3935090.08648  -3033011.95346
                  21691600.4224                                   21691594.3954
                                                                        49.5004
        38.5004
   8000813.08246   6223236.64143
                  24691851.2114                                   24691848.8164
                                                                        41.5004
        22.5004
 -26254162.50048 -20403041.17247
                  21010618.7194                                   21010614.3444
                                                                        52.0004
        42.7504
 -23884856.39548 -18553557.81246
                  20533081.7814                                   20533077.9104
                                                                        52.5004
        41.5004
  -5971434.51647  -4614949.52345
                  22228552.3204                                   22228547.8284
                                                                        46.2504
        30.0004
 -17747126.46148 -13776504.93746
                  22045520.8674                                   22045517.5864
                                                                        49.2504
        38.0004
  -5762774.34447  -4456201.70344
                  23594453.6484                                   23594448.8164
                                                                        43.5004
        24.7504
  -7876471.87547  -6123326.74245
                  23077453.5784                                   23077449.3134
                                                                        43.0004
        30.5004
 -17119384.73447 -13326152.78945
                  22533331.5634                                   22533327.6804
                                                                        46.0004
        30.7504
 09 10 22  0 43 30.0000000  0  9G02G04G05G10G13G29G16G07G25
  -3947937.75848  -3043023.06646
                  21689155.5944                                   21689149.3244
                                                                        49.0004
        38.7504
   8023338.46146   6240789.02743
                  24696137.0394                                   24696134.5864
                                                                        40.2504
        20.2504
 -26400261.52048 -20516884.61747
                  20982816.9224                                   20982813.0984
                                                                        51.7504
        42.5004
 -24009050.27048 -18650332.38746
                  20509448.4144                                   20509444.3484
                                                                        52.0004
        41.5004
  -5989003.44947  -4628639.57445
                  22225209.1954                                   22225205.2544
                                                                        46.5004
        30.5004
 -17829222.48048 -13840475.90246
                  22029898.6724                                   22029894.9804
                                                                        50.0004
        38.5004
  -5871532.65647  -4540948.38344
                  23573757.6414                                   23573752.3364
                                                                        43.0004
        24.5004
  -8037234.07447  -6248595.97345
                  23046861.5084                                   23046857.3014
                                                                        44.2504
        30.7504
 -17223754.43747 -13407479.78145
                  22513471.2114                                   22513467.2624
                                                                        46.0004
        30.7504
 09 10 22  0 44  0.0000000  0  8G02G05G10G13G29G16G07G25
  -3960340.21948  -3052687.38346
                  21686795.5394                                   21686789.6214
                                                                        49.7504
        39.0004
 -26545862.05148 -20630339.59847
                  20955110.2814                                   20955106.0634
                                                                        51.7504
        42.7504
 -24132667.14148 -18746657.41846
                  20485925.2114                                   20485920.9224
                                                                        52.7504
        41.7504
  -6006085.28947  -4641950.03545
                  22221958.7194                                   22221954.6954
                                                                        45.2504
        30.5004
 -17910689.56648 -13903956.76646
                  22014396.1644                                   22014392.5044
                                                                        49.5004
        38.5004
  -5979662.75447  -4625205.52044
                  23553180.8754                                   23553176.0634
                                                                        43.5004
        24.2504
  -8197490.23847  -6373470.64844
                  23016365.4614                                   23016361.2894
                                                                        44.5004
        29.7504
 -17327518.19547 -13488334.63345
                  22493725.7894                                   22493721.4774
                                                                        45.0004
        31.2504
 09 10 22  0 44 30.0000000  0  8G02G05G10G13G29G16G07G25
  -3972296.66048  -3062004.09446
                  21684520.1884                                   21684514.3634
                                                                        49.2504
        38.2504
 -26690961.32848 -20743404.12947
                  20927499.0784                                   20927494.7274
                                                                        52.2504
        42.0004
 -24255703.52748 -18842529.86346
                  20462512.0084                                   20462508.1214
                                                                        53.0004
        41.5004
  -6022680.33647  -4654881.19545
                  22218800.7734                                   22218796.5744
                                                                        45.7504
        30.7504
 -17991526.54348 -13966946.59846
                  21999013.4224                                   21999009.2664
                                                                        50.7504
        39.2504
  -6087162.13347  -4708971.14544
                  23532724.6804                                   23532719.7774
                                                                        44.0004
        26.0004
  -8357236.17647  -6497947.95744
                  22985966.4144                                   22985962.4574
                                                                        43.0004
        29.5004
 -17430672.79747 -13568714.80145
                  22474095.5474                                   22474091.5044
                                                                        45.2504
        30.2504
 09 10 22  0 45  0.0000000  0  8G02G05G10G13G29G16G07G25
  -3983804.94948  -3070971.67646
                  21682330.5394                                   21682324.5904
                                                                        49.7504
        38.2504
 -26835552.56648 -20856072.73447
                  20899984.1804                                   20899980.1024
                                                                        52.2504
        42.7504
 -24378155.01248 -18937946.84446
                  20439210.4534                                   20439206.4804
                                                                        53.0004
        41.2504
  -6038786.82047  -4667431.63345
                  22215736.0084                                   22215731.4184
                                                                        45.5004
        30.0004
 -18071728.45748 -14029441.53546
                  21983750.9774                                   21983747.3594
                                                                        49.5004
        39.0004
  -6194025.56647  -4792241.26644
                  23512388.9144                                   23512384.0004
                                                                        43.5004
        24.7504
  -8516465.23847  -6622022.62145
                  22955666.3834                                   22955662.0434
                                                                        43.7504
        30.5004
 -17533213.91847 -13648616.94945
                  22454582.8054                                   22454578.7664
                                                                        45.5004
        30.5004
 09 10 22  0 45 30.0000000  0  8G02G05G10G13G29G16G07G25
  -3994863.99248  -3079589.25846
                  21680225.8984                                   21680219.9144
                                                                        49.0004
        38.0004
 -26979631.77348 -20968342.23047
                  20872566.7894                                   20872563.2114
                                                                        52.0004
        42.7504
 -24500017.29748 -19032904.47346
                  20416020.6884                                   20416016.9104
                                                                        52.2504
        41.7504
  -6054403.87147  -4679600.64544
                  22212763.9304                                   22212759.3834
                                                                        45.2504
        29.2504
 -18151293.44148 -14091440.19946
                  21968610.3204                                   21968606.6564
                                                                        50.5004
        38.5004
  -6300249.69547  -4875013.24244
                  23492175.4454                                   23492169.8404
                                                                        43.5004
        26.2504
  -8675171.54347  -6745689.90244
                  22925465.5004                                   22925461.4104
                                                                        44.0004
        29.7504
 -17635137.71947 -13728037.97745
                  22435187.1334                                   22435183.6994
                                                                        44.5004
        30.5004
 09 10 22  0 46  0.0000000  0  8G02G05G10G13G29G16G07G25
  -4005478.20348  -3087860.18446
                  21678206.2584                                   21678199.8054
                                                                        49.5004
        37.2504
 -27123199.95348 -21080213.55547
                  20845246.9844                                   20845242.3954
                                                                        52.0004
        43.2504
 -24621292.46148 -19127404.64146
                  20392942.7034                                   20392938.7034
                                                                        53.2504
        41.5004
  -6069536.77347  -4691392.48044
                  22209884.2424                                   22209879.7814
                                                                        45.5004
        29.5004
 -18230224.51248 -14152944.96146
                  21953590.2504                                   21953586.8554
                                                                        50.0004
        39.0004
  -6405836.68047  -4957288.76244
                  23472082.8914                                   23472077.4414
                                                                        43.0004
        24.7504
  -8833354.96947  -6868949.69545
                  22895364.5784                                   22895359.7114
                                                                        44.7504
        30.5004
 -17736446.71947 -13806980.02745
                  22415909.0234                                   22415904.8554
                                                                        45.5004
        30.2504
 09 10 22  0 46 30.0000000  0  8G02G05G10G13G29G16G07G25
  -4015654.57448  -3095789.83246
                  21676270.1414                                   21676263.8834
                                                                        48.7504
        37.5004
 -27266261.10248 -21191689.75047
                  20818023.1414                                   20818018.9224
                                                                        52.7504
        43.0004
 -24741984.77048 -19221450.52746
                  20369975.8914                                   20369971.7304
                                                                        52.7504
        41.5004
  -6084192.86747  -4702812.68745
                  22207095.2734                                   22207090.6294
                                                                        45.2504
        30.0004
 -18308526.64848 -14213959.59846
                  21938689.8674                                   21938686.3524
                                                                        50.2504
        38.0004
  -6510790.77047  -5039071.12944
                  23452110.6334                                   23452105.7854
                                                                        43.7504
        25.0004
  -8991018.57447  -6991804.41045
                  22865362.3834                                   22865357.6094
                                                                        44.0004
        30.5004
 -17837145.64847 -13885446.64545
                  22396746.0944                                   22396742.5204
                                                                        45.5004
        30.0004
 09 10 22  0 47  0.0000000  0  8G02G05G10G13G29G16G07G25
  -4025397.64148  -3103381.72346
                  21674415.7504                                   21674409.8164
                                                                        49.5004
        38.2504
 -27408816.73848 -21302772.09447
                  20790895.7034                                   20790891.5084
                                                                        52.5004
        42.5004
 -24862096.37148 -19315044.01246
                  20347119.5164                                   20347115.3794
                                                                        52.7504
        41.5004
  -6098377.72747  -4713865.80145
                  22204396.1174                                   22204391.5394
                                                                        45.0004
        30.0004
 -18386203.81648 -14274487.28146
                  21923908.5474                                   21923905.0434
                                                                        50.0004
        38.2504
  -6615114.78547  -5120362.57444
                  23432258.4844                                   23432253.3484
                                                                        43.2504
        25.5004
  -9148162.43447  -7114254.24245
                  22835458.7894                                   22835454.0784
                                                                        45.5004
        31.0004
 -17937236.64147 -13963439.53545
                  22377699.9924                                   22377695.3984
                                                                        45.7504
        31.2504
 09 10 22  0 47 30.0000000  0  8G02G05G10G13G29G16G07G25
  -4034713.56648  -3110640.78946
                  21672642.7664                                   21672636.7934
                                                                        49.2504
        38.2504
 -27550868.77748 -21413461.99647
                  20763864.3914                                   20763859.8094
                                                                        53.0004
        43.0004
 -24981629.91848 -19408186.99246
                  20324372.6254                                   20324368.7074
                                                                        52.7504
        41.5004
  -6112097.36747  -4724556.39845
                  22201785.1804                                   22201780.6764
                                                                        44.5004
        30.0004
 -18463259.31248 -14334530.62546
                  21909245.4224                                   21909242.0864
                                                                        49.5004
        38.0004
  -6718811.06247  -5201164.89144
                  23412525.7034                                   23412521.0634
                                                                        43.0004
        25.5004
  -9304788.05147  -7236300.18045
                  22805654.0314                                   22805649.2384
                                                                        44.0004
        30.7504
 -18036723.27747 -14040961.47345
                  22358768.2194                                   22358763.7934
                                                                        45.0004
        31.7504
 09 10 22  0 48  0.0000000  0  8G02G05G10G13G29G16G07G25
  -4043605.89848  -3117569.82446
                  21670950.8364                                   21670944.6134
                                                                        48.2504
        37.0004
 -27692417.50048 -21523759.50847
                  20736928.2664                                   20736924.0554
                                                                        52.5004
        43.0004
 -25100586.45348 -19500880.41046
                  20301736.1174                                   20301732.2894
                                                                        53.0004
        41.0004
  -6125355.77347  -4734887.66044
                  22199262.1884                                   22199257.3014
                                                                        44.0004
        28.7504
 -18539695.68048 -14394091.50446
                  21894699.9304                                   21894696.3834
                                                                        50.5004
        38.5004
  -6821880.85547  -5281479.04744
                  23392912.2114                                   23392906.8134
                                                                        43.5004
        25.0004
  -9460894.58247  -7357941.65245
                  22775947.6024                                   22775942.7544
                                                                        46.0004
        31.0004
 -18135607.06247 -14118013.76245
                  22339950.4384                                   22339946.8324
                                                                        45.0004
        30.7504
 09 10 22  0 48 30.0000000  0  8G02G05G10G13G29G16G07G25
  -4052078.28548  -3124171.77046
                  21669338.6954                                   21669332.6094
                                                                        48.2504
        38.0004
 -27833463.87948 -21633665.85547
                  20710087.9064                                   20710083.8714
                                                                        52.5004
        43.0004
 -25218966.41848 -19593124.46546
                  20279208.9384                                   20279205.1724
                                                                        53.0004
        41.5004
  -6138156.50847  -4744862.23044
                  22196825.7034                                   22196821.5394
                                                                        44.2504
        29.2504
 -18615514.66048 -14453171.26646
                  21880272.4224                                   21880268.7464
                                                                        50.0004
        38.2504
  -6924325.51247  -5361306.05544
                  23373417.4534                                   23373411.9734
                                                                        42.5004
        26.0004
  -9616481.23447  -7479178.00845
                  22746340.7194                                   22746336.2274
                                                                        45.0004
        31.2504
 -18233888.96947 -14194596.98045
                  22321248.6094                                   22321244.2304
                                                                        45.0004
        30.2504
 09 10 22  0 49  0.0000000  0  8G02G05G10G13G29G16G07G25
  -2484711.03148  -1902846.56246
                  21967598.2194                                   21967592.2154
                                                                        49.2504
        37.2504
 -26398580.57048 -20515574.93747
                  20983137.0634                                   20983132.6884
                                                                        52.2504
        43.0004
 -23761345.28948 -18457315.75446
                  20556585.1884                                   20556581.4964
                                                                        52.5004
        41.7504
  -4575081.52047  -3526881.64844
                  22494269.5704                                   22494265.0274
                                                                        44.5004
        29.5004
 -17115293.84048 -13284168.00846
                  22165755.0084                                   22165751.3164
                                                                        50.2504
        38.5004
  -5450720.37946  -4213042.26643
                  23653834.6564                                   23653830.4384
                                                                        41.5004
        22.5004
  -8196119.13747  -6372402.32045
                  23016626.3524                                   23016622.2344
                                                                        45.5004
        31.5004
 -16756144.68047 -13043107.90245
                  22602453.7734                                   22602449.6954
                                                                        44.5004
        31.0004
 09 10 22  0 49 30.0000000  0  8G02G05G10G13G29G16G07G25
  -2492347.30948  -1908797.00046
                  21966145.1564                                   21966139.7704
                                                                        48.2504
        37.7504
 -26538615.44148 -20624693.00847
                  20956489.5314                                   20956485.2384
                                                                        53.0004
        42.7504
 -23878569.85548 -18548659.60546
                  20534278.1724                                   20534274.4184
                                                                        52.5004
        41.5004
  -4586973.82847  -3536148.31644
                  22492006.2504                                   22492001.6994
                                                                        44.5004
        29.0004
 -17189878.28548 -13342285.74646
                  22151561.8914                                   22151558.4104
                                                                        49.7504
        38.5004
  -5551911.73446  -4291892.63743
                  23634579.1024                                   23634573.8244
                                                                        41.2504
        23.7504
  -8350656.50447  -6492820.98845
                  22987218.6564                                   22987214.6174
                                                                        44.0004
        31.7504
 -16853220.59047 -13118751.46145
                  22583980.9224                                   22583976.8364
                                                                        45.0004
        31.7504
 09 10 22  0 50  0.0000000  0  8G02G05G10G13G29G16G07G25
  -2499567.90648  -1914423.51646
                  21964771.3444                                   21964765.2704
                                                                        48.0004
        37.0004
 -26678142.30548 -20733415.34847
                  20929938.3204                                   20929934.3054
                                                                        52.5004
        42.5004
 -23995214.20748 -18639551.32846
                  20512081.8054                                   20512077.3914
                                                                        52.0004
        41.0004
  -4598414.59047  -3545063.13344
                  22489829.4454                                   22489824.9144
                                                                        43.7504
        29.0004
 -17263845.53148 -13399922.50846
                  22137486.3524                                   22137482.8094
                                                                        49.5004
        38.7504
  -5652475.00846  -4370253.53544
                  23615442.4534                                   23615437.2464
                                                                        41.0004
        24.7504
  -8504665.14547  -6612827.62145
                  22957911.5704                                   22957907.4924
                                                                        44.5004
        30.2504
 -16949692.20747 -13193924.09845
                  22565623.0164                                   22565618.7624
                                                                        44.7504
        31.2504
 09 10 22  0 50 30.0000000  0  8G02G05G10G13G29G16G07G25
  -2506374.86748  -1919727.71946
                  21963476.4774                                   21963470.3444
                                                                        48.5004
        37.5004
 -26817159.47348 -20841740.43747
                  20903484.4924                                   20903480.3014
                                                                        53.2504
        42.5004
 -24111278.85248 -18729991.58646
                  20489995.3594                                   20489991.4924
                                                                        53.2504
        41.0004
  -4609406.53947  -3553628.27744
                  22487737.8914                                   22487733.2464
                                                                        44.7504
        27.5004
 -17337196.28948 -13457078.87146
                  22123528.3594                                   22123524.7934
                                                                        50.0004
        38.5004
  -5752410.34846  -4448125.15644
                  23596424.7504                                   23596420.5204
                                                                        40.5004
        26.0004
  -8658142.97347  -6732420.65645
                  22928705.8524                                   22928701.3984
                                                                        44.7504
        31.5004
 -17045559.83647 -13268626.12545
                  22547379.8674                                   22547375.8364
                                                                        45.5004
        30.0004
 09 10 22  0 51  0.0000000  0  8G02G05G10G13G29G16G07G25
  -2512770.54347  -1924711.39146
                  21962258.6024                                   21962253.1994
                                                                        47.2504
        38.0004
 -26955666.35548 -20949667.92647
                  20877127.6414                                   20877123.1054
                                                                        52.5004
        43.0004
 -24226762.30148 -18819978.69946
                  20468019.4694                                   20468015.8954
                                                                        52.5004
        41.2504
  -4619952.45347  -3561845.81244
                  22485730.6644                                   22485726.3014
                                                                        43.7504
        29.5004
 -17409931.50848 -13513755.59846
                  22109686.8914                                   22109683.7774
                                                                        49.5004
        38.7504
  -5851717.32446  -4525507.17644
                  23577527.4614                                   23577523.0274
                                                                        40.7504
        24.0004
  -8811087.93747  -6851598.46945
                  22899601.5554                                   22899596.7624
                                                                        45.0004
        31.5004
 -17140823.37147 -13342857.40245
                  22529252.0554                                   22529247.7074
                                                                        44.0004
        30.0004
 09 10 22  0 51 30.0000000  0  8G02G05G10G13G29G16G07G25
  -2518757.37947  -1929376.48446
                  21961119.8444                                   21961114.0744
                                                                        47.5004
        37.0004
 -27093662.22748 -21057197.40247
                  20850868.0164                                   20850864.0784
                                                                        52.5004
        43.0004
 -24341664.90248 -18909513.20746
                  20446154.5004                                   20446150.5314
                                                                        52.0004
        41.5004
  -4630055.35947  -3569718.18744
                  22483807.9384                                   22483803.6604
                                                                        43.7504
        28.0004
 -17482052.19548 -13569953.44946
                  22095962.7034                                   22095959.5664
                                                                        49.7504
        38.7504
  -5950396.21946  -4602399.79744
                  23558749.2894                                   23558745.3364
                                                                        41.2504
        24.7504
  -8963498.17647  -6970359.55945
                  22870599.0004                                   22870594.0984
                                                                        44.2504
        31.7504
 -17235483.12147 -13416618.25445
                  22511238.1094                                   22511234.2974
                                                                        44.5004
        30.5004
 09 10 22  0 52  0.0000000  0  8G02G05G10G13G29G16G07G25
  -2524337.63748  -1933724.78546
                  21960057.9534                                   21960052.5514
                                                                        48.2504
        38.0004
 -27231145.28548 -21164327.00047
                  20824705.8444                                   20824701.3484
                                                                        53.0004
        43.2504
 -24455986.23048 -18998594.72746
                  20424399.7114                                   20424396.0044
                                                                        52.5004
        41.0004
  -4639717.66847  -3577247.22344
                  22481969.0864                                   22481965.3484
                                                                        44.5004
        28.5004
 -17553559.23048 -13625673.19146
                  22082355.5704                                   22082351.9734
                                                                        49.7504
        38.2504
  -6048447.33247  -4678803.27744
                  23540091.4534                                   23540086.5984
                                                                        42.2504
        26.0004
  -9115371.24647  -7088702.08245
                  22841697.9064                                   22841693.4414
                                                                        43.7504
        31.2504
 -17329539.18447 -13489908.63345
                  22493340.4384                                   22493335.6454
                                                                        45.0004
        31.5004
 09 10 22  0 52 30.0000000  0  8G02G05G10G13G29G16G07G25
  -2529514.00448  -1937758.35946
                  21959073.0784                                   21959067.3054
                                                                        48.2504
        37.5004
 -27368115.27048 -21271056.80147
                  20798641.1174                                   20798637.1524
                                                                        53.0004
        43.0004
 -24569726.08648 -19087223.08246
                  20402755.6174                                   20402751.4774
                                                                        52.5004
        41.5004
  -4648942.70747  -3584435.59044
                  22480214.0784                                   22480209.3714
                                                                        43.7504
        28.5004
 -17624453.45348 -13680915.33246
                  22068864.8444                                   22068861.1724
                                                                        50.0004
        38.7504
  -6145870.21946  -4754717.17644
                  23521552.0474                                   23521547.6214
                                                                        41.0004
        26.2504
  -9266705.85547  -7206625.07045
                  22812900.3754                                   22812895.3244
                                                                        44.5004
        31.5004
 -17422992.05547 -13562729.02045
                  22475556.6174                                   22475552.5124
                                                                        44.7504
        30.7504
 09 10 22  0 53  0.0000000  0  8G02G05G10G13G29G16G07G25
  -2534286.94548  -1941477.58646
                  21958165.0234                                   21958158.8714
                                                                        48.0004
        36.7504
 -27504569.08248 -21377384.25047
                  20772674.8524                                   20772670.8014
                                                                        52.7504
        43.0004
 -24682882.87148 -19175397.18446
                  20381222.4224                                   20381218.4964
                                                                        52.0004
        41.7504
  -4657731.25047  -3591283.80144
                  22478541.7034                                   22478537.4384
                                                                        44.2504
        28.5004
 -17694734.57848 -13735679.82846
                  22055490.6804                                   22055487.1294
                                                                        49.7504
        38.2504
  -6242663.51646  -4830140.47744
                  23503132.9144                                   23503128.4454
                                                                        41.2504
        24.5004
  -9417498.43447  -7324125.73845
                  22784205.0004                                   22784200.5234
                                                                        45.7504
        31.5004
 -17515840.19947 -13635078.19545
                  22457888.5314                                   22457884.2544
                                                                        45.0004
        31.0004
 09 10 22  0 53 30.0000000  0  8G02G05G10G13G29G16G07G25
  -2538660.49648  -1944885.56646
                  21957332.5314                                   21957326.9534
                                                                        48.2504
        36.7504
 -27640508.13748 -21483310.71547
                  20746806.1564                                   20746801.8634
                                                                        53.0004
        43.2504
 -24795457.64548 -19263117.71946
                  20359800.1724                                   20359796.4734
                                                                        52.5004
        41.7504
  -4666089.28147  -3597796.57444
                  22476950.8834                                   22476946.4024
                                                                        43.0004
        28.5004
 -17764405.02748 -13789968.49646
                  22042232.8444                                   22042229.4694
                                                                        49.5004
        38.0004
  -6338829.00446  -4905074.58244
                  23484833.4064                                   23484828.5704
                                                                        40.7504
        25.5004
  -9567748.56647  -7441203.71945
                  22755613.6884                                   22755608.8754
                                                                        46.0004
        31.7504
 -17608085.55147 -13706957.68745
                  22440334.8444                                   22440330.3524
                                                                        44.5004
        31.2504
 09 10 22  0 54  0.0000000  0  8G02G05G10G13G29G16G07G25
  -2542634.30148  -1947982.08646
                  21956576.4774                                   21956570.6954
                                                                        48.2504
        37.2504
 -27775928.64848 -21588833.27747
                  20721036.7274                                   20721032.6374
                                                                        52.5004
        43.2504
 -24907447.02748 -19350382.07846
                  20338489.3284                                   20338485.3794
                                                                        53.0004
        41.7504
  -4674014.27747  -3603971.91844
                  22475443.1804                                   22475438.4654
                                                                        44.7504
        29.0004
 -17833462.97748 -13843779.87546
                  22029091.3594                                   22029087.7934
                                                                        49.2504
        38.0004
  -6434363.66847  -4979517.14144
                  23466652.8984                                   23466649.0784
                                                                        42.2504
        25.2504
  -9717451.28547  -7557855.13745
                  22727125.7664                                   22727120.8594
                                                                        46.2504
        31.0004
 -17699725.24647 -13778365.21945
                  22422896.7424                                   22422891.7774
                                                                        44.7504
        31.2504
 09 10 22  0 54 30.0000000  0  8G02G05G10G13G29G16G07G25
  -2546211.66848  -1950769.67246
                  21955895.7034                                   21955889.9224
                                                                        48.5004
        37.0004
 -27910830.62148 -21693951.69947
                  20695365.4454                                   20695361.4534
                                                                        52.7504
        43.2504
 -25018852.25848 -19437191.25446
                  20317289.8134                                   20317285.5474
                                                                        52.7504
        41.0004
  -4681511.64547  -3609814.00044
                  22474016.4924                                   22474011.6484
                                                                        44.5004
        28.0004
 -17901911.13748 -13897116.11746
                  22016066.4224                                   22016062.4924
                                                                        49.0004
        38.5004
  -6529269.46146  -5053469.66844
                  23448592.6724                                   23448588.9694
                                                                        41.0004
        26.0004
  -9866605.82447  -7674079.37945
                  22698742.4304                                   22698737.9924
                                                                        45.7504
        31.2504
 -17790760.89847 -13849302.13345
                  22405572.8054                                   22405568.2544
                                                                        44.7504
        31.0004
 09 10 22  0 55  0.0000000  0  8G02G05G10G13G29G16G07G25
  -2549394.96947  -1953250.18446
                  21955289.7734                                   21955283.8674
                                                                        47.2504
        36.7504
 -28045212.75848 -21798664.91047
                  20669793.2734                                   20669789.1884
                                                                        52.5004
        43.2504
 -25129673.16048 -19523545.11746
                  20296200.8834                                   20296196.8244
                                                                        52.5004
        41.5004
  -4688584.06647  -3615324.95744
                  22472670.8054                                   22472666.2584
                                                                        43.2504
        28.2504
 -17969749.77048 -13949977.38346
                  22003157.0864                                   22003153.8554
                                                                        49.2504
        38.5004
  -6623545.88346  -5126931.80144
                  23430653.6334                                   23430648.5904
                                                                        41.2504
        25.5004
 -10015210.27347  -7789874.99245
                  22670464.4064                                   22670459.6914
                                                                        46.2504
        31.0004
 -17881192.70747 -13919768.52745
                  22388364.2814                                   22388360.0944
                                                                        45.0004
        31.0004
 09 10 22  0 55 30.0000000  0  8G02G05G10G13G29G16G07G25
  -2552186.69147  -1955425.60246
                  21954758.2664                                   21954752.7664
                                                                        47.5004
        36.7504
 -28179074.80948 -21902972.99247
                  20644320.3594                                   20644316.1844
                                                                        52.7504
        43.0004
 -25239909.69948 -19609443.73446
                  20275223.8364                                   20275220.0354
                                                                        53.0004
        41.0004
  -4695234.30147  -3620506.98444
                  22471404.4064                                   22471400.3834
                                                                        44.5004
        27.5004
 -18036980.19148 -14002364.73846
                  21990363.4694                                   21990360.0314
                                                                        48.7504
        38.0004
  -6717193.06646  -5199903.57843
                  23412832.8524                                   23412827.9384
                                                                        41.7504
        23.5004
 -10163263.05547  -7905240.73445
                  22642290.5474                                   22642286.1994
                                                                        46.0004
        31.2504
 -17971020.98047 -13989764.56645
                  22371270.5634                                   22371266.3954
                                                                        46.0004
        31.5004
 09 10 22  0 56  0.0000000  0  8G02G05G10G13G29G16G07G25
  -2554586.06247  -1957295.28546
                  21954302.0084                                   21954296.4144
                                                                        47.5004
        36.5004
 -28312412.80948 -22006872.80547
                  20618947.1484                                   20618942.8324
                                                                        52.5004
        43.2504
 -25349558.46148 -19694884.30546
                  20254358.2584                                   20254354.3914
                                                                        52.2504
        41.5004
  -4701461.52747  -3625359.36344
                  22470220.4304                                   22470215.6954
                                                                        43.7504
        28.2504
 -18103600.82448 -14054276.91446
                  21977685.8524                                   21977682.2074
                                                                        48.5004
        38.2504
  -6810208.68047  -5272383.23044
                  23395132.7584                                   23395128.1684
                                                                        42.5004
        26.0004
 -10310758.92647  -8020172.54745
                  22614223.0084                                   22614218.5004
                                                                        46.2504
        32.0004
 -18060243.18047 -14059288.36345
                  22354292.0394                                   22354287.8874
                                                                        47.2504
        31.7504
 09 10 22  0 56 30.0000000  0  8G02G05G10G13G29G16G07G25
  -2556597.90648  -1958863.00046
                  21953919.6094                                   21953913.2704
                                                                        49.0004
        37.2504
 -28445227.96948 -22110365.12147
                  20593673.0784                                   20593669.0594
                                                                        52.7504
        43.0004
 -25458621.69548 -19779868.58646
                  20233604.3914                                   20233600.5634
                                                                        52.5004
        41.7504
  -4707272.14847  -3629887.11744
                  22469114.4844                                   22469109.5634
                                                                        45.0004
        28.0004
 -18169614.76648 -14105716.35246
                  21965123.7034                                   21965119.7704
                                                                        49.5004
        38.0004
  -6902595.14546  -5344372.66044
                  23377551.9384                                   23377547.8094
                                                                        41.5004
        25.5004
 -10457698.73447  -8134671.07845
                  22586261.4304                                   22586256.9224
                                                                        45.7504
        32.5004
 -18148861.91047 -14128341.92645
                  22337428.5784                                   22337424.1024
                                                                        46.0004
        31.5004
 09 10 22  0 57  0.0000000  0  8G02G05G10G13G29G16G07G25
   -982804.52048   -732530.47346
                  22253402.6484                                   22253396.5944
                                                                        48.2504
        36.7504
 -27002095.16048 -20985846.10947
                  20868292.3204                                   20868288.3914
                                                                        53.0004
        43.5004
 -23991675.39848 -18636793.49646
                  20512754.8284                                   20512750.7114
                                                                        52.5004
        41.7504
  -3137248.02747  -2406491.73844
                  22767880.5234                                   22767875.6214
                                                                        44.7504
        27.5004
 -16659601.19548 -12929082.41446
                  22252469.8284                                   22252466.0354
                                                                        49.5004
        38.0004
  -5418929.58246  -4188269.60944
                  23659883.9144                                   23659879.4344
                                                                        40.5004
        26.5004
  -9028655.07047  -7021130.48445
                  22858199.5864                                   22858194.5944
                                                                        47.0004
        32.0004
 -16661454.61747 -12969323.24245
                  22620472.9384                                   22620468.4884
                                                                        46.2504
        30.7504
 09 10 22  0 57 30.0000000  0  8G02G05G10G13G29G16G07G25
   -984047.59848   -733499.10546
                  22253166.0314                                   22253160.0044
                                                                        48.7504
        36.5004
 -27133861.09048 -21088520.79347
                  20843217.9144                                   20843213.8134
                                                                        53.5004
        43.2504
 -24099566.35248 -18720864.39546
                  20492223.9144                                   20492219.9264
                                                                        52.2504
        41.2504
  -3142230.80147  -2410374.37944
                  22766931.7504                                   22766927.1414
                                                                        44.5004
        27.0004
 -16724404.80948 -12979578.74246
                  22240138.3674                                   22240134.7234
                                                                        49.5004
        38.7504
  -5510057.32847  -4259278.24644
                  23642543.0394                                   23642538.2664
                                                                        42.5004
        24.5004
  -9174475.59847  -7134756.85945
                  22830450.1094                                   22830445.7344
                                                                        46.5004
        31.5004
 -16748866.53147 -13037436.42245
                  22603838.7274                                   22603834.5474
                                                                        46.5004
        31.2504
 09 10 22  0 58  0.0000000  0  8G02G05G10G13G29G16G07G25
   -984909.58647   -734170.78946
                  22253001.5704                                   22252995.8054
                                                                        47.7504
        36.5004
 -27265101.10248 -21190785.69547
                  20818244.0084                                   20818239.6564
                                                                        53.0004
        43.5004
 -24206870.08648 -18804477.67646
                  20471804.2194                                   20471800.3754
                                                                        52.2504
        41.5004
  -3146804.78147  -2413938.50844
                  22766061.2814                                   22766057.1524
                                                                        45.2504
        28.2504
 -16788604.28948 -13029604.34446
                  22227921.6174                                   22227918.1134
                                                                        48.5004
        38.5004
  -5600555.88747  -4329796.60244
                  23625321.7274                                   23625317.0394
                                                                        42.0004
        25.2504
  -9319733.50047  -7247944.78545
                  22802808.7034                                   22802804.2274
                                                                        47.0004
        32.0004
 -16835675.26647 -13105079.55945
                  22587319.7894                                   22587315.5634
                                                                        46.2504
        32.0004
 09 10 22  0 58 30.0000000  0  8G02G05G10G13G29G16G07G25
   -985391.75447   -734546.52745
                  22252910.0234                                   22252904.2424
                                                                        47.5004
        35.5004
 -27395813.66448 -21292639.82447
                  20793370.0314                                   20793366.0514
                                                                        52.5004
        43.7504
 -24313585.92248 -18887632.74646
                  20451496.9454                                   20451493.1094
                                                                        52.7504
        41.0004
  -3150970.40247  -2417184.42644
                  22765268.7664                                   22765264.1604
                                                                        45.0004
        28.2504
 -16852200.20748 -13079159.57046
                  22215819.4774                                   22215816.0944
                                                                        48.2504
        38.2504
  -5690424.62947  -4399824.21144
                  23608220.2114                                   23608215.2234
                                                                        42.0004
        24.0004
  -9464426.26247  -7360692.38745
                  22775274.2974                                   22775269.7814
                                                                        46.2504
        32.2504
 -16921880.59447 -13172252.49245
                  22570915.1804                                   22570911.6644
                                                                        45.5004
        31.5004
 09 10 22  0 59  0.0000000  0  8G02G05G10G13G29G16G07G25
   -985495.95747   -734627.77046
                  22252890.1954                                   22252884.4804
                                                                        47.0004
        37.0004
 -27525996.37948 -21394080.89547
                  20768597.0944                                   20768592.6604
                                                                        52.5004
        43.2504
 -24419713.57448 -18970329.73046
                  20431301.7034                                   20431297.7664
                                                                        52.5004
        41.5004
  -3154730.78947  -2420114.62144
                  22764552.6484                                   22764548.4614
                                                                        43.0004
        27.2504
 -16915193.15247 -13128244.94946
                  22203832.2114                                   22203828.7664
                                                                        47.2504
        38.2504
  -5779662.93047  -4469360.53144
                  23591239.3524                                   23591234.1844
                                                                        42.0004
        25.7504
  -9608551.15247  -7472997.46945
                  22747849.2344                                   22747843.9414
                                                                        46.2504
        31.7504
 -17007481.85947 -13238954.75445
                  22554625.5704                                   22554621.8244
                                                                        46.2504
        31.0004
 09 10 22  0 59 30.0000000  0  8G02G05G10G13G29G16G07G25
   -985223.96948   -734415.82846
                  22252941.8834                                   22252935.9064
                                                                        48.7504
        36.2504
 -27655648.28948 -21495108.34047
                  20743925.2504                                   20743921.4534
                                                                        52.5004
        43.5004
 -24525251.65648 -19052567.19946
                  20411218.6884                                   20411214.3324
                                                                        52.2504
        41.5004
  -3158087.68047  -2422730.37944
                  22763914.3834                                   22763909.7464
                                                                        44.5004
        27.2504
 -16977583.27047 -13176860.57446
                  22191959.6804                                   22191956.4414
                                                                        47.7504
        38.0004
  -5868270.87547  -4538405.67644
                  23574377.0394                                   23574372.7504
                                                                        42.2504
        26.5004
  -9752106.31247  -7584858.65645
                  22720531.0394                                   22720525.8324
                                                                        46.5004
        32.5004
 -17092479.55947 -13305186.71945
                  22538451.8444                                   22538447.2934
                                                                        46.5004
        31.0004
 09 10 22  1  0  0.0000000  0  8G02G05G10G13G29G16G07G25
   -984576.20348   -733911.11346
                  22253064.7274                                   22253059.3794
                                                                        48.0004
        36.5004
 -27784767.07848 -21595720.34447
                  20719354.4924                                   20719350.6024
                                                                        52.7504
        43.5004
 -24630199.03548 -19134344.43046
                  20391247.7194                                   20391243.8714
                                                                        52.2504
        41.2504
  -3161041.98447  -2425032.42244
                  22763351.5474                                   22763346.8524
                                                                        43.5004
        25.0004
 -17039371.05948 -13225006.89546
                  22180202.0944                                   22180199.0824
                                                                        48.2504
        38.2504
  -5956247.18046  -4606958.61344
                  23557636.0084                                   23557631.0434
                                                                        40.5004
        24.2504
  -9895087.37147  -7696272.42245
                  22693322.1484                                   22693317.9104
                                                                        46.0004
        31.7504
 -17176871.71547 -13370946.85545
                  22522392.0634                                   22522387.8794
                                                                        45.5004
        31.5004
 09 10 22  1  0 30.0000000  0  8G02G05G10G13G29G16G07G25
   -983557.39148   -733117.23045
                  22253259.3204                                   22253253.2154
                                                                        48.0004
        35.5004
 -27913353.50048 -21695917.54747
                  20694885.5634                                   20694881.4064
                                                                        52.5004
        43.7504
 -24734556.92248 -19215662.30146
                  20371388.9924                                   20371385.2034
                                                                        52.0004
        41.2504
  -3163599.14847  -2427025.00844
                  22762865.3754                                   22762860.0354
                                                                        43.5004
        25.5004
 -17100558.93748 -13272685.76646
                  22168558.3204                                   22168554.7114
                                                                        48.5004
        38.5004
  -6043593.83247  -4675020.91444
                  23541014.6094                                   23541009.5164
                                                                        42.0004
        25.2504
 -10037495.48047  -7807239.77045
                  22666222.7664                                   22666218.1604
                                                                        45.7504
        31.7504
 -17260661.19147 -13436237.34845
                  22506447.5784                                   22506443.0824
                                                                        46.2504
        31.2504
 09 10 22  1  1  0.0000000  0  8G02G05G10G13G29G16G07G25
   -982167.34047   -732034.09045
                  22253523.7584                                   22253517.9804
                                                                        47.7504
        35.5004
 -28041405.26648 -21795698.15647
                  20670518.3754                                   20670514.0164
                                                                        53.0004
        43.2504
 -24838323.50048 -19296519.33646
                  20351643.0164                                   20351639.0234
                                                                        52.7504
        41.0004
  -3165759.39547  -2428708.30144
                  22762454.4454                                   22762449.8014
                                                                        43.7504
        26.5004
 -17161146.47348 -13319896.80946
                  22157029.1804                                   22157025.1804
                                                                        49.0004
        38.5004
  -6130309.25446  -4742591.31644
                  23524513.0474                                   23524507.9494
                                                                        41.5004
        25.0004
 -10179325.91447  -7917756.94945
                  22639233.5394                                   22639228.8794
                                                                        46.5004
        32.0004
 -17343846.17647 -13501056.79345
                  22490617.4844                                   22490613.4804
                                                                        46.5004
        30.0004
 09 10 22  1  1 30.0000000  0  8G02G05G10G13G29G16G07G25
   -980409.93747   -730664.69946
                  22253857.8204                                   22253852.2344
                                                                        46.2504
        36.0004
 -28168921.84048 -21895061.62547
                  20646252.3524                                   20646248.3524
                                                                        52.2504
        43.2504
 -24941499.53148 -19376916.24646
                  20332009.3674                                   20332005.2934
                                                                        52.5004
        41.5004
  -3167526.84447  -2430085.49644
                  22762118.2504                                   22762114.0164
                                                                        44.5004
        28.2504
 -17221135.55548 -13366641.53546
                  22145613.5704                                   22145609.7234
                                                                        48.5004
        38.5004
  -6216394.92247  -4809671.02344
                  23508131.7274                                   23508126.5904
                                                                        42.0004
        24.7504
 -10320578.60947  -8027823.96945
                  22612353.9694                                   22612349.4414
                                                                        47.0004
        32.2504
 -17426428.57047 -13565406.67645
                  22474902.8524                                   22474898.8444
                                                                        46.2504
        30.5004
 09 10 22  1  2  0.0000000  0  8G02G05G10G13G29G16G07G25
   -978286.77347   -729010.30546
                  22254262.2814                                   22254256.3014
                                                                        47.0004
        36.0004
 -28295901.94148 -21994007.18047
                  20622089.0864                                   20622084.9844
                                                                        52.2504
        42.7504
 -25044083.59448 -19456851.85246
                  20312488.1254                                   20312484.2234
                                                                        52.5004
        41.0004
  -3168902.87947  -2431157.71144
                  22761855.9534                                   22761852.0824
                                                                        43.2504
        27.7504
 -17280526.33247 -13412920.09446
                  22134311.7734                                   22134308.4734
                                                                        47.7504
        38.5004
  -6301849.82447  -4876259.23044
                  23491869.6174                                   23491865.5664
                                                                        42.0004
        25.7504
 -10461250.79747  -8137438.61745
                  22585585.2194                                   22585580.4454
                                                                        46.5004
        32.7504
 -17508407.72347 -13629286.53545
                  22459302.6884                                   22459298.6134
                                                                        46.7504
        31.0004
 09 10 22  1  2 30.0000000  0  8G02G05G10G13G29G16G07G25
   -975800.05547   -727072.61346
                  22254735.3204                                   22254729.6954
                                                                        47.2504
        36.0004
 -28422345.24248 -22092534.39847
                  20598027.7584                                   20598023.5554
                                                                        52.0004
        43.2504
 -25146076.73448 -19536326.89546
                  20293079.4534                                   20293075.6454
                                                                        52.2504
        41.7504
  -3169890.68747  -2431927.43044
                  22761668.4534                                   22761663.7704
                                                                        43.0004
        27.0004
 -17339321.73848 -13458734.69146
                  22123123.2734                                   22123119.8674
                                                                        49.0004
        38.0004
  -6386675.80947  -4942357.35244
                  23475728.0864                                   23475723.2344
                                                                        42.7504
        26.0004
 -10601340.91847  -8246599.73845
                  22558926.5554                                   22558922.0984
                                                                        47.5004
        32.5004
 -17589784.32047 -13692696.82445
                  22443817.3754                                   22443813.1294
                                                                        47.2504
        30.7504
 09 10 22  1  3  0.0000000  0  8G02G05G10G13G29G16G07G25
   -972950.40648   -724852.10245
                  22255277.5864                                   22255271.4344
                                                                        48.0004
        35.0004
 -28548248.70348 -22190640.89847
                  20574068.7974                                   20574064.6914
                                                                        51.2504
        43.5004
 -25247477.26648 -19615340.23446
                  20273783.5084                                   20273779.5204
                                                                        52.0004
        41.7504
  -3170492.11747  -2432396.09044
                  22761553.9844                                   22761549.3244
                                                                        44.0004
        26.5004
 -17397519.93048 -13504083.89546
                  22112048.7114                                   22112045.0634
                                                                        48.0004
        37.2504
  -6470871.12547  -5007964.06644
                  23459706.1024                                   23459701.4224
                                                                        42.5004
        25.2504
 -10740845.82447  -8355304.79745
                  22532380.0314                                   22532375.0744
                                                                        46.7504
        31.5004
 -17670557.65247 -13755637.07845
                  22428446.7194                                   22428442.8164
                                                                        46.0004
        31.2504
 09 10 22  1  3 30.0000000  0  8G02G05G10G13G29G16G07G25
   -969743.05947   -722352.83645
                  22255887.9844                                   22255881.9494
                                                                        47.7504
        34.5004
 -28673614.79748 -22288328.81647
                  20550212.5634                                   20550208.2734
                                                                        52.0004
        43.7504
 -25348287.63348 -19693893.73447
                  20254599.7344                                   20254595.9024
                                                                        52.5004
        42.2504
  -3170711.99647  -2432567.44544
                  22761511.3914                                   22761507.4694
                                                                        43.2504
        26.2504
 -17455125.43448 -13548971.24246
                  22101086.6484                                   22101082.8754
                                                                        48.0004
        38.0004
  -6554438.81647  -5073081.69144
                  23443803.4384                                   23443798.3164
                                                                        42.7504
        25.5004
 -10879766.62947  -8463554.77045
                  22505944.3834                                   22505939.5274
                                                                        46.7504
        32.2504
 -17750730.73847 -13818109.62145
                  22413189.9774                                   22413185.8094
                                                                        46.5004
        30.0004
 09 10 22  1  4  0.0000000  0  8G02G05G10G13G29G16G07G25
   -966176.81648   -719573.90245
                  22256566.5234                                   22256560.6484
                                                                        48.0004
        34.7504
 -28798438.68048 -22385594.08247
                  20526459.0864                                   20526454.9064
                                                                        51.7504
        43.2504
 -25448503.98448 -19771984.35546
                  20235529.2974                                   20235525.1524
                                                                        52.5004
        41.5004
  -3170549.02047  -2432440.38344
                  22761542.6094                                   22761537.7304
                                                                        43.7504
        24.5004
 -17512136.19948 -13593395.18446
                  22090237.4694                                   22090234.0234
                                                                        49.5004
        37.7504
  -6637375.47346  -5137707.60544
                  23428020.9304                                   23428016.4304
                                                                        41.5004
        25.5004
 -11018097.27347  -8571344.83645
                  22479620.8834                                   22479616.0984
                                                                        46.2504
        32.0004
 -17830300.18447 -13880111.77045
                  22398048.8134                                   22398044.3674
                                                                        46.5004
        31.5004
 09 10 22  1  4 30.0000000  0  8G02G05G10G13G29G16G07G25
   -962255.02347   -716517.92245
                  22257313.0634                                   22257306.7344
                                                                        47.7504
        35.2504
 -28922721.08248 -22482437.58647
                  20502809.2814                                   20502804.9454
                                                                        52.0004
        43.5004
 -25548127.33248 -19849612.93746
                  20216571.3754                                   20216567.3524
                                                                        52.7504
        41.2504
  -3170007.51646  -2432018.38344
                  22761646.1484                                   22761641.3554
                                                                        41.5004
        26.5004
 -17568554.32448 -13637357.36346
                  22079501.7424                                   22079497.9804
                                                                        49.5004
        37.7504
  -6719682.68746  -5201843.02344
                  23412358.7114                                   23412353.8404
                                                                        41.0004
        26.0004
 -11155837.78947  -8678675.07445
                  22453409.4694                                   22453404.8444
                                                                        46.7504
        33.2504
 -17909268.25847 -13941645.31245
                  22383021.3984                                   22383016.7274
                                                                        46.5004
        31.0004
 09 10 22  1  5  0.0000000  0  8G02G05G10G13G29G16G07G25
   -957981.52347   -713187.90645
                  22258126.1334                                   22258120.2304
                                                                        47.0004
        35.0004
 -29046462.58248 -22578859.57047
                  20479262.1334                                   20479257.6454
                                                                        53.0004
        43.5004
 -25647159.70348 -19926781.00046
                  20197726.2974                                   20197722.4344
                                                                        52.5004
        41.5004
  -3169091.69146  -2431304.69944
                  22761820.1724                                   22761815.1564
                                                                        41.2504
        25.0004
 -17624383.02748 -13680860.23846
                  22068877.8134                                   22068874.1094
                                                                        49.2504
        38.0004
  -6801363.16447  -5265490.09444
                  23396815.9534                                   23396810.7114
                                                                        42.2504
        26.0004
 -11292988.17647  -8785545.47345
                  22427310.8444                                   22427306.0664
                                                                        46.0004
        33.0004
 -17987636.77047 -14002711.66845
                  22368108.3674                                   22368103.9184
                                                                        46.5004
        30.5004
 09 10 22  1  5 30.0000000  0  8G02G05G10G13G29G16G07G25
    622064.30947    518016.62545
                  22558798.8364                                   22558793.0984
                                                                        47.5004
        35.2504
 -27594235.28948 -21447253.86347
                  20755611.5314                                   20755607.3134
                                                                        51.7504
        43.5004
 -24170174.35948 -18775883.35246
                  20478787.5164                                   20478783.1094
                                                                        53.0004
        41.5004
  -1592381.09047  -1202698.96144
                  23061858.1484                                   23061853.7774
                                                                        44.0004
        27.2504
 -16104198.78948 -12496301.08246
                  22358158.9384                                   22358155.4964
                                                                        49.5004
        37.5004
  -5306991.49247  -4101044.64844
                  23681184.1484                                   23681179.9534
                                                                        42.0004
        24.5004
  -9854118.96547  -7664348.67245
                  22701118.1024                                   22701113.4144
                                                                        45.7504
        32.5004
 -16489980.50047 -12835706.72745
                  22653102.8754                                   22653098.9414
                                                                        46.0004
        30.7504
 09 10 22  1  6  0.0000000  0  8G02G05G10G13G29G16G07G25
    627038.27048    521892.44945
                  22559745.1174                                   22559739.3014
                                                                        48.0004
        35.2504
 -27716888.52748 -21542827.81247
                  20732271.4694                                   20732267.5594
                                                                        52.5004
        43.0004
 -24268019.98848 -18852126.71147
                  20460167.9694                                   20460163.8524
                                                                        52.7504
        42.0004
  -1590720.60947  -1201405.05544
                  23062173.5554                                   23062169.4924
                                                                        42.5004
        26.5004
 -16158848.79348 -12538885.55946
                  22347759.6334                                   22347756.6094
                                                                        49.5004
        37.7504
  -5387415.35546  -4163712.61344
                  23665880.9064                                   23665875.9844
                                                                        41.0004
        24.7504
  -9990079.82047  -7770292.15645
                  22675245.1484                                   22675241.5864
                                                                        45.0004
        33.0004
 -16567147.75447 -12895837.03145
                  22638418.0784                                   22638414.3364
                                                                        45.7504
        31.5004
 09 10 22  1  6 30.0000000  0  8G02G05G10G13G29G16G07G25
    632356.85947    526036.79345
                  22560756.9614                                   22560751.6684
                                                                        47.5004
        34.7504
 -27838998.35948 -21637978.32447
                  20709034.8204                                   20709030.6094
                                                                        52.5004
        43.5004
 -24365274.25448 -18927909.27346
                  20441661.3284                                   20441657.3444
                                                                        52.5004
        41.5004
  -1588694.16447  -1199825.96544
                  23062559.8204                                   23062555.3204
                                                                        44.0004
        26.0004
 -16212913.12148 -12581013.67646
                  22337471.5944                                   22337468.4264
                                                                        49.0004
        38.2504
  -5467213.91447  -4225893.35244
                  23650695.5554                                   23650690.9264
                                                                        42.5004
        25.5004
 -10125445.37547  -7875771.80145
                  22649486.5864                                   22649482.2464
                                                                        46.7504
        32.5004
 -16643717.35947 -12955501.62945
                  22623847.5164                                   22623843.7234
                                                                        46.0004
        31.0004
 09 10 22  1  7  0.0000000  0  8G02G05G10G13G29G16G07G25
    638017.21147    530447.45345
                  22561834.4614                                   22561829.0004
                                                                        47.5004
        34.7504
 -27960564.52348 -21732705.14847
                  20685901.2034                                   20685897.1484
                                                                        51.5004
        43.5004
 -24461937.62948 -19003231.32047
                  20423266.5084                                   20423262.9224
                                                                        52.0004
        42.0004
  -1586304.56647  -1197963.94144
                  23063014.5554                                   23063010.3484
                                                                        43.5004
        26.5004
 -16266393.85248 -12622687.02746
                  22327295.1174                                   22327291.1844
                                                                        49.2504
        38.5004
  -5546387.99247  -4287587.43044
                  23635629.5394                                   23635624.2774
                                                                        42.7504
        24.2504
 -10260214.23047  -7980786.45345
                  22623840.8674                                   22623835.9694
                                                                        47.2504
        33.2504
 -16719690.43047 -13014701.41445
                  22609390.4144                                   22609385.8524
                                                                        46.0004
        31.0004
 09 10 22  1  7 30.0000000  0  9G02G21G05G10G13G29G16G07G25
    644017.18847    535122.77345
                  22562976.5164                                   22562970.4534
                                                                        46.5004
        35.0004
  12272793.26656   9616017.94553
                  24860873.0634                                   24860869.4654
                                                                        39.7504
        23.0004
 -28081586.12948 -21827007.54747
                  20662871.5004                                   20662867.0984
                                                                        52.0004
        43.5004
 -24558010.09448 -19078092.94546
                  20404984.5864                                   20404980.5704
                                                                        52.2504
        41.7504
  -1583554.61747  -1195821.11744
                  23063537.4844                                   23063533.2584
                                                                        43.5004
        25.2504
 -16319291.89848 -12663906.27746
                  22317228.6884                                   22317224.9884
                                                                        48.7504
        37.5004
  -5624937.69947  -4348795.01644
                  23620681.6564                                   23620676.3984
                                                                        42.0004
        24.7504
 -10394385.18047  -8085335.21145
                  22598309.2114                                   22598304.2624
                                                                        47.2504
        33.0004
 -16795067.54347 -13073436.80145
                  22595046.6094                                   22595042.2464
                                                                        46.2504
        30.5004
 09 10 22  1  8  0.0000000  0  9G02G21G05G10G13G29G16G07G25
    650349.41847    540057.03545
                  22564181.4064                                   22564175.5514
                                                                        46.0004
        34.0004
  12073735.57446   9460908.14143
                  24822993.7504                                   24822990.1884
                                                                        38.5004
        23.2504
 -28202067.61348 -21920888.99647
                  20639944.8284                                   20639940.1294
                                                                        51.7504
        43.5004
 -24653496.74648 -19152498.10946
                  20386814.0004                                   20386810.0234
                                                                        52.5004
        41.2504
  -1580452.14146  -1193403.59043
                  23064127.7974                                   23064122.9384
                                                                        40.5004
        22.7504
 -16371614.70348 -12704677.32846
                  22307271.8204                                   22307268.4064
                                                                        48.7504
        38.0004
  -5702869.41847  -4409521.04744
                  23605851.4224                                   23605847.2194
                                                                        42.7504
        24.7504
 -10527961.44147  -8189420.58245
                  22572890.4534                                   22572885.3594
                                                                        46.5004
        33.5004
 -16869854.48047 -13131712.33645
                  22580815.2664                                   22580810.9574
                                                                        45.7504
        31.0004
 09 10 22  1  8 30.0000000  0  9G02G21G05G10G13G29G16G07G25
    657007.86747    545245.46945
                  22565448.4224                                   22565442.2584
                                                                        45.7504
        33.5004
  11874802.30546   9305895.32843
                  24785137.3914                                   24785133.9694
                                                                        38.7504
        22.2504
 -28322012.72748 -22014352.61747
                  20617119.7194                                   20617115.7854
                                                                        52.2504
        43.5004
 -24748401.90248 -19226450.15646
                  20368754.4454                                   20368749.9884
                                                                        52.5004
        41.5004
  -1577003.70747  -1190716.45743
                  23064784.2114                                   23064779.6954
                                                                        42.7504
        22.5004
 -16423367.14848 -12745003.82846
                  22297423.6804                                   22297419.9344
                                                                        48.7504
        38.5004
  -5780187.77747  -4469769.14844
                  23591138.5234                                   23591133.7074
                                                                        42.5004
        25.7504
 -10660945.23847  -8293044.26645
                  22547584.1484                                   22547579.4614
                                                                        46.5004
        33.0004
 -16944055.71947 -13189531.43045
                  22566695.2034                                   22566690.9924
                                                                        46.5004
        31.0004
 09 10 22  1  9  0.0000000  0  9G02G21G05G10G13G29G16G07G25
    663991.48447    550687.28145
                  22566777.1644                                   22566771.0984
                                                                        47.0004
        33.5004
  11675998.80146   9150983.66843
                  24747306.5634                                   24747302.2624
                                                                        39.7504
        21.5004
 -28441418.34448 -22107395.96147
                  20594397.4844                                   20594393.3754
                                                                        51.7504
        43.2504
 -24842723.40248 -19299947.37946
                  20350805.2504                                   20350801.5004
                                                                        52.0004
        41.7504
  -1573210.19147  -1187760.42644
                  23065506.2344                                   23065501.4694
                                                                        42.5004
        25.7504
 -16474548.34448 -12784885.18446
                  22287684.2194                                   22287680.6374
                                                                        49.0004
        38.0004
  -5856890.89547  -4529537.83243
                  23576543.0234                                   23576537.6764
                                                                        43.5004
        22.5004
 -10793333.78947  -8396204.10245
                  22522391.4774                                   22522386.9184
                                                                        47.2504
        33.0004
 -17017670.55947 -13246893.62945
                  22552687.1094                                   22552682.4104
                                                                        46.2504
        31.2504
 09 10 22  1  9 30.0000000  0  9G02G21G05G10G13G29G16G07G25
    671303.38747    556384.87545
                  22568168.2894                                   22568162.4144
                                                                        46.0004
        34.0004
  11477330.20746   8996177.09043
                  24709500.3914                                   24709497.0434
                                                                        39.0004
        21.2504
 -28560279.08248 -22200014.67647
                  20571779.2274                                   20571774.6414
                                                                        51.2504
        43.2504
 -24936456.64848 -19372986.27346
                  20332968.4534                                   20332964.3714
                                                                        52.0004
        41.7504
  -1569069.48447  -1184533.88344
                  23066294.0864                                   23066289.4774
                                                                        43.7504
        25.2504
 -16525156.05148 -12824319.75446
                  22278053.6644                                   22278050.5124
                                                                        49.0004
        38.0004
  -5932975.84047  -4588824.80544
                  23562063.6024                                   23562059.2774
                                                                        43.5004
        25.5004
 -10925120.35247  -8498894.91045
                  22497313.3914                                   22497308.6604
                                                                        47.5004
        33.0004
 -17090694.52747 -13303795.37145
                  22538790.4694                                   22538786.4144
                                                                        46.0004
        30.2504
 09 10 22  1 10  0.0000000  0  9G02G21G05G10G13G29G16G07G25
    678945.21547    562339.55945
                  22569622.8674                                   22569616.9344
                                                                        46.2504
        34.5004
  11278803.95346   8841481.42243
                  24671722.8984                                   24671718.2814
                                                                        40.2504
        21.5004
 -28678589.59048 -22292204.61747
                  20549265.4774                                   20549260.8094
                                                                        52.0004
        43.5004
 -25029597.24248 -19445563.32846
                  20315244.0864                                   20315240.4694
                                                                        51.7504
        41.2504
  -1564579.68747  -1181035.35944
                  23067148.7894                                   23067144.0864
                                                                        42.2504
        24.5004
 -16575186.50448 -12863304.36746
                  22268533.3364                                   22268529.4924
                                                                        49.0004
        38.0004
  -6008437.21947  -4647625.87544
                  23547704.2424                                   23547699.4774
                                                                        43.0004
        24.5004
 -11056299.21547  -8601112.16445
                  22472350.6644                                   22472345.6994
                                                                        47.5004
        33.5004
 -17163123.87947 -13360233.81645
                  22525007.6884                                   22525003.3634
                                                                        46.0004
        30.7504
 09 10 22  1 10 30.0000000  0  9G02G21G05G10G13G29G16G07G25
    686917.00847    568551.35545
                  22571139.4774                                   22571133.6804
                                                                        46.2504
        33.5004
  11080424.40247   8686899.96943
                  24633972.9384                                   24633967.6054
                                                                        42.5004
        22.2504
 -28796346.93748 -22383963.53947
                  20526856.7814                                   20526852.2234
                                                                        51.7504
        43.5004
 -25122143.39148 -19517677.16446
                  20297633.3834                                   20297629.5634
                                                                        51.2504
        41.0004
  -1559741.48047  -1177265.34444
                  23068069.0784                                   23068064.4534
                                                                        42.0004
        25.7504
 -16624639.28148 -12901838.97746
                  22259122.6564                                   22259119.2774
                                                                        48.7504
        37.7504
  -6083274.18046  -4705940.40644
                  23533463.0554                                   23533458.2384
                                                                        41.0004
        24.7504
 -11186866.33247  -8702852.75845
                  22447504.6564                                   22447499.5314
                                                                        46.7504
        32.7504
 -17234957.48847 -13416208.03945
                  22511338.0084                                   22511334.0044
                                                                        44.7504
        30.5004
 09 10 22  1 11  0.0000000  0  9G02G21G05G10G13G29G16G07G25
    695213.98047    575016.53945
                  22572718.4384                                   22572712.9924
                                                                        46.0004
        33.5004
  10882190.70747   8532432.14143
                  24596250.6724                                   24596244.7544
                                                                        45.0004
        22.2504
 -28913553.24248 -22475293.09047
                  20504553.0704                                   20504548.8554
                                                                        52.0004
        43.5004
 -25214097.03148 -19589329.32046
                  20280135.0634                                   20280131.3054
                                                                        52.2504
        41.5004
  -1554559.64546  -1173227.57844
                  23069055.3674                                   23069050.2934
                                                                        40.7504
        24.5004
 -16673518.31248 -12939926.45746
                  22249821.0784                                   22249817.8634
                                                                        49.2504
        38.0004
  -6157490.33647  -4763771.16844
                  23519339.9304                                   23519335.7274
                                                                        42.7504
        24.5004
 -11316822.44547  -8804117.23045
                  22422775.0164                                   22422770.3954
                                                                        47.0004
        33.5004
 -17306198.21947 -13471720.26245
                  22497781.4534                                   22497777.4064
                                                                        46.0004
        31.7504
 09 10 22  1 11 30.0000000  0  9G02G21G05G10G13G29G16G07G25
    703835.57447    581734.67245
                  22574358.8674                                   22574353.2544
                                                                        47.0004
        34.0004
  10684106.53947   8378080.86343
                  24558556.3594                                   24558550.9924
                                                                        45.0004
        22.7504
 -29030206.54748 -22566191.77347
                  20482354.6564                                   20482350.5474
                                                                        52.0004
        43.5004
 -25305457.52348 -19660519.30546
                  20262749.8914                                   20262745.7424
                                                                        52.5004
        41.5004
  -1549035.43447  -1168923.00444
                  23070106.2344                                   23070102.4494
                                                                        43.0004
        25.0004
 -16721824.08248 -12977567.21946
                  22240629.0234                                   22240625.6484
                                                                        49.5004
        37.5004
  -6231084.84847  -4821117.48044
                  23505335.4064                                   23505331.0744
                                                                        42.7504
        25.5004
 -11446164.94947  -8904903.55145
                  22398162.1724                                   22398157.2774
                                                                        47.5004
        33.5004
 -17376845.57847 -13526770.12145
                  22484337.9614                                   22484333.3594
                                                                        46.2504
        31.0004
 09 10 22  1 12  0.0000000  0  9G02G21G05G10G13G29G16G07G25
    712779.39547    588703.87945
                  22576060.8444                                   22576055.3324
                                                                        46.2504
        34.5004
  10486175.98847   8223849.31343
                  24520890.6804                                   24520885.3954
                                                                        42.5004
        21.7504
 -29146305.06648 -22656658.14847
                  20460262.1884                                   20460257.5234
                                                                        51.7504
        43.7504
 -25396224.50048 -19731246.83246
                  20245477.6564                                   20245473.5124
                                                                        52.5004
        41.7504
  -1543171.52047  -1164353.71944
                  23071222.3524                                   23071217.9884
                                                                        42.2504
        25.7504
 -16769556.48848 -13014761.30546
                  22231545.5004                                   22231541.7544
                                                                        48.7504
        37.0004
  -6304057.32047  -4877979.16044
                  23491448.9774                                   23491445.1644
                                                                        42.5004
        25.7504
 -11574892.69147  -9005210.87145
                  22373665.8444                                   22373660.4184
                                                                        46.5004
        33.0004
 -17446900.22347 -13581358.16045
                  22471007.0944                                   22471002.9064
                                                                        45.7504
        32.0004
 09 10 22  1 12 30.0000000  0  9G02G21G05G10G13G29G16G07G25
    722041.57047    595921.15645
                  22577823.5944                                   22577817.5204
                                                                        46.5004
        33.7504
  10288396.43846   8069735.51643
                  24483253.2584                                   24483249.4344
                                                                        39.7504
        21.0004
 -29261850.89148 -22746693.80947
                  20438274.5394                                   20438270.2114
                                                                        52.0004
        44.0004
 -25486400.12548 -19801513.52046
                  20228317.6414                                   20228313.5354
                                                                        52.2504
        41.2504
  -1536972.44547  -1159523.26644
                  23072401.6724                                   23072397.2544
                                                                        42.5004
        25.2504
 -16816720.83648 -13051512.69146
                  22222570.3674                                   22222567.0594
                                                                        49.0004
        38.0004
  -6376411.82447  -4934359.29344
                  23477680.9064                                   23477676.3834
                                                                        43.2504
        25.2504
 -11703005.57047  -9105039.10245
                  22349286.5234                                   22349281.4924
                                                                        46.0004
        32.7504
 -17516364.80147 -13635486.44145
                  22457788.4694                                   22457784.3834
                                                                        46.5004
        32.0004
 09 10 22  1 13  0.0000000  0  9G02G21G05G10G13G29G16G07G25
    731620.55947    603385.32045
                  22579646.4224                                   22579640.5824
                                                                        47.0004
        34.0004
  10090773.21546   7915743.65643
                  24445647.5004                                   24445643.4024
                                                                        38.5004
        21.2504
 -29376841.88748 -22836297.16047
                  20416392.3364                                   20416387.8094
                                                                        52.2504
        44.0004
 -25575983.35548 -19871318.61746
                  20211270.4924                                   20211266.7734
                                                                        52.0004
        41.5004
  -1530439.49247  -1154432.63743
                  23073644.9064                                   23073640.4304
                                                                        43.0004
        22.5004
 -16863316.59848 -13087821.05946
                  22213703.6094                                   22213700.3284
                                                                        48.5004
        37.5004
  -6448147.21147  -4990257.00044
                  23464030.1334                                   23464025.2584
                                                                        43.0004
        24.2504
 -11830501.18447  -9204386.35545
                  22325024.9144                                   22325020.0084
                                                                        47.5004
        33.2504
 -17585238.89147 -13689154.51245
                  22444682.0084                                   22444678.2814
                                                                        46.5004
        31.2504
 09 10 22  1 13 30.0000000  0  9G02G21G05G10G13G29G16G07G25
    741515.44947    611095.64545
                  22581529.1414                                   22581523.3134
                                                                        46.7504
        32.5004
   9893308.57846   7761875.28543
                  24408070.8284                                   24408067.0004
                                                                        39.2504
        22.5004
 -29491276.47348 -22925466.96147
                  20394616.1564                                   20394611.8954
                                                                        52.0004
        43.7504
 -25664972.77748 -19940661.01246
                  20194336.4774                                   20194332.3364
                                                                        52.0004
        41.5004
  -1523573.94947  -1149082.86743
                  23074951.7034                                   23074946.4534
                                                                        42.7504
        22.2504
 -16909344.61748 -13123687.03146
                  22204944.9224                                   22204941.5084
                                                                        50.0004
        37.0004
  -6519263.98447  -5045672.65644
                  23450497.1884                                   23450492.2504
                                                                        44.5004
        24.5004
 -11957376.78147  -9303250.44545
                  22300881.4224                                   22300876.7664
                                                                        46.0004
        32.7504
 -17653522.44947 -13742362.52045
                  22431688.1564                                   22431684.3244
                                                                        46.5004
        30.0004
 09 10 22  1 14  0.0000000  0  9G02G21G05G10G13G29G16G07G25
   2327142.97747   1846649.55545
                  22883264.3754                                   22883258.2304
                                                                        46.2504
        32.2504
  11271430.70746   8835736.83744
                  24670319.1884                                   24670314.8164
                                                                        39.5004
        25.0004
 -28029730.65648 -21786600.07047
                  20672739.0164                                   20672734.7074
                                                                        51.2504
        44.0004
 -24177946.82048 -18781939.48846
                  20477307.8524                                   20477304.1804
                                                                        52.0004
        41.5004
     59040.54347     84123.27343
                  23376112.7974                                   23376108.4494
                                                                        43.5004
        22.5004
 -15379385.29348 -11931510.86346
                  22496086.3984                                   22496082.8634
                                                                        48.5004
        37.5004
  -5014340.24647  -3873004.82044
                  23736874.5314                                   23736869.6414
                                                                        44.2504
        25.0004
 -10508207.45747  -8174027.55945
                  22576649.2344                                   22576644.7194
                                                                        47.2504
        33.0004
 -16145794.36747 -12567509.46545
                  22718598.9924                                   22718594.7934
                                                                        47.2504
        30.0004
 09 10 22  1 14 30.0000000  0  9G02G21G05G10G13G29G16G07G25
   2337664.34847   1854848.05145
                  22885266.0784                                   22885260.4264
                                                                        46.7504
        33.2504
  11074292.40646   8682122.71944
                  24632805.0474                                   24632800.3484
                                                                        41.0004
        24.2504
 -28143047.76648 -21874899.10547
                  20651175.2504                                   20651171.3524
                                                                        51.7504
        43.5004
 -24265748.19148 -18850356.13747
                  20460600.0784                                   20460596.0864
                                                                        51.5004
        42.0004
     66564.39847     89986.05143
                  23377544.2584                                   23377540.0164
                                                                        42.7504
        23.7504
 -15424279.69948 -11966493.47346
                  22487543.0554                                   22487539.2974
                                                                        48.5004
        37.2504
  -5084218.52747  -3927455.45744
                  23723577.1644                                   23723572.5234
                                                                        44.0004
        26.0004
 -10633837.68048  -8271921.25045
                  22552742.1254                                   22552737.8164
                                                                        48.0004
        33.2504
 -16212897.40247 -12619797.54745
                  22705829.7734                                   22705825.8404
                                                                        46.2504
        30.5004
 09 10 22  1 15  0.0000000  0  9G02G21G05G10G13G29G16G07G25
   2348494.84047   1863287.41045
                  22887327.5084                                   22887321.8324
                                                                        46.5004
        34.0004
  10877318.93847   8528636.98444
                  24595322.1804                                   24595317.4924
                                                                        42.2504
        26.2504
 -28255806.60248 -21962763.12147
                  20629718.3444                                   20629713.9454
                                                                        51.5004
        44.0004
 -24352956.50848 -18918310.66846
                  20444004.4924                                   20444000.3794
                                                                        52.5004
        41.5004
     74413.25447     96102.03943
                  23379038.3204                                   23379033.3484
                                                                        43.5004
        23.0004
 -15468611.17248 -12001037.42646
                  22479106.9774                                   22479103.2544
                                                                        48.2504
        37.5004
  -5153480.46947  -3981425.77744
                  23710397.1254                                   23710391.9454
                                                                        43.0004
        26.0004
 -10758843.34047  -8369328.25845
                  22528954.9454                                   22528949.7154
                                                                        47.7504
        32.7504
 -16279411.96547 -12671627.02044
                  22693172.3134                                   22693167.7854
                                                                        44.2504
        29.7504
 09 10 22  1 15 30.0000000  0  9G02G21G05G10G13G29G16G07G25
   2359632.30947   1871965.94545
                  22889447.0004                                   22889441.1644
                                                                        46.2504
        33.5004
  10680514.02746   8375282.57044
                  24557871.3984                                   24557866.0354
                                                                        41.2504
        25.2504
 -28368006.07048 -22050191.25447
                  20608367.1884                                   20608363.0704
                                                                        51.0004
        43.7504
 -24439571.50448 -18985802.85546
                  20427522.3984                                   20427518.6884
                                                                        51.7504
        41.2504
     82584.16047    102468.99244
                  23380593.4384                                   23380588.4774
                                                                        43.2504
        24.7504
 -15512380.51648 -12035143.38346
                  22470778.2894                                   22470774.0784
                                                                        49.0004
        37.0004
  -5222125.87947  -4034915.69144
                  23697334.1804                                   23697329.5784
                                                                        44.5004
        25.5004
 -10883223.54747  -8466247.93045
                  22505285.8524                                   22505281.5164
                                                                        47.0004
        33.0004
 -16345339.15647 -12722998.83244
                  22680626.4304                                   22680622.7464
                                                                        45.5004
        29.5004
 09 10 22  1 16  0.0000000  0  9G02G21G05G10G13G29G16G07G25
   2371073.11747   1880880.82045
                  22891623.5864                                   22891618.3594
                                                                        45.0004
        32.5004
  10483878.23046   8222059.92643
                  24520452.6254                                   24520447.5044
                                                                        41.7504
        22.5004
 -28479646.78148 -22137184.01247
                  20587122.6024                                   20587118.3444
                                                                        51.0004
        43.5004
 -24525595.03948 -19052834.17246
                  20411152.7194                                   20411148.5004
                                                                        52.5004
        41.5004
     91073.20347    109083.84844
                  23382208.6174                                   23382203.8164
                                                                        43.5004
        24.5004
 -15555590.87548 -12068813.76246
                  22462555.5314                                   22462551.6844
                                                                        50.0004
        37.0004
  -5290157.10547  -4087927.03944
                  23684388.8204                                   23684382.9964
                                                                        44.2504
        25.5004
 -11006978.00847  -8562679.94945
                  22481736.1174                                   22481731.3954
                                                                        46.2504
        33.0004
 -16410680.95347 -12773914.51245
                  22668192.2504                                   22668188.4964
                                                                        46.0004
        31.0004
 09 10 22  1 16 30.0000000  0  9G02G21G05G10G13G29G16G07G25
   2382811.57447   1890027.66445
                  22893857.6414                                   22893851.9024
                                                                        44.0004
        32.7504
  10287409.91046   8068967.76243
                  24483065.6724                                   24483060.6024
                                                                        41.7504
        22.0004
 -28590731.57048 -22223743.59447
                  20565983.6804                                   20565979.4574
                                                                        51.0004
        43.5004
 -24611030.93748 -19119407.59446
                  20394895.0164                                   20394890.7814
                                                                        52.0004
        41.5004
     99874.64547    115942.11344
                  23383883.5084                                   23383878.7934
                                                                        42.7504
        24.2504
 -15598247.60948 -12102052.74646
                  22454438.3674                                   22454434.3444
                                                                        49.0004
        37.5004
  -5357578.71547  -4140463.36344
                  23671558.7814                                   23671553.1914
                                                                        42.7504
        24.7504
 -11130109.43747  -8658626.51245
                  22458305.3594                                   22458300.3134
                                                                        46.5004
        33.7504
 -16475442.02047 -12824377.65245
                  22655869.3754                                   22655865.1334
                                                                        44.7504
        30.7504
