     2.11           OBSERVATION DATA    G (GPS)             RINEX VERSION / TYPE
teqc  2019Feb25                         20221121 12:28:29UTCPGM / RUN BY / DATE
OSX ker:10.11.6|Core i5|gcc 4.3 -m64|OSX ker:10.10+|=+      COMMENT
BIT 2 OF LLI FLAGS DATA COLLECTED UNDER A/S CONDITION       COMMENT
04712911                                                    MARKER NAME
2911                                                        MARKER NUMBER
-Unknown-           -Unknown-                               OBSERVER / AGENCY
0220400471          TRIMBLE R7          2.30                REC # / TYPE / VERS
-Unknown-           TRM39105.00     NONE                    ANT # / TYPE
  1449459.4938 -1709242.5212  5952441.9115                  APPROX POSITION XYZ
        0.0000        0.0000        0.0000                  ANTENNA: DELTA H/E/N
     1     1                                                WAVELENGTH FACT L1/2
    20    L1    L2    L5    L6    L7    L8    C1    P1    C2# / TYPES OF OBSERV
          P2    C5    C6    C7    C8    S1    S2    S5    S6# / TYPES OF OBSERV
          S7    S8                                          # / TYPES OF OBSERV
    30.0000                                                 INTERVAL
    15                                                      LEAP SECONDS
Forced Modulo Decimation to 30 seconds                      COMMENT
 SNR is mapped to RINEX snr flag value [0-9]                COMMENT
  L1 & L2: min(max(int(snr_dBHz/6), 0), 9)                  COMMENT
teqc edited: Beidou # 1 - 37 excluded                       COMMENT
  2009    10    18    23    10   30.0000000     GPS         TIME OF FIRST OBS
                                                            END OF HEADER
 09 10 18 23 10 30.0000000  0  9G02G04G10G12G13G23G29G30G31
   -159959.93458    -70123.80557
                  20709087.9224                                   20709082.1644
                                                                        50.5004
        43.5004
    -54432.81658    -24379.11356
                  21044747.7504                                   21044743.8874
                                                                        51.0004
        41.0004
   -253189.33257   -112044.53154
                  23768157.3674                                   23768153.6024
                                                                        43.0004
        27.2504
      -742.95757      -852.36354
                  24468857.0474                                   24468853.4344
                                                                        43.7504
        26.5004
   -183429.42258    -80851.72756
                  21722614.3284                                   21722609.7504
                                                                        49.7504
        36.0004
    -81972.99658    -37686.93455
                  21991313.4924                                   21991307.0514
                                                                        48.5004
        35.2504
   -229833.03956   -101833.43754
                  23993047.5704                                   23993045.6914
                                                                        41.7504
        29.2504
    -44572.65657    -19713.22355
                  23104902.0704                                   23104898.7504
                                                                        45.0004
        30.0004
    -49815.32057    -23591.44954
                  24156967.3444                                   24156963.1724
                                                                        42.0004
        28.5004
 09 10 18 23 11  0.0000000  0  9G02G04G10G12G13G23G29G30G31
   -293167.44948   -173921.83647
                  20683739.4064                                   20683733.5984
                                                                        50.5004
        42.7504
   -101332.66048    -60924.08246
                  21035822.3834                                   21035819.0354
                                                                        50.7504
        40.7504
   -467930.54747   -279375.30144
                  23727293.5084                                   23727289.9534
                                                                        43.7504
        27.5004
     -3451.07847     -2962.60944
                  24468342.7114                                   24468337.7664
                                                                        45.0004
        27.5004
   -336696.82848   -200280.81645
                  21693448.3364                                   21693443.8714
                                                                        50.2504
        34.7504
   -151412.12148    -91795.36345
                  21978099.8594                                   21978093.6054
                                                                        49.5004
        34.2504
   -424842.77046   -253789.10544
                  23955938.9224                                   23955936.2194
                                                                        40.2504
        28.2504
    -83041.30547    -49688.89144
                  23097581.6174                                   23097578.3594
                                                                        45.0004
        28.0004
    -95665.45346    -59318.82844
                  24148242.0004                                   24148238.6334
                                                                        40.5004
        27.2504
 09 10 18 23 11 30.0000000  0  9G02G04G10G12G13G23G29G30G31
   -425986.12948   -277417.05947
                  20658465.0394                                   20658459.4454
                                                                        51.5004
        43.0004
   -147883.73048    -97197.52746
                  21026964.3914                                   21026960.5434
                                                                        50.5004
        40.5004
   -682634.16447   -446676.79744
                  23686436.3364                                   23686433.3444
                                                                        43.7504
        29.2504
     -6042.54747     -4981.87944
                  24467849.3594                                   24467844.7114
                                                                        45.0004
        26.7504
   -489515.94948   -319360.46545
                  21664367.9454                                   21664363.4184
                                                                        48.5004
        34.7504
   -220389.90248   -145544.26245
                  21964973.7814                                   21964967.5234
                                                                        48.7504
        34.2504
   -619704.88746   -405629.82444
                  23918857.7974                                   23918854.9574
                                                                        40.7504
        26.5004
   -121101.55547    -79346.29344
                  23090338.9694                                   23090336.0984
                                                                        44.5004
        29.5004
   -141157.03546    -94766.89844
                  24139585.5234                                   24139581.6884
                                                                        41.0004
        27.2504
 09 10 18 23 12  0.0000000  0  9G02G04G10G12G13G23G29G30G31
   -558070.89148   -380339.93047
                  20633329.8054                                   20633323.4924
                                                                        50.0004
        42.2504
   -193744.83648   -132933.42646
                  21018237.0704                                   21018233.2774
                                                                        50.5004
        40.0004
   -896956.09447   -613680.85544
                  23645652.6804                                   23645649.3554
                                                                        43.7504
        29.7504
     -8177.92247     -6645.78144
                  24467443.3674                                   24467438.7304
                                                                        44.5004
        26.2504
   -641543.60548   -437823.55545
                  21635438.0634                                   21635433.4534
                                                                        49.2504
        34.5004
   -288564.96548   -198667.74645
                  21952000.4304                                   21951994.0434
                                                                        48.2504
        34.2504
   -814073.53546   -557085.98044
                  23881871.5704                                   23881867.1684
                                                                        41.7504
        26.7504
   -158413.00047   -108420.18745
                  23083239.0234                                   23083235.7774
                                                                        45.5004
        30.2504
   -185948.87146   -129669.71544
                  24131062.1174                                   24131057.9844
                                                                        41.2504
        26.5004
 09 10 18 23 12 30.0000000  0  9G02G04G10G12G13G23G29G30G31
   -689316.23048   -482609.04347
                  20608354.8594                                   20608348.7774
                                                                        51.5004
        43.0004
   -238812.15648   -168050.93446
                  21009660.9384                                   21009657.6174
                                                                        51.0004
        40.0004
  -1110788.10247   -780303.11344
                  23604961.7114                                   23604958.2774
                                                                        42.5004
        29.5004
     -9754.23047     -7874.15644
                  24467143.1884                                   24467138.5904
                                                                        42.5004
        28.0004
   -792672.27048   -555586.16445
                  21606679.2274                                   21606674.8714
                                                                        50.5004
        34.7504
   -355833.16448   -251084.59445
                  21939199.6564                                   21939193.7114
                                                                        48.5004
        34.2504
  -1007840.55947   -708073.19944
                  23844998.5474                                   23844995.6764
                                                                        42.7504
        28.5004
   -194872.50447   -136830.19144
                  23076301.1804                                   23076297.7854
                                                                        45.7504
        29.2504
   -229936.83647   -163946.03944
                  24122691.4694                                   24122687.0124
                                                                        42.0004
        27.0004
 09 10 18 23 13  0.0000000  0  9G02G04G10G12G13G23G29G30G31
   -819677.05948   -584189.01647
                  20583547.6884                                   20583541.6684
                                                                        51.0004
        43.0004
   -283042.38748   -202516.04746
                  21001244.1334                                   21001240.7974
                                                                        51.5004
        40.5004
  -1324084.47747   -946508.00044
                  23564372.0004                                   23564369.1564
                                                                        42.2504
        28.5004
    -10731.15646     -8635.49244
                  24466956.2894                                   24466953.0234
                                                                        40.7504
        26.0004
   -942855.69948   -672612.21945
                  21578100.0944                                   21578095.4144
                                                                        50.7504
        34.5004
   -422151.55148   -302761.34445
                  21926580.1564                                   21926573.9804
                                                                        48.5004
        34.0004
  -1200960.64546   -858556.43044
                  23808248.9694                                   23808246.1374
                                                                        41.7504
        29.2504
   -230439.31247   -164544.59444
                  23069533.2584                                   23069529.4454
                                                                        45.5004
        28.7504
   -273079.52346   -197563.68044
                  24114481.5784                                   24114477.3714
                                                                        40.7504
        25.7504
 09 10 18 23 13 30.0000000  0  9G02G04G10G12G13G23G29G30G31
   -949127.41448   -685059.55147
                  20558914.5394                                   20558908.3484
                                                                        51.2504
        42.5004
   -326413.14848   -236311.55946
                  20992991.0944                                   20992987.6214
                                                                        50.7504
        40.0004
  -1536818.02346  -1112274.34444
                  23523890.0084                                   23523887.1454
                                                                        41.5004
        28.0004
    -11086.35246     -8912.35544
                  24466888.8284                                   24466885.1914
                                                                        41.5004
        27.2504
  -1092067.77748   -788881.32445
                  21549706.3834                                   21549701.6214
                                                                        50.0004
        34.7504
   -487496.66048   -353679.51645
                  21914145.1024                                   21914138.6914
                                                                        48.5004
        34.0004
  -1393405.75047  -1008513.68045
                  23771627.7344                                   23771625.2504
                                                                        43.7504
        31.0004
   -265090.67247   -191545.69544
                  23062939.1564                                   23062935.0474
                                                                        44.7504
        29.0004
   -315354.50446   -230505.19544
                  24106436.3984                                   24106432.5634
                                                                        41.7504
        24.5004
 09 10 18 23 14  0.0000000  0  9G02G04G10G12G13G23G29G30G31
  -1077661.94148   -785216.07847
                  20534454.7894                                   20534448.7544
                                                                        52.0004
        43.5004
   -368922.07048   -269435.44546
                  20984901.7974                                   20984898.2114
                                                                        52.2504
        40.2504
  -1748983.64547  -1277598.20344
                  23483516.8054                                   23483513.0434
                                                                        44.0004
        28.5004
    -10820.60947     -8705.31244
                  24466939.7974                                   24466936.0594
                                                                        42.7504
        28.5004
  -1240303.29348   -904389.54745
                  21521497.5394                                   21521493.2034
                                                                        49.7504
        35.5004
   -551867.06648   -403838.39545
                  21901895.7114                                   21901889.8324
                                                                        48.5004
        34.0004
  -1585170.66447  -1157940.72345
                  23735135.5234                                   23735133.7384
                                                                        43.5004
        30.5004
   -298826.86747   -217833.68044
                  23056519.2274                                   23056515.5514
                                                                        46.0004
        28.7504
   -356760.73846   -262769.79743
                  24098556.7034                                   24098553.1564
                                                                        40.5004
        22.5004
 09 10 18 23 14 30.0000000  0  8G02G04G10G13G23G29G30G31
  -1205280.18048   -884658.74647
                  20510169.8054                                   20510163.6764
                                                                        51.2504
        42.5004
   -410570.52748   -301888.83646
                  20976976.6414                                   20976973.2344
                                                                        51.0004
        40.2504
  -1960578.32047  -1442477.17244
                  23443251.5084                                   23443248.3874
                                                                        44.5004
        29.7504
  -1387560.31648  -1019135.25845
                  21493475.6484                                   21493471.3834
                                                                        50.0004
        34.7504
   -615263.21548   -453238.00845
                  21889832.2504                                   21889825.7464
                                                                        48.0004
        33.5004
  -1776252.00847  -1306835.12944
                  23698773.6094                                   23698770.9654
                                                                        42.5004
        29.5004
   -331648.99247   -243409.39144
                  23050273.5704                                   23050269.8634
                                                                        46.0004
        29.2504
   -397299.13746   -294358.10543
                  24090842.9304                                   24090838.5084
                                                                        40.7504
        23.0004
 09 10 18 23 15  0.0000000  0  8G02G04G10G13G23G29G30G31
  -1331990.87548   -983394.34847
                  20486057.5164                                   20486051.7114
                                                                        52.0004
        42.2504
   -451370.13748   -333680.81246
                  20969212.8364                                   20969209.4264
                                                                        52.5004
        40.5004
  -2171610.03147  -1606917.46144
                  23403093.4774                                   23403089.8284
                                                                        43.5004
        29.2504
  -1533846.59448  -1133124.55945
                  21465638.1954                                   21465633.7424
                                                                        49.7504
        34.7504
   -677696.13747   -501887.10945
                  21877951.3984                                   21877945.8594
                                                                        47.7504
        34.0004
  -1966657.47747  -1455202.78544
                  23662541.6024                                   23662537.9454
                                                                        43.5004
        28.7504
   -363570.24247   -268283.08244
                  23044199.0394                                   23044195.1914
                                                                        45.2504
        29.0004
   -436982.74646   -325280.57444
                  24083291.6254                                   24083287.4384
                                                                        41.7504
        25.0004
 09 10 18 23 15 30.0000000  0  8G02G04G10G13G23G29G30G31
  -1457802.92648  -1081429.65247
                  20462116.4224                                   20462110.3014
                                                                        52.0004
        42.5004
   -491332.40248   -364820.29346
                  20961608.2814                                   20961604.6524
                                                                        51.5004
        40.0004
  -2382087.21947  -1770925.66844
                  23363040.6724                                   23363037.5474
                                                                        43.5004
        28.7504
  -1679171.21548  -1246364.51645
                  21437983.9144                                   21437979.3634
                                                                        50.0004
        35.0004
   -739177.28148   -549794.33245
                  21866252.2504                                   21866246.0084
                                                                        48.5004
        34.0004
  -2156394.93047  -1603049.89144
                  23626434.7734                                   23626432.0354
                                                                        43.5004
        28.2504
   -394603.44547   -292464.80944
                  23038293.8204                                   23038290.1524
                                                                        45.0004
        28.7504
   -475822.98046   -355545.80544
                  24075901.0554                                   24075897.0744
                                                                        41.7504
        25.0004
 09 10 18 23 16  0.0000000  0  8G02G04G10G13G23G29G30G31
  -1582722.72748  -1178769.82447
                  20438344.9534                                   20438339.0744
                                                                        52.0004
        43.0004
   -530466.33648   -395314.30546
                  20954161.3984                                   20954158.0124
                                                                        51.5004
        40.0004
  -2592014.69147  -1934505.46544
                  23323092.8524                                   23323090.2704
                                                                        42.7504
        29.7504
  -1823539.77048  -1358859.50445
                  21410511.5554                                   21410507.2114
                                                                        49.7504
        34.5004
   -799715.62548   -596966.93745
                  21854731.8834                                   21854725.6764
                                                                        48.0004
        34.2504
  -2345468.74647  -1750379.85944
                  23590454.8674                                   23590451.8204
                                                                        45.0004
        27.2504
   -424758.16447   -315961.98444
                  23032555.4924                                   23032552.1214
                                                                        44.7504
        28.0004
   -513829.17647   -385160.95344
                  24068667.7894                                   24068664.3714
                                                                        43.0004
        26.2504
 09 10 18 23 16 30.0000000  0  8G02G04G10G13G23G29G30G31
   -131338.44948    -47821.10547
                  20714534.3204                                   20714528.1914
                                                                        51.7504
        42.7504
   1006634.59448    802426.76246
                  21246661.9694                                   21246658.2704
                                                                        50.5004
        39.5004
  -1225976.32447   -870059.98445
                  23583041.7194                                   23583038.7074
                                                                        44.7504
        30.0004
   -391539.13348   -243014.82445
                  21683011.8524                                   21683007.5474
                                                                        50.5004
        35.0004
    716095.70748    584184.73045
                  22143180.8204                                   22143174.8794
                                                                        48.0004
        33.5004
   -958464.21947   -669596.93444
                  23854393.8914                                   23854389.9384
                                                                        45.7504
        28.5004
   1121370.55947    888813.63344
                  23326774.2194                                   23326770.8364
                                                                        45.2504
        28.5004
   1024403.86347    813462.09844
                  24361384.8054                                   24361380.6724
                                                                        42.5004
        27.5004
 09 10 18 23 17  0.0000000  0  9G02G04G05G10G13G23G29G30G31
   -254511.89148   -143800.41847
                  20691095.2974                                   20691089.4884
                                                                        51.7504
        42.5004
    969110.60248    773187.12146
                  21239521.3054                                   21239517.8444
                                                                        51.0004
        40.0004
   1302686.14856   1027146.97354
                  24454508.7974                                   24454505.8134
                                                                        38.5004
        27.2504
  -1434839.27347  -1032810.26645
                  23543296.2194                                   23543292.6764
                                                                        44.5004
        30.0004
   -534031.98848   -354048.22345
                  21655896.4924                                   21655892.2274
                                                                        50.5004
        35.7504
    657396.81348    538445.33245
                  22132010.7424                                   22132004.7544
                                                                        48.0004
        33.5004
  -1146246.19947   -815920.28144
                  23818659.6884                                   23818656.3874
                                                                        44.7504
        29.7504
   1092922.52747    866646.28944
                  23321360.3914                                   23321356.9694
                                                                        45.0004
        29.5004
    988016.38747    785108.12944
                  24354460.8204                                   24354456.5864
                                                                        44.0004
        28.5004
 09 10 18 23 17 30.0000000  0  9G02G04G05G10G13G23G29G30G31
   -376841.02748   -239121.81647
                  20667816.5234                                   20667810.7304
                                                                        51.5004
        43.0004
    932359.59848    744549.96146
                  21232527.9534                                   21232524.5434
                                                                        51.2504
        39.5004
   1092306.53946    863214.94144
                  24414474.5004                                   24414471.9344
                                                                        39.2504
        27.0004
  -1643197.07447  -1195167.02344
                  23503647.3524                                   23503643.1294
                                                                        43.0004
        28.0004
   -675614.74248   -464372.43445
                  21628954.4454                                   21628949.9224
                                                                        50.5004
        35.2504
    599586.00048    493397.94945
                  22121010.2584                                   22121003.5204
                                                                        48.5004
        34.0004
  -1333408.27347   -961760.53545
                  23783043.4924                                   23783040.4574
                                                                        45.2504
        31.5004
   1065293.95747    845117.53544
                  23316102.7344                                   23316099.6564
                                                                        45.0004
        28.5004
    952405.59847    757359.41444
                  24347683.5864                                   24347680.0084
                                                                        43.2504
        27.5004
 09 10 18 23 18  0.0000000  0  9G02G04G05G10G13G23G29G30G31
   -498340.35548   -333796.59847
                  20644696.0784                                   20644690.4024
                                                                        51.7504
        42.5004
    896363.60548    716501.14846
                  21225678.0634                                   21225674.4964
                                                                        51.7504
        40.2504
    882329.60547    699596.65644
                  24374517.8364                                   24374514.3444
                                                                        42.5004
        28.0004
  -1851062.91847  -1357140.38344
                  23464091.4224                                   23464088.5634
                                                                        43.5004
        28.7504
   -816301.91848   -573998.79745
                  21602182.5314                                   21602178.2384
                                                                        50.7504
        35.5004
    542645.24248    449028.50445
                  22110174.6884                                   22110168.4534
                                                                        48.5004
        34.0004
  -1519963.07447  -1107127.48044
                  23747542.4454                                   23747539.9264
                                                                        44.0004
        29.5004
   1038466.90647    824213.31344
                  23310997.3134                                   23310994.5864
                                                                        44.0004
        28.2504
    917553.73047    730202.12544
                  24341051.6954                                   24341048.3404
                                                                        42.5004
        29.0004
 09 10 18 23 18 30.0000000  0  9G02G04G05G10G13G23G29G30G31
   -619019.16048   -427832.03947
                  20621731.6564                                   20621725.7814
                                                                        51.5004
        43.0004
    861111.65248    689032.15646
                  21218969.5634                                   21218966.5474
                                                                        51.5004
        39.5004
    672746.94147    536285.53144
                  24334635.8594                                   24334632.5744
                                                                        42.2504
        29.0004
  -2058444.92247  -1518736.73044
                  23424627.4454                                   23424624.3754
                                                                        42.5004
        29.5004
   -956101.21148   -682933.32045
                  21575579.5084                                   21575574.9344
                                                                        50.7504
        35.0004
    486563.68848    405328.64145
                  22099502.4144                                   22099495.9804
                                                                        48.7504
        33.2504
  -1705919.86747  -1252028.59045
                  23712155.2504                                   23712153.3634
                                                                        43.7504
        30.0004
   1012427.53547    803922.89844
                  23306042.3134                                   23306039.5164
                                                                        44.5004
        28.7504
    883448.27347    703626.62544
                  24334561.4774                                   24334558.0744
                                                                        42.2504
        28.5004
 09 10 18 23 19  0.0000000  0  9G02G04G05G10G13G23G29G30G31
   -738884.09448   -521233.31647
                  20598922.1484                                   20598916.5514
                                                                        52.0004
        43.0004
    826593.41048    662134.76246
                  21212401.2034                                   21212397.8714
                                                                        52.0004
        40.0004
    463552.83647    373277.18444
                  24294827.4224                                   24294823.3094
                                                                        44.2504
        29.2504
  -2265348.95747  -1679960.61745
                  23385255.1414                                   23385251.7034
                                                                        43.0004
        30.0004
  -1095019.49648   -791181.40645
                  21549143.9384                                   21549139.7154
                                                                        50.2504
        35.0004
    431331.67248    362290.73445
                  22088992.0394                                   22088986.2424
                                                                        48.7504
        33.5004
  -1891283.27047  -1396467.38745
                  23676882.4614                                   23676879.7114
                                                                        44.2504
        31.0004
    987165.72347    784238.35244
                  23301235.5164                                   23301232.4534
                                                                        43.7504
        28.0004
    850078.40246    677624.09044
                  24328211.5394                                   24328207.9064
                                                                        41.0004
        26.5004
 09 10 18 23 19 30.0000000  0  9G02G04G05G10G13G23G29G30G31
   -857942.68048   -614006.20347
                  20576265.9224                                   20576259.7934
                                                                        52.0004
        43.0004
    792798.96148    635801.41846
                  21205970.7424                                   21205966.8794
                                                                        51.5004
        40.5004
    254740.25047    210566.11344
                  24255091.3674                                   24255087.8444
                                                                        43.0004
        28.0004
  -2471780.98047  -1840816.67244
                  23345972.4304                                   23345969.1884
                                                                        42.2504
        29.7504
  -1233064.06248   -898748.64145
                  21522875.1564                                   21522870.6524
                                                                        51.0004
        34.7504
    376938.85548    319906.65645
                  22078641.7734                                   22078635.1414
                                                                        48.5004
        33.0004
  -2076058.91447  -1540448.30945
                  23641720.8594                                   23641717.7814
                                                                        45.2504
        31.5004
    962670.45747    765151.10544
                  23296574.5784                                   23296570.6764
                                                                        44.0004
        28.5004
    817434.38346    652187.23043
                  24321998.7974                                   24321995.6524
                                                                        39.7504
        23.5004
 09 10 18 23 20  0.0000000  0  9G02G04G05G10G13G23G29G30G31
   -976200.56648   -706155.18447
                  20553762.2424                                   20553756.3244
                                                                        52.7504
        42.5004
    759720.19148    610025.67246
                  21199675.8364                                   21199672.0944
                                                                        51.5004
        40.0004
     46304.49646     48148.73044
                  24215426.9064                                   24215423.5474
                                                                        41.2504
        28.0004
  -2677745.82847  -2001308.73845
                  23306779.0554                                   23306775.5354
                                                                        42.2504
        30.2504
  -1370239.38348  -1005638.52745
                  21496771.8674                                   21496767.3054
                                                                        51.0004
        35.7504
    323377.87148    278170.82045
                  22068449.1954                                   22068442.9614
                                                                        49.0004
        33.7504
  -2260251.50047  -1683974.84445
                  23606670.1334                                   23606666.5554
                                                                        45.2504
        31.0004
    938931.76647    746653.38344
                  23292056.9304                                   23292053.5204
                                                                        44.7504
        28.7504
    785506.96946    627308.71544
                  24315923.1094                                   24315920.0234
                                                                        38.0004
        24.2504
 09 10 18 23 20 30.0000000  0  9G02G04G05G10G13G23G29G30G31
  -1093664.65248   -797685.60247
                  20531409.5084                                   20531403.6994
                                                                        51.7504
        43.0004
    727347.85548    584800.52046
                  21193515.1954                                   21193512.0634
                                                                        51.5004
        40.2504
   -161759.99246   -113979.38344
                  24175833.8984                                   24175830.6294
                                                                        41.0004
        29.5004
  -2883248.60247  -2161440.73044
                  23267672.9454                                   23267669.2894
                                                                        42.7504
        29.2504
  -1506552.45748  -1111856.60546
                  21470832.1564                                   21470827.9494
                                                                        50.5004
        36.0004
    270639.05548    237075.62545
                  22058413.2344                                   22058406.8794
                                                                        49.5004
        33.0004
  -2443865.77047  -1827050.87144
                  23571729.2584                                   23571725.0704
                                                                        45.7504
        29.2504
    915939.91847    728737.64844
                  23287682.1484                                   23287677.6844
                                                                        45.0004
        27.5004
    754286.10246    602980.76643
                  24309981.5394                                   24309978.8794
                                                                        38.2504
        22.7504
 09 10 18 23 21  0.0000000  0  9G02G04G05G10G13G23G29G30G31
  -1210344.42648   -888604.92247
                  20509206.1414                                   20509200.2504
                                                                        52.5004
        43.2504
    695671.15648    560117.78546
                  21187487.3134                                   21187483.8524
                                                                        52.0004
        39.5004
   -369461.85547   -275824.92645
                  24136309.5784                                   24136306.3444
                                                                        42.2504
        30.5004
  -3088297.49247  -2321219.03944
                  23228653.4614                                   23228649.7814
                                                                        43.7504
        29.7504
  -1642011.14548  -1217408.95346
                  21445055.5394                                   21445051.0474
                                                                        50.7504
        36.0004
    218711.10948    196612.24245
                  22048531.8594                                   22048525.5634
                                                                        48.7504
        32.5004
  -2626910.26647  -1969682.88345
                  23536897.4844                                   23536893.1804
                                                                        45.0004
        30.2504
    893680.53147    711392.61744
                  23283446.7974                                   23283442.2704
                                                                        45.0004
        28.5004
    723759.23846    579193.58644
                  24304173.6644                                   24304170.1174
                                                                        41.2504
        25.2504
 09 10 18 23 21 30.0000000  0  9G02G04G05G10G13G23G29G30G31
  -1326247.93048   -978919.36347
                  20487150.5554                                   20487144.8674
                                                                        52.0004
        42.5004
    664677.02748    535966.66446
                  21181588.9064                                   21181585.7894
                                                                        51.5004
        39.5004
   -576808.09847   -437393.40244
                  24096852.8594                                   24096849.3754
                                                                        42.2504
        29.5004
  -3292899.58247  -2480649.19545
                  23189718.6644                                   23189714.6684
                                                                        44.5004
        30.5004
  -1776624.26248  -1322302.45745
                  21419439.5394                                   21419435.1914
                                                                        50.5004
        35.5004
    167582.68048    156771.91445
                  22038802.5784                                   22038796.1724
                                                                        49.5004
        32.7504
  -2809390.46947  -2111875.19544
                  23502172.6484                                   23502167.7934
                                                                        44.5004
        29.2504
    872143.26647    694610.25844
                  23279348.1094                                   23279343.6094
                                                                        45.7504
        27.2504
    693915.52047    555938.71544
                  24298494.3984                                   24298490.7114
                                                                        42.0004
        25.7504
 09 10 18 23 22  0.0000000  0  9G02G04G05G10G13G23G29G30G31
  -1441385.85548  -1068637.24647
                  20465240.5004                                   20465234.7934
                                                                        52.2504
        43.5004
    634352.94148    512337.55546
                  21175818.7584                                   21175814.8914
                                                                        52.2504
        40.2504
   -783808.52747   -598692.41845
                  24057461.8914                                   24057458.4224
                                                                        42.5004
        30.2504
  -3497064.33247  -2639738.57444
                  23150867.6024                                   23150863.4104
                                                                        44.5004
        29.5004
  -1910401.05548  -1426544.12546
                  21393982.4534                                   21393978.4304
                                                                        51.0004
        36.0004
    117240.63348    117544.32045
                  22029222.6724                                   22029216.6024
                                                                        48.2504
        33.5004
  -2991316.26647  -2253635.48045
                  23467552.9304                                   23467548.6054
                                                                        44.7504
        30.0004
    851313.03547    678378.85544
                  23275384.3524                                   23275380.6954
                                                                        45.2504
        29.7504
    664740.77747    533205.19943
                  24292943.2664                                   24292938.1174
                                                                        43.2504
        23.7504
 09 10 18 23 22 30.0000000  0  9G02G04G05G10G13G23G29G30G31
  -1555768.61348  -1157766.70347
                  20443474.3284                                   20443468.2464
                                                                        52.5004
        43.2504
    604686.30548    489220.69946
                  21170173.6564                                   21170169.9734
                                                                        51.5004
        40.0004
   -990472.02347   -759728.89544
                  24018135.3134                                   24018131.2154
                                                                        42.0004
        27.7504
  -3700800.66847  -2798494.11744
                  23112097.2274                                   23112094.2814
                                                                        45.0004
        29.7504
  -2043351.38748  -1530141.66045
                  21368683.2734                                   21368678.8364
                                                                        50.7504
        35.5004
     67672.34048     78919.60545
                  22019789.9144                                   22019784.1484
                                                                        48.7504
        32.5004
  -3172696.79347  -2394970.91045
                  23433037.3834                                   23433033.3874
                                                                        44.0004
        30.5004
    831175.88747    662687.47344
                  23271551.9774                                   23271548.8954
                                                                        45.5004
        28.5004
    636221.19947    510982.17643
                  24287515.9224                                   24287510.8754
                                                                        43.7504
        23.2504
 09 10 18 23 23  0.0000000  0  9G02G04G05G10G13G23G29G30G31
  -1669399.93048  -1246310.59847
                  20421850.8364                                   20421844.7584
                                                                        52.2504
        43.5004
    575670.43048    466610.89546
                  21164651.7584                                   21164648.3404
                                                                        51.5004
        39.7504
  -1196801.79746   -920505.29744
                  23978871.3204                                   23978868.1684
                                                                        41.5004
        28.5004
  -3904111.48047  -2956918.08245
                  23073408.7114                                   23073405.5434
                                                                        46.2504
        31.2504
  -2175479.18748  -1633098.39545
                  21343540.0944                                   21343535.3284
                                                                        50.5004
        35.5004
     18871.61748     40893.03145
                  22010503.6954                                   22010497.6524
                                                                        49.0004
        33.0004
  -3353533.99247  -2535882.96545
                  23398624.6564                                   23398621.8834
                                                                        43.0004
        30.5004
    811724.48847    647530.50844
                  23267850.5164                                   23267847.3204
                                                                        44.2504
        29.7504
    608350.11347    489264.44944
                  24282212.4454                                   24282207.5904
                                                                        43.7504
        25.5004
 09 10 18 23 23 30.0000000  0  9G02G04G05G10G13G23G29G30G31
  -1782285.62948  -1334273.44147
                  20400369.4144                                   20400363.7974
                                                                        52.2504
        43.0004
    547297.07048    444501.72746
                  21159252.7894                                   21159249.0234
                                                                        51.0004
        40.0004
  -1402802.44946  -1081025.23444
                  23939670.9844                                   23939668.0274
                                                                        40.5004
        29.0004
  -4107000.46147  -3115013.34845
                  23034800.6804                                   23034797.2034
                                                                        46.0004
        31.2504
  -2306789.89148  -1735418.50445
                  21318552.1024                                   21318547.7774
                                                                        50.5004
        35.7504
    -29170.40648      3457.63345
                  22001362.0554                                   22001355.5314
                                                                        49.5004
        32.2504
  -3533831.64147  -2676374.54345
                  23364314.9144                                   23364312.1914
                                                                        42.7504
        32.2504
    792949.28147    632900.43044
                  23264277.5704                                   23264274.6024
                                                                        43.5004
        28.0004
    581118.60947    468045.16044
                  24277029.6954                                   24277025.9414
                                                                        44.0004
        26.5004
 09 10 18 23 24  0.0000000  0  9G02G04G05G10G13G23G29G30G31
  -1894432.28948  -1421660.43047
                  20379028.8364                                   20379022.8754
                                                                        52.7504
        42.7504
    519557.42248    422886.37946
                  21153973.5944                                   21153970.5394
                                                                        52.0004
        39.7504
  -1608479.36347  -1241292.86344
                  23900532.3134                                   23900528.7624
                                                                        42.0004
        29.5004
  -4309473.48447  -3272784.50445
                  22996271.2504                                   22996267.6174
                                                                        47.0004
        31.5004
  -2437289.00048  -1837106.16445
                  21293719.1024                                   21293714.9144
                                                                        50.7504
        35.0004
    -76461.97748    -33392.98045
                  21992362.2814                                   21992356.5904
                                                                        49.0004
        33.5004
  -3713594.54347  -2816449.41445
                  23330107.5004                                   23330104.4384
                                                                        44.2504
        31.5004
    774839.73447    618789.00844
                  23260831.5784                                   23260828.9964
                                                                        43.2504
        29.0004
    554516.91047    447316.52044
                  24271967.1954                                   24271964.1764
                                                                        43.0004
        25.5004
 09 10 18 23 24 30.0000000  0  9G02G04G05G10G13G23G29G30G31
  -2005844.87548  -1508475.41847
                  20357827.8134                                   20357821.5944
                                                                        52.7504
        43.0004
    492443.61348    401758.71546
                  21148814.3054                                   21148810.8754
                                                                        52.0004
        39.5004
  -1813836.21147  -1401311.13745
                  23861454.1254                                   23861450.9344
                                                                        44.0004
        31.5004
  -4511533.91447  -3430234.19545
                  22957820.2734                                   22957816.5204
                                                                        46.5004
        31.2504
  -2566980.95748  -1938164.66445
                  21269039.3054                                   21269034.7974
                                                                        50.7504
        35.5004
   -123011.00048    -69665.02045
                  21983504.9304                                   21983498.9104
                                                                        49.5004
        33.5004
  -3892825.91447  -2956110.16445
                  23296001.2814                                   23295997.5354
                                                                        44.2504
        32.0004
    757388.10147    605190.29244
                  23257510.3524                                   23257507.6954
                                                                        43.0004
        27.7504
    528537.81346    427073.05144
                  24267022.9304                                   24267020.2774
                                                                        39.0004
        24.0004
 09 10 18 23 25  0.0000000  0  9G02G04G05G10G13G23G29G30G31
   -541107.80948   -367121.88347
                  20636557.5314                                   20636551.6094
                                                                        52.7504
        42.7504
   2041366.75448   1608711.86746
                  21443564.6414                                   21443561.0314
                                                                        51.5004
        39.5004
   -443453.10947   -333480.12545
                  24122229.2504                                   24122225.5204
                                                                        43.5004
        30.5004
  -3137761.98847  -2359762.54345
                  23219239.9844                                   23219236.4454
                                                                        44.5004
        30.0004
  -1120448.82848   -810996.61746
                  21544305.3754                                   21544300.9654
                                                                        51.0004
        36.5004
   1406593.86748   1122234.78145
                  22274578.6094                                   22274572.7034
                                                                        49.0004
        32.7504
  -2496107.87547  -1867758.44545
                  23561787.8754                                   23561784.0204
                                                                        44.7504
        33.0004
   2316001.43447   1819694.12944
                  23554104.6174                                   23554102.0434
                                                                        44.0004
        28.0004
   2078588.95346   1634904.98444
                  24561989.0704                                   24561985.5744
                                                                        39.5004
        25.5004
 09 10 18 23 25 30.0000000  0  9G02G04G05G10G13G23G29G30G31
   -651072.42248   -452808.58647
                  20615631.9614                                   20615625.9884
                                                                        52.5004
        43.2504
   2015477.53548   1588538.44946
                  21438637.7814                                   21438634.5664
                                                                        51.5004
        39.0004
   -648187.26647   -493013.20344
                  24083269.1024                                   24083265.6804
                                                                        43.5004
        28.5004
  -3339013.52347  -2516581.89145
                  23180943.5084                                   23180939.5664
                                                                        44.5004
        30.7504
  -1248545.87548   -910812.44946
                  21519929.3364                                   21519924.7034
                                                                        50.7504
        36.0004
   1361502.99248   1087099.02745
                  22265998.2034                                   22265992.0204
                                                                        48.7504
        32.7504
  -2674293.12547  -2006604.08645
                  23527880.1884                                   23527876.8524
                                                                        44.5004
        31.7504
   2299832.23847   1807094.75444
                  23551028.4454                                   23551025.0664
                                                                        45.0004
        28.2504
   2053823.11046   1615606.85444
                  24557276.7974                                   24557272.9924
                                                                        40.7504
        26.2504
 09 10 18 23 26  0.0000000  0  9G02G04G05G10G13G23G29G30G31
   -760320.04748   -537936.59847
                  20594842.8284                                   20594836.8094
                                                                        52.7504
        42.7504
   1990189.48448   1568833.39146
                  21433825.8594                                   21433822.3204
                                                                        51.2504
        39.5004
   -852615.09047   -652307.58644
                  24044368.6884                                   24044365.0164
                                                                        43.0004
        28.7504
  -3539865.14547  -2673089.61745
                  23142722.9224                                   23142718.8634
                                                                        44.2504
        30.0004
  -1375851.87548  -1010011.91845
                  21495703.7734                                   21495699.2344
                                                                        50.5004
        35.7504
   1317129.92648   1052522.57445
                  22257554.4384                                   22257548.2304
                                                                        49.0004
        32.5004
  -2851959.22747  -2145045.21145
                  23494071.6094                                   23494067.2774
                                                                        44.0004
        31.5004
   2284292.21147   1794985.60244
                  23548071.6644                                   23548067.9414
                                                                        44.5004
        27.5004
   2029652.56646   1596772.53144
                  24552676.8444                                   24552673.4734
                                                                        38.5004
        25.0004
 09 10 18 23 26 30.0000000  0  9G02G04G05G10G13G23G29G30G31
   -868856.38348   -622510.39147
                  20574189.1414                                   20574183.2234
                                                                        51.7504
        42.7504
   1965495.18448   1549591.02746
                  21429126.8204                                   21429123.2814
                                                                        51.5004
        38.7504
  -1056740.88347   -811366.57444
                  24005524.7344                                   24005520.1254
                                                                        44.2504
        29.0004
  -3740321.18747  -2829289.16445
                  23104576.8594                                   23104573.0594
                                                                        45.2504
        30.5004
  -1502371.40648  -1108598.57446
                  21471627.8674                                   21471623.8444
                                                                        51.0004
        36.0004
   1273467.35548   1018499.76245
                  22249245.5234                                   22249239.7934
                                                                        48.5004
        33.7504
  -3029109.98447  -2283084.72345
                  23460360.8134                                   23460356.6094
                                                                        43.5004
        31.5004
   2269371.84847   1783359.32444
                  23545232.0864                                   23545227.9104
                                                                        45.2504
        27.2504
   2006068.50846   1578395.17644
                  24548189.5314                                   24548185.7424
                                                                        41.5004
        26.0004
 09 10 18 23 27  0.0000000  0  9G02G04G05G10G13G23G29G30G31
   -976688.94148   -706535.78147
                  20553669.0474                                   20553663.3954
                                                                        51.5004
        43.0004
   1941383.97748   1530803.28546
                  21424538.6954                                   21424534.4924
                                                                        50.7504
        39.5004
  -1260571.39847   -970195.52745
                  23966736.4614                                   23966732.6294
                                                                        44.5004
        30.0004
  -3940388.16447  -2985185.50845
                  23066505.6334                                   23066502.3284
                                                                        44.7504
        32.0004
  -1628112.60248  -1206578.68046
                  21447699.9844                                   21447695.5824
                                                                        51.2504
        36.0004
   1230504.21548    985022.02345
                  22241069.8594                                   22241064.0124
                                                                        48.5004
        32.7504
  -3205751.92247  -2420727.78545
                  23426746.7894                                   23426742.7424
                                                                        43.0004
        31.0004
   2255060.13747   1772207.34444
                  23542508.7424                                   23542504.4304
                                                                        44.5004
        26.0004
   1983060.24246   1560466.58644
                  24543810.9304                                   24543807.3524
                                                                        40.5004
        28.2504
 09 10 18 23 27 30.0000000  0  9G02G04G05G10G13G23G29G30G31
  -1083818.60248   -790013.44547
                  20533283.4924                                   20533277.1644
                                                                        52.2504
        43.0004
   1917851.93448   1512466.53146
                  21420060.2584                                   21420056.8914
                                                                        51.0004
        39.2504
  -1464106.07847  -1128793.93445
                  23928005.8444                                   23928001.8634
                                                                        45.5004
        31.5004
  -4140065.00447  -3140777.84045
                  23028508.1254                                   23028504.7624
                                                                        43.7504
        32.0004
  -1753075.78548  -1303952.66446
                  21423920.2974                                   21423915.7504
                                                                        51.5004
        36.2504
   1188237.63748    952087.05945
                  22233027.2504                                   22233020.7304
                                                                        49.0004
        32.5004
  -3381883.48847  -2557973.14845
                  23393229.8364                                   23393226.4064
                                                                        42.7504
        30.0004
   2241352.93847   1761526.43444
                  23539899.7894                                   23539896.0594
                                                                        44.0004
        25.5004
   1960624.57047   1542984.26244
                  24539541.4844                                   24539537.6254
                                                                        43.0004
        27.0004
 09 10 18 23 28  0.0000000  0  9G02G04G05G10G13G23G29G30G31
  -1190251.46148   -872948.12147
                  20513029.9534                                   20513023.8674
                                                                        52.5004
        43.2504
   1894891.54348   1494575.35546
                  21415691.3204                                   21415687.5664
                                                                        51.5004
        39.5004
  -1667349.97747  -1287165.74645
                  23889329.7344                                   23889325.7544
                                                                        45.0004
        31.5004
  -4339356.47747  -3296069.88345
                  22990584.2584                                   22990581.2974
                                                                        43.7504
        32.7504
  -1877266.17248  -1400724.47346
                  21400287.8364                                   21400283.7664
                                                                        51.0004
        36.2504
   1146658.71548    919687.85945
                  22225114.9534                                   22225108.6604
                                                                        49.0004
        31.7504
  -3557509.82047  -2694824.84445
                  23359809.0784                                   23359805.7114
                                                                        43.7504
        30.5004
   2228239.44947   1751308.10244
                  23537404.0474                                   23537400.9804
                                                                        42.5004
        25.7504
   1938751.03147   1525939.94944
                  24535379.4454                                   24535375.3794
                                                                        43.0004
        26.0004
 09 10 18 23 28 30.0000000  0  9G02G04G05G10G13G23G29G30G31
  -1295991.50448   -955342.95747
                  20492908.1484                                   20492902.1414
                                                                        52.2504
        43.5004
   1872495.84048   1477124.12946
                  21411429.5084                                   21411426.0394
                                                                        50.7504
        39.7504
  -1870305.68747  -1445313.01245
                  23850707.8754                                   23850704.4144
                                                                        44.2504
        31.5004
  -4538265.26647  -3451063.72345
                  22952733.1174                                   22952730.2194
                                                                        44.5004
        32.5004
  -2000687.27048  -1496896.89146
                  21376801.4774                                   21376797.1294
                                                                        50.5004
        36.5004
   1105761.66848    887820.00845
                  22217332.3674                                   22217326.2464
                                                                        48.2504
        32.5004
  -3732632.60247  -2831284.17645
                  23326484.4384                                   23326481.2624
                                                                        44.5004
        32.2504
   2215713.04746   1741547.33644
                  23535020.1484                                   23535017.4224
                                                                        40.5004
        26.5004
   1917433.31346   1509328.73044
                  24531322.5314                                   24531318.3164
                                                                        40.7504
        25.5004
 09 10 18 23 29  0.0000000  0  9G02G04G05G10G13G23G29G30G31
  -1401037.96948  -1037197.41447
                  20472918.2814                                   20472912.4884
                                                                        52.2504
        43.2504
   1850662.94948   1460111.43446
                  21407274.9384                                   21407271.4344
                                                                        51.0004
        39.5004
  -2072971.21547  -1603234.13345
                  23812141.5474                                   23812138.2194
                                                                        43.0004
        30.2504
  -4736788.45347  -3605757.07445
                  22914955.5394                                   22914952.1134
                                                                        44.5004
        32.2504
  -2123337.77348  -1592468.58646
                  21353461.8674                                   21353457.7774
                                                                        50.2504
        36.5004
   1065544.33648    856481.89845
                  22209678.9384                                   22209673.0664
                                                                        48.2504
        32.7504
  -3907249.60947  -2967349.42245
                  23293256.6954                                   23293252.7934
                                                                        45.2504
        32.2504
   2203770.35246   1732241.34444
                  23532748.0554                                   23532745.0634
                                                                        40.7504
        27.2504
   1896668.57447   1493148.29343
                  24527371.3914                                   24527366.6994
                                                                        42.2504
        22.7504
 09 10 18 23 29 30.0000000  0  9G02G04G05G10G13G23G29G30G31
  -1505399.31648  -1118518.05147
                  20453059.2584                                   20453053.4184
                                                                        52.5004
        43.0004
   1829382.33248   1443529.14846
                  21403225.2584                                   21403222.1994
                                                                        50.7504
        39.5004
  -2275353.73047  -1760934.73045
                  23773629.5234                                   23773626.2194
                                                                        43.0004
        30.0004
  -4934933.25847  -3760155.59845
                  22877250.0004                                   22877246.0394
                                                                        45.5004
        32.0004
  -2245226.48048  -1687446.69945
                  21330266.9144                                   21330262.6764
                                                                        50.2504
        35.7504
   1025995.39148    825664.52345
                  22202153.2194                                   22202147.3444
                                                                        48.5004
        32.0004
  -4081367.78147  -3103025.96545
                  23260123.1414                                   23260119.1604
                                                                        45.5004
        32.5004
   2192399.18046   1723380.64844
                  23530584.0704                                   23530581.3674
                                                                        41.5004
        27.2504
   1876445.80546   1477390.39843
                  24523523.0474                                   24523518.1524
                                                                        40.2504
        22.5004
 09 10 18 23 30  0.0000000  0  9G02G04G05G10G13G23G29G30G31
  -1609078.60948  -1199307.06247
                  20433329.8444                                   20433323.6024
                                                                        52.0004
        43.2504
   1808648.25048   1427372.74646
                  21399279.6884                                   21399276.2464
                                                                        50.7504
        39.0004
  -2477455.07047  -1918416.25445
                  23735171.3204                                   23735167.4224
                                                                        45.5004
        31.0004
  -5132702.25847  -3914261.36745
                  22839615.5864                                   22839611.5904
                                                                        45.0004
        31.2504
  -2366355.59048  -1781832.94146
                  21307217.0474                                   21307212.5744
                                                                        51.0004
        36.2504
    987110.09048    795364.34445
                  22194753.8674                                   22194747.5004
                                                                        49.0004
        33.0004
  -4254987.88747  -3238314.39545
                  23227083.6334                                   23227080.3324
                                                                        44.5004
        32.5004
   2181592.89147   1714960.20744
                  23528528.1174                                   23528525.0474
                                                                        42.5004
        28.7504
   1856758.62146   1462049.77743
                  24519776.5704                                   24519772.1684
                                                                        40.2504
        21.7504
 09 10 18 23 30 30.0000000  0  9G02G04G05G10G13G23G29G30G31
  -1712079.88748  -1279567.75447
                  20413729.3204                                   20413723.1914
                                                                        52.5004
        43.0004
   1788453.88348   1411636.77746
                  21395436.7664                                   21395433.2074
                                                                        51.0004
        39.5004
  -2679278.00447  -2075680.86745
                  23696766.2114                                   23696761.3984
                                                                        45.0004
        31.5004
  -5330096.85247  -4068075.33245
                  22802052.3524                                   22802048.8674
                                                                        45.0004
        32.0004
  -2486729.32448  -1875630.59046
                  21284310.6024                                   21284306.0944
                                                                        50.5004
        36.2504
    948880.90648    765575.41445
                  22187478.7274                                   22187472.5634
                                                                        49.5004
        33.0004
  -4428111.92247  -3373216.24245
                  23194139.4304                                   23194136.0824
                                                                        44.5004
        32.0004
   2171343.74247   1706973.78944
                  23526577.9144                                   23526574.6214
                                                                        44.2504
        27.0004
   1837599.83646   1447120.85543
                  24516129.8054                                   24516126.5594
                                                                        38.0004
        22.0004
 09 10 18 23 31  0.0000000  0  9G02G04G05G10G13G23G29G30G31
  -1814406.00048  -1359302.43447
                  20394257.4694                                   20394251.3364
                                                                        52.7504
        43.0004
   1768794.95748   1396318.14546
                  21391695.6884                                   21391692.2774
                                                                        50.5004
        39.2504
  -2880823.41847  -2232729.21945
                  23658412.5394                                   23658408.4964
                                                                        44.0004
        30.5004
  -5527118.12947  -4221598.37945
                  22764560.6334                                   22764557.2774
                                                                        45.0004
        32.0004
  -2606349.30148  -1968840.92246
                  21261547.5944                                   21261543.2234
                                                                        50.7504
        36.2504
    911303.57448    736294.40645
                  22180327.8364                                   22180322.3524
                                                                        48.7504
        32.0004
  -4600741.20347  -3507732.59845
                  23161289.1884                                   23161285.6254
                                                                        45.0004
        31.7504
   2161645.63747   1699416.69544
                  23524732.5164                                   23524729.1134
                                                                        44.5004
        28.7504
   1818964.17246   1432599.45743
                  24512584.2894                                   24512581.1334
                                                                        39.5004
        22.2504
 09 10 18 23 31 30.0000000  0  9G02G04G05G10G13G23G29G30G31
  -1916061.56648  -1438514.62947
                  20374912.9534                                   20374906.8484
                                                                        52.2504
        43.0004
   1749663.54348   1381410.39546
                  21388055.5234                                   21388051.9454
                                                                        50.7504
        39.0004
  -3082095.17647  -2389564.31645
                  23620111.7424                                   23620108.0824
                                                                        43.5004
        31.2504
  -5723769.68047  -4374833.35545
                  22727138.8754                                   22727135.4494
                                                                        45.5004
        31.7504
  -2725220.11348  -2061467.49246
                  21238926.9534                                   21238922.7584
                                                                        50.0004
        36.7504
    874370.57447    707515.49645
                  22173299.7424                                   22173293.3054
                                                                        47.5004
        32.0004
  -4772878.91447  -3641865.86345
                  23128532.6804                                   23128528.8714
                                                                        44.7504
        32.7504
   2152490.14547   1692282.58644
                  23522990.1024                                   23522986.9304
                                                                        43.2504
        27.5004
   1800843.22346   1418479.32043
                  24509136.3444                                   24509132.8364
                                                                        41.0004
        23.5004
 09 10 18 23 32  0.0000000  0  9G02G04G05G10G13G23G29G30G31
  -2017051.55548  -1517208.16447
                  20355695.1334                                   20355689.3054
                                                                        52.0004
        43.0004
   1731052.05548   1366907.61346
                  21384514.0314                                   21384510.7584
                                                                        50.2504
        39.0004
  -3283096.98847  -2546189.06645
                  23581862.0864                                   23581858.5394
                                                                        42.7504
        30.5004
  -5920054.83247  -4527782.75045
                  22689787.5634                                   22689784.1414
                                                                        45.7504
        32.7504
  -2843346.71948  -2153514.15646
                  21216448.3054                                   21216444.0274
                                                                        50.0004
        36.2504
    838073.65247    679232.08645
                  22166392.9614                                   22166386.4844
                                                                        47.5004
        32.0004
  -4944528.41847  -3775618.73445
                  23095869.0164                                   23095865.2074
                                                                        45.0004
        32.5004
   2143868.64847   1685564.53544
                  23521349.2664                                   23521345.7194
                                                                        42.7504
        26.7504
   1783228.89547   1404753.87944
                  24505784.8984                                   24505780.8914
                                                                        42.7504
        27.2504
 09 10 18 23 32 30.0000000  0 10G02G04G05G10G25G13G23G29G30G31
  -2117376.67648  -1595383.50447
                  20336603.6884                                   20336597.5864
                                                                        52.5004
        42.7504
   1712958.51648   1352808.84846
                  21381070.7664                                   21381067.5744
                                                                        48.5004
        38.7504
  -3483828.08647  -2702602.85245
                  23543664.3134                                   23543660.9924
                                                                        43.0004
        31.7504
  -6115972.78147  -4680446.02745
                  22652505.6884                                   22652502.8134
                                                                        47.0004
        33.5004
   2918612.71956   2317415.05153
                  24086395.8364                                   24086392.5634
                                                                        39.7504
        22.0004
  -2960729.48848  -2244981.25046
                  21194111.2274                                   21194106.4574
                                                                        50.5004
        36.0004
    802410.51248    651442.60545
                  22159606.0864                                   22159600.4384
                                                                        48.0004
        33.0004
  -5115687.72747  -3908989.59445
                  23063297.8914                                   23063294.5904
                                                                        45.2504
        32.2504
   2135776.99647   1679259.39844
                  23519809.4534                                   23519805.7584
                                                                        42.5004
        26.0004
   1766117.86747   1391420.71944
                  24502528.5314                                   24502524.3794
                                                                        43.7504
        27.2504
 09 10 18 23 33  0.0000000  0  9G02G04G05G10G25G13G23G29G30
  -2217044.55148  -1673046.69547
                  20317637.3134                                   20317631.8094
                                                                        52.5004
        43.5004
   1695372.32048   1339105.49646
                  21377724.2814                                   21377720.6174
                                                                        50.0004
        38.2504
  -3684294.28947  -2858810.22345
                  23505517.4534                                   23505513.3984
                                                                        44.5004
        31.7504
  -6311528.91047  -4832827.39845
                  22615292.4694                                   22615288.8094
                                                                        45.0004
        32.7504
   2738538.89846   2177097.35943
                  24052129.4774                                   24052125.9454
                                                                        40.5004
        21.5004
  -3077375.77748  -2335874.48046
                  21171913.9844                                   21171909.8554
                                                                        51.0004
        36.5004
    767370.60248    624138.74645
                  22152938.5554                                   22152932.9414
                                                                        48.5004
        32.7504
  -5286362.85947  -4041983.22345
                  23030820.0004                                   23030816.5004
                                                                        45.5004
        32.0004
   2128204.14546   1673358.47343
                  23518368.3364                                   23518365.0204
                                                                        41.5004
        23.2504
 09 10 18 23 33 30.0000000  0  9G02G04G05G10G25G13G23G29G30
   -740636.01648   -522598.47347
                  20598588.9304                                   20598582.8244
                                                                        52.5004
        43.0004
   3253707.93848   2553393.16046
                  21674265.5944                                   21674262.0314
                                                                        50.0004
        38.5004
  -2309071.89847  -1787208.36345
                  23767213.1254                                   23767209.6054
                                                                        45.0004
        31.7504
  -4931299.89547  -3757324.29345
                  22877941.2034                                   22877937.2814
                                                                        46.5004
        33.2504
   4134256.62546   3264670.10543
                  24317725.8834                                   24317721.9534
                                                                        40.0004
        20.2504
  -1617865.02748  -1198593.44546
                  21449649.9224                                   21449645.7704
                                                                        50.2504
        36.5004
   2308368.78548   1824916.52345
                  22446180.4534                                   22446175.2464
                                                                        48.2504
        32.7504
  -3881131.05547  -2946997.34045
                  23298226.2584                                   23298223.1604
                                                                        45.5004
        32.5004
   3696561.59847   2895455.18443
                  23816816.9534                                   23816813.1684
                                                                        42.0004
        23.0004
 09 10 18 23 34  0.0000000  0  9G02G04G05G10G25G13G23G29G30
   -838997.77348   -599244.04347
                  20579871.4924                                   20579865.2464
                                                                        52.5004
        43.5004
   3237120.74248   2540468.19546
                  21671108.9144                                   21671105.2384
                                                                        51.0004
        38.2504
  -2509012.68047  -1943006.33645
                  23729166.1174                                   23729161.1564
                                                                        45.5004
        31.5004
  -5126136.88747  -3909145.40645
                  22840865.0004                                   22840861.1804
                                                                        46.0004
        33.0004
   3954913.00846   3124922.09843
                  24283597.7814                                   24283593.8164
                                                                        40.5004
        20.5004
  -1733045.28548  -1288344.37946
                  21427731.8984                                   21427727.4884
                                                                        50.5004
        36.0004
   2274560.11347   1798572.11345
                  22439747.3524                                   22439741.2274
                                                                        47.2504
        32.0004
  -4050840.89147  -3079238.77745
                  23265931.5634                                   23265927.9774
                                                                        45.5004
        32.5004
   3690006.68847   2890347.45344
                  23815569.5704                                   23815566.0124
                                                                        42.0004
        24.5004
 09 10 18 23 34 30.0000000  0  9G02G04G05G10G25G13G23G29G30
   -936700.41048   -675376.02047
                  20561279.0704                                   20561273.2624
                                                                        52.7504
        42.7504
   3221035.97348   2527934.69546
                  21668048.2194                                   21668044.3284
                                                                        50.5004
        38.5004
  -2708682.75847  -2098593.38345
                  23691169.8134                                   23691165.8524
                                                                        45.0004
        31.0004
  -5320605.28147  -4060679.13345
                  22803858.8594                                   22803855.1524
                                                                        46.7504
        32.7504
   3775943.01646   2985464.91043
                  24249540.1804                                   24249536.3134
                                                                        40.0004
        20.0004
  -1847485.49648  -1377518.55546
                  21405954.5554                                   21405950.2974
                                                                        50.5004
        36.7504
   2241369.49247   1772709.30945
                  22433431.2034                                   22433425.3204
                                                                        47.7504
        32.5004
  -4220059.79347  -3211097.65645
                  23233730.1724                                   23233726.8594
                                                                        45.5004
        32.5004
   3683960.86747   2885636.39144
                  23814419.0554                                   23814416.2074
                                                                        43.0004
        25.5004
 09 10 18 23 35  0.0000000  0  9G02G04G05G10G25G13G23G29G30
  -1033741.15248   -750992.22347
                  20542812.9064                                   20542807.0664
                                                                        52.7504
        43.5004
   3205453.37148   2515792.40646
                  21665082.7584                                   21665079.1844
                                                                        50.5004
        38.5004
  -2908077.62547  -2253966.01645
                  23653226.0004                                   23653222.6524
                                                                        44.7504
        31.7504
  -5514701.12147  -4211922.66845
                  22766923.5634                                   22766919.4614
                                                                        46.2504
        32.0004
   3597351.43046   2846302.50043
                  24215555.2114                                   24215551.7974
                                                                        40.5004
        21.5004
  -1961183.40648  -1466114.37946
                  21384318.5164                                   21384314.0904
                                                                        50.0004
        36.0004
   2208796.80948   1747327.98845
                  22427232.9064                                   22427226.8674
                                                                        48.2504
        31.7504
  -4388782.34447  -3342569.71545
                  23201623.4304                                   23201619.9264
                                                                        46.2504
        32.7504
   3678423.91047   2881321.78944
                  23813365.6724                                   23813362.5864
                                                                        42.5004
        27.2504
 09 10 18 23 35 30.0000000  0  9G02G04G05G10G25G13G23G29G30
  -1130126.13748   -826097.36747
                  20524471.3914                                   20524465.7934
                                                                        52.5004
        43.2504
   3190364.55148   2504034.89546
                  21662211.2974                                   21662207.5944
                                                                        50.7504
        38.2504
  -3107202.12147  -2409127.90245
                  23615333.6334                                   23615329.9694
                                                                        45.5004
        31.5004
  -5708428.80947  -4362879.36745
                  22730058.3754                                   22730054.6454
                                                                        46.5004
        33.0004
   3419133.35546   2707430.36743
                  24181642.2584                                   24181638.8984
                                                                        41.2504
        21.7504
  -2074144.35248  -1554135.88745
                  21362823.0164                                   21362818.3094
                                                                        50.0004
        35.7504
   2176833.49648   1722421.47345
                  22421150.4144                                   22421144.4384
                                                                        48.0004
        32.2504
  -4557012.86347  -3473658.39845
                  23169610.4774                                   23169606.7074
                                                                        46.0004
        33.0004
   3673386.36747   2877396.38744
                  23812407.2814                                   23812403.9224
                                                                        44.0004
        27.5004
 09 10 18 23 36  0.0000000  0  9G02G04G05G10G25G13G23G29G30
  -1225862.14548   -900696.79747
                  20506253.3754                                   20506247.3834
                                                                        52.5004
        43.2504
   3175760.89148   2492655.46546
                  21659432.4454                                   21659428.7734
                                                                        50.5004
        38.0004
  -3306061.24647  -2564082.99245
                  23577492.1644                                   23577488.5824
                                                                        44.5004
        32.2504
  -5901793.10547  -4513552.90645
                  22693262.5314                                   22693258.8594
                                                                        46.7504
        34.5004
   3241285.78546   2568846.91843
                  24147799.4304                                   24147797.0594
                                                                        41.5004
        22.7504
  -2186375.03948  -1641588.37146
                  21341466.0314                                   21341461.8404
                                                                        49.7504
        36.5004
   2145470.21947   1697982.57445
                  22415182.2584                                   22415175.8634
                                                                        47.5004
        31.2504
  -4724756.94947  -3604368.07445
                  23137689.7504                                   23137685.9184
                                                                        45.2504
        33.0004
   3668837.26247   2873851.62544
                  23811541.8284                                   23811538.4494
                                                                        44.5004
        27.5004
 09 10 18 23 36 30.0000000  0  9G02G04G05G10G25G13G23G29G30
  -1320953.28948   -974793.92647
                  20488158.0084                                   20488152.2504
                                                                        53.0004
        43.2504
   3161635.55548   2481648.69946
                  21656744.4694                                   21656741.2384
                                                                        50.7504
        38.2504
  -3504657.51647  -2718833.34045
                  23539701.0634                                   23539697.0744
                                                                        44.0004
        32.5004
  -6094796.01647  -4663944.75045
                  22656535.6024                                   22656531.8164
                                                                        47.2504
        34.0004
   3063810.37946   2430555.25443
                  24114026.8594                                   24114024.5274
                                                                        40.7504
        22.0004
  -2297879.40248  -1728474.91446
                  21320247.4144                                   21320243.1954
                                                                        50.0004
        36.2504
   2114700.78947   1674006.32045
                  22409327.3754                                   22409320.7114
                                                                        47.7504
        32.5004
  -4892015.32047  -3734699.25445
                  23105861.5474                                   23105857.6214
                                                                        44.7504
        33.2504
   3664770.21147   2870682.46944
                  23810767.7344                                   23810764.6294
                                                                        44.5004
        26.0004
 09 10 18 23 37  0.0000000  0  9G02G04G05G10G25G13G23G29G30
  -1415399.19948  -1048388.14847
                  20470185.6954                                   20470179.6454
                                                                        52.5004
        43.5004
   3147987.12548   2471013.50846
                  21654147.5314                                   21654143.8094
                                                                        50.2504
        38.0004
  -3702989.29347  -2873377.57045
                  23501960.1024                                   23501955.8794
                                                                        45.2504
        33.2504
  -6287436.00447  -4814053.75045
                  22619877.2584                                   22619873.2934
                                                                        46.7504
        34.0004
   2886706.39146   2292552.66043
                  24080324.3284                                   24080321.2154
                                                                        40.7504
        22.2504
  -2408656.04348  -1814794.31246
                  21299167.4224                                   21299162.9104
                                                                        49.7504
        36.2504
   2084523.50847   1650491.57045
                  22403584.5394                                   22403578.3284
                                                                        47.7504
        31.7504
  -5058787.12947  -3864651.29745
                  23074125.8134                                   23074122.4414
                                                                        45.2504
        32.5004
   3661180.65247   2867885.42244
                  23810084.6334                                   23810081.5824
                                                                        43.5004
        26.2504
 09 10 18 23 37 30.0000000  0  9G02G04G05G10G25G13G23G29G30
  -1509202.59848  -1121481.70747
                  20452335.6334                                   20452329.5514
                                                                        52.0004
        43.5004
   3134809.66048   2460745.31646
                  21651639.7114                                   21651636.1564
                                                                        51.0004
        37.7504
  -3901057.46947  -3027716.46945
                  23464268.6174                                   23464264.5234
                                                                        45.7504
        32.0004
  -6479713.84447  -4963880.58645
                  22583287.0864                                   22583284.2274
                                                                        47.5004
        33.7504
   2709971.47746   2154837.10243
                  24046693.0474                                   24046689.3634
                                                                        40.7504
        20.7504
  -2518708.78148  -1900549.65246
                  21278224.8524                                   21278220.8204
                                                                        50.2504
        36.2504
   2054932.16848   1627433.39545
                  22397953.1724                                   22397947.0984
                                                                        48.2504
        31.5004
  -5225071.91847  -3994223.86345
                  23042482.5634                                   23042479.5434
                                                                        44.5004
        33.5004
   3658063.59847   2865456.49244
                  23809491.6724                                   23809488.0084
                                                                        43.7504
        25.5004
 09 10 18 23 38  0.0000000  0  9G02G04G05G10G25G13G23G29G30
  -1602363.42648  -1194074.56647
                  20434607.7344                                   20434601.6724
                                                                        51.2504
        43.5004
   3122101.73848   2450843.03146
                  21649221.7194                                   21649218.0354
                                                                        50.5004
        37.7504
  -4098860.72347  -3181848.88345
                  23426627.3444                                   23426623.7504
                                                                        44.5004
        32.5004
  -6671627.69147  -5113423.82445
                  22546767.7504                                   22546764.0944
                                                                        46.7504
        33.0004
   2533611.34846   2017414.01243
                  24013132.9614                                   24013129.0124
                                                                        41.5004
        20.5004
  -2628036.29348  -1985739.86746
                  21257420.7424                                   21257416.0744
                                                                        49.0004
        36.5004
   2025925.00047   1604830.40645
                  22392433.6804                                   22392427.3014
                                                                        46.5004
        30.5004
  -5390868.94947  -4123416.32845
                  23010932.4534                                   23010929.2894
                                                                        44.0004
        33.5004
   3655414.62547   2863392.36744
                  23808986.7504                                   23808984.2894
                                                                        43.2504
        26.2504
 09 10 18 23 38 30.0000000  0  9G02G04G05G10G25G13G23G29G30
  -1694883.66848  -1266168.23847
                  20417001.5394                                   20416995.5864
                                                                        51.7504
        43.0004
   3109858.41048   2441302.76646
                  21646891.8674                                   21646887.9384
                                                                        50.5004
        37.5004
  -4296399.22347  -3335774.94145
                  23389037.2034                                   23389033.0594
                                                                        46.0004
        32.0004
  -6863177.96547  -5262683.77745
                  22510316.5314                                   22510313.0554
                                                                        46.5004
        33.0004
   2357624.33647   1880281.50843
                  23979643.0784                                   23979640.0044
                                                                        42.2504
        22.0004
  -2736641.39148  -2070367.27046
                  21236753.8524                                   21236749.3874
                                                                        50.2504
        36.5004
   1997497.04747   1582678.79745
                  22387023.7974                                   22387017.7894
                                                                        46.5004
        30.5004
  -5556177.47347  -4252228.15645
                  22979475.6724                                   22979471.6604
                                                                        44.5004
        33.5004
   3653228.55147   2861688.87144
                  23808571.1174                                   23808568.0944
                                                                        43.2504
        26.0004
 09 10 18 23 39  0.0000000  0  9G02G04G05G10G25G13G23G29G30
  -1786768.41448  -1337766.65647
                  20399516.4224                                   20399510.6094
                                                                        52.0004
        43.5004
   3098072.98048   2432119.30546
                  21644649.1254                                   21644645.2234
                                                                        50.0004
        38.0004
  -4493676.68747  -3489497.70345
                  23351496.1644                                   23351492.4024
                                                                        45.2504
        31.5004
  -7054367.66847  -5411662.71945
                  22473934.7344                                   22473930.9144
                                                                        47.5004
        33.0004
   2182008.83247   1743438.48843
                  23946224.3914                                   23946220.9494
                                                                        42.0004
        22.2504
  -2844527.96548  -2154434.82446
                  21216223.7344                                   21216218.9494
                                                                        49.7504
        36.7504
   1969641.06347   1560972.82445
                  22381723.3364                                   22381717.0084
                                                                        46.5004
        32.0004
  -5721001.19947  -4380662.29745
                  22948110.4614                                   22948106.9574
                                                                        44.2504
        33.5004
   3651496.89847   2860339.51644
                  23808241.8834                                   23808238.6524
                                                                        44.5004
        25.0004
 09 10 18 23 39 30.0000000  0  9G02G04G05G10G25G13G23G29G30
  -1878020.58648  -1408872.27047
                  20382151.7274                                   20382145.7424
                                                                        52.0004
        43.2504
   3086740.25848   2423288.62946
                  21642492.5944                                   21642489.0274
                                                                        50.0004
        38.0004
  -4690693.74647  -3643017.47345
                  23314005.7734                                   23314001.6564
                                                                        43.7504
        34.0004
  -7245197.94547  -5560361.68045
                  22437620.8594                                   22437616.9614
                                                                        47.2504
        34.2504
   2006763.79746   1606884.05943
                  23912876.0394                                   23912872.6414
                                                                        41.2504
        22.0004
  -2951698.85248  -2237944.61746
                  21195829.6484                                   21195825.7194
                                                                        48.7504
        36.7504
   1942351.81647   1539708.45345
                  22376530.2814                                   22376523.9964
                                                                        47.7504
        31.7504
  -5885339.85547  -4508718.38745
                  22916838.2584                                   22916834.1724
                                                                        44.2504
        33.5004
   3650213.77347   2859339.73443
                  23807997.7344                                   23807994.4304
                                                                        44.0004
        22.5004
 09 10 18 23 40  0.0000000  0  9G02G04G05G10G25G13G23G29G30
  -1968638.28948  -1479483.41447
                  20364907.7114                                   20364901.9774
                                                                        52.0004
        42.7504
   3075859.55148   2414810.14146
                  21640421.8284                                   21640418.3954
                                                                        50.5004
        37.0004
  -4887447.13747  -3796331.77345
                  23276564.9384                                   23276561.1414
                                                                        46.2504
        33.5004
  -7435665.13347  -5708777.65645
                  22401376.1884                                   22401372.6914
                                                                        46.7504
        34.2504
   1831893.25846   1470621.35943
                  23879599.5784                                   23879596.5004
                                                                        41.5004
        22.5004
  -3058152.27048  -2320895.36746
                  21175572.5234                                   21175568.0394
                                                                        49.7504
        36.7504
   1915628.67647   1518885.23445
                  22371444.9694                                   22371438.9774
                                                                        47.5004
        32.5004
  -6049190.54747  -4636394.23045
                  22885658.8984                                   22885654.6844
                                                                        44.5004
        33.5004
   3649376.83247   2858687.56343
                  23807837.9924                                   23807834.4884
                                                                        43.5004
        23.2504
 09 10 18 23 40 30.0000000  0  9G02G04G05G10G25G13G23G29G30
  -2058623.55948  -1549601.81647
                  20347784.2814                                   20347778.2424
                                                                        52.5004
        43.0004
   3065426.79348   2406680.69146
                  21638436.3524                                   21638433.1334
                                                                        49.7504
        37.5004
  -5083937.39147  -3949441.01645
                  23239173.5704                                   23239170.2114
                                                                        46.2504
        33.2504
  -7625769.34847  -5856910.78945
                  22365200.7424                                   22365197.3094
                                                                        47.5004
        35.0004
   1657397.69547   1334650.57843
                  23846395.0704                                   23846390.2854
                                                                        42.2504
        22.7504
  -3163889.71148  -2403288.28146
                  21155451.3524                                   21155446.9694
                                                                        49.2504
        36.5004
   1889467.60248   1498499.98845
                  22366466.6334                                   22366461.0004
                                                                        48.2504
        33.2504
  -6212553.12547  -4763689.74645
                  22854571.3674                                   22854567.5474
                                                                        45.5004
        33.5004
   3648980.90647   2858379.04344
                  23807763.3524                                   23807759.3094
                                                                        44.7504
        26.0004
 09 10 18 23 41  0.0000000  0  9G02G04G05G10G25G13G23G29G30
  -2147977.85548  -1619228.53947
                  20330780.6254                                   20330774.3444
                                                                        52.0004
        43.0004
   3055437.89848   2398897.04746
                  21636535.4694                                   21636532.2974
                                                                        50.2504
        38.0004
  -5280164.68047  -4102345.37145
                  23201832.5084                                   23201828.9494
                                                                        46.2504
        34.0004
  -7815510.45747  -6004761.02745
                  22329093.7974                                   22329090.6844
                                                                        47.7504
        34.7504
   1483278.82847   1198973.65643
                  23813260.8674                                   23813257.1414
                                                                        42.0004
        22.5004
  -3268912.92248  -2485124.68446
                  21135466.1724                                   21135462.0354
                                                                        49.7504
        36.2504
   1863863.87547   1478549.04745
                  22361594.5084                                   22361588.5124
                                                                        46.7504
        31.5004
  -6375426.94547  -4890604.41045
                  22823577.6254                                   22823574.0084
                                                                        45.0004
        34.2504
   3649020.96947   2858410.21944
                  23807770.6804                                   23807767.5514
                                                                        44.2504
        27.0004
 09 10 18 23 41 30.0000000  0  9G02G04G05G10G25G13G23G29G30
  -2236702.80948  -1688364.85547
                  20313896.8364                                   20313891.0234
                                                                        52.0004
        43.0004
   3045889.45748   2391456.56346
                  21634718.9924                                   21634715.5664
                                                                        49.7504
        37.0004
  -5476128.00847  -4255044.02745
                  23164542.0784                                   23164538.4574
                                                                        45.5004
        33.2504
  -8004887.44548  -6152327.49645
                  22293056.8914                                   22293053.6214
                                                                        48.0004
        34.7504
   1309537.42646   1063590.89843
                  23780198.3204                                   23780194.8984
                                                                        41.5004
        22.5004
  -3373222.61348  -2566405.03946
                  21115617.1644                                   21115612.8834
                                                                        49.0004
        36.7504
   1838813.69548   1459029.43845
                  22356827.5634                                   22356821.3594
                                                                        48.0004
        31.5004
  -6537811.37947  -5017137.71545
                  22792676.9224                                   22792673.5784
                                                                        44.5004
        33.5004
   3649492.37147   2858777.57044
                  23807860.4384                                   23807856.8444
                                                                        44.5004
        26.0004
 09 10 18 23 42  0.0000000  0  9G02G04G05G10G25G13G23G29G30
  -2324798.69548  -1757011.05947
                  20297132.7194                                   20297126.9384
                                                                        51.0004
        43.0004
   3036779.18848   2384357.61346
                  21632985.4534                                   21632981.7624
                                                                        49.7504
        37.2504
  -5671826.06247  -4407536.03545
                  23127302.1484                                   23127298.0634
                                                                        45.0004
        32.7504
  -8193898.99647  -6299609.21145
                  22257088.5394                                   22257085.6134
                                                                        47.7504
        34.5004
   1136174.97746    928503.41843
                  23747207.7114                                   23747204.9304
                                                                        41.5004
        22.5004
  -3476819.10548  -2647129.52746
                  21095903.1414                                   21095898.9064
                                                                        49.5004
        36.5004
   1814314.28947   1439938.98844
                  22352165.4064                                   22352159.1454
                                                                        47.0004
        29.7504
  -6699704.44547  -5143288.12945
                  22761869.6954                                   22761866.4494
                                                                        44.7504
        33.7504
   3650391.63747   2859478.27744
                  23808031.4144                                   23808028.1994
                                                                        43.0004
        25.7504
 09 10 18 23 42 30.0000000  0  9G02G04G05G10G25G13G23G29G30
   -836845.54348   -597567.05147
                  20580280.9304                                   20580275.1094
                                                                        51.5004
        43.0004
   4603521.96948   3605196.04346
                  21931126.6414                                   21931123.3014
                                                                        50.0004
        37.7504
  -4291833.52747  -3332217.12145
                  23389906.1564                                   23389902.2934
                                                                        45.7504
        33.2504
  -6807119.85947  -5219002.00845
                  22520984.3754                                   22520980.6724
                                                                        46.7504
        33.7504
   2538617.27746   2021315.72343
                  24014084.2814                                   24014080.8794
                                                                        41.2504
        22.5004
  -2004281.69948  -1499697.68046
                  21376117.3524                                   21376113.1334
                                                                        49.0004
        36.0004
   3365781.29747   2648874.32445
                  22647399.5314                                   22647393.3054
                                                                        45.2504
        30.2504
  -5285682.85947  -4041453.11345
                  23030948.7344                                   23030945.8014
                                                                        44.0004
        34.0004
   5227131.31347   4088106.57844
                  24108075.0084                                   24108071.9534
                                                                        42.2504
        26.0004
 09 10 18 23 43  0.0000000  0  9G02G04G05G10G25G13G23G29G30
   -923684.91448   -665234.10247
                  20563756.0314                                   20563750.0634
                                                                        52.2504
        43.0004
   4595279.59848   3598773.41846
                  21929558.3284                                   21929555.0514
                                                                        50.2504
        37.0004
  -4486998.03147  -3484293.27045
                  23352767.7584                                   23352763.4224
                                                                        47.5004
        33.5004
  -6995396.69947  -5365711.28545
                  22485156.4614                                   22485152.8404
                                                                        47.0004
        35.2504
   2366019.51646   1886824.06343
                  23981240.0394                                   23981236.6134
                                                                        41.2504
        22.7504
  -2106453.36348  -1579312.03946
                  21356674.4924                                   21356670.4884
                                                                        49.2504
        36.5004
   3342375.23047   2630635.86344
                  22642945.5944                                   22642939.4574
                                                                        45.5004
        29.5004
  -5446590.40247  -4166835.61345
                  23000329.0004                                   23000325.5704
                                                                        44.5004
        34.0004
   5228873.03546   4089463.77044
                  24108406.3594                                   24108403.4344
                                                                        41.0004
        25.5004
 09 10 18 23 43 30.0000000  0  9G02G04G05G10G25G13G23G29G30
  -1009899.19548   -732414.02047
                  20547349.5474                                   20547343.6174
                                                                        52.0004
        42.5004
   4587464.51248   3592683.78146
                  21928071.2344                                   21928068.0204
                                                                        49.2504
        37.5004
  -4681895.85547  -3636161.65645
                  23315679.2344                                   23315675.8364
                                                                        46.5004
        34.0004
  -7183305.96147  -5512134.00845
                  22449398.5864                                   22449394.7584
                                                                        47.5004
        35.0004
   2193803.91046   1752630.25444
                  23948468.6884                                   23948464.9064
                                                                        41.2504
        24.5004
  -2207915.68448  -1658373.54346
                  21337367.2344                                   21337362.8954
                                                                        49.0004
        36.2504
   3319508.49647   2612817.59845
                  22638594.1724                                   22638588.0084
                                                                        46.7504
        30.0004
  -5607004.23847  -4291833.40245
                  22969803.5704                                   22969799.6024
                                                                        45.0004
        33.2504
   5231028.30547   4091143.13744
                  24108816.5784                                   24108813.2734
                                                                        42.0004
        24.7504
 09 10 18 23 44  0.0000000  0  9G02G04G05G10G25G13G23G29G30
  -1095491.10548   -799109.03147
                  20531062.3054                                   20531056.3554
                                                                        52.0004
        42.2504
   4580072.07048   3586923.43446
                  21926664.5084                                   21926660.8244
                                                                        49.5004
        37.0004
  -4876528.30547  -3787823.27745
                  23278641.7974                                   23278638.5664
                                                                        46.7504
        34.5004
  -7370848.85547  -5658271.29345
                  22413710.5004                                   22413706.6684
                                                                        47.2504
        34.5004
   2021971.20346   1618734.74643
                  23915769.4694                                   23915765.9534
                                                                        41.5004
        23.2504
  -2308670.87548  -1736884.09846
                  21318194.3204                                   21318189.4414
                                                                        49.2504
        36.5004
   3297176.42647   2595415.93045
                  22634344.5634                                   22634338.8484
                                                                        46.5004
        32.0004
  -5766925.86347  -4416447.67245
                  22939371.4774                                   22939367.8134
                                                                        45.0004
        33.5004
   5233590.44147   4093139.52044
                  24109304.2194                                   24109301.1214
                                                                        42.2504
        24.7504
 09 10 18 23 44 30.0000000  0  9G02G04G05G10G25G13G23G29G30
  -1180461.20748   -865319.51247
                  20514892.7034                                   20514886.9344
                                                                        52.0004
        43.2504
   4573099.05548   3581489.68846
                  21925337.5704                                   21925333.6174
                                                                        49.5004
        36.5004
  -5070894.61347  -3939277.44545
                  23241655.1334                                   23241651.8364
                                                                        45.7504
        33.7504
  -7558024.43047  -5804122.41845
                  22378091.9694                                   22378088.0124
                                                                        46.5004
        34.5004
   1850522.87947   1485138.75044
                  23883144.2814                                   23883140.0554
                                                                        42.0004
        24.7504
  -2408719.28148  -1814843.76246
                  21299155.5234                                   21299150.9494
                                                                        49.0004
        36.5004
   3275375.73047   2578428.31645
                  22630196.3054                                   22630190.4264
                                                                        46.5004
        32.0004
  -5926354.01647  -4540677.44545
                  22909033.2584                                   22909029.8094
                                                                        45.5004
        34.2504
   5236555.60547   4095449.97344
                  24109868.6024                                   24109865.7814
                                                                        42.5004
        25.0004
 09 10 18 23 45  0.0000000  0  9G02G04G05G10G25G13G23G29G30
  -1264811.09048   -931046.62147
                  20498841.4774                                   20498835.4774
                                                                        51.5004
        42.7504
   4566542.89848   3576380.92646
                  21924090.1024                                   21924086.5514
                                                                        48.2504
        36.0004
  -5264993.54347  -4090523.32445
                  23204719.5314                                   23204716.1214
                                                                        47.2504
        34.5004
  -7744830.97747  -5949685.89145
                  22342543.6644                                   22342539.9534
                                                                        47.2504
        35.2504
   1679460.27746   1351843.37943
                  23850591.5944                                   23850587.7384
                                                                        41.0004
        22.2504
  -2508062.66448  -1892254.20346
                  21280251.2894                                   21280247.0354
                                                                        48.7504
        36.5004
   3254103.34047   2561852.41845
                  22626148.3134                                   22626142.3984
                                                                        47.0004
        32.0004
  -6085287.12547  -4664521.46545
                  22878789.3984                                   22878785.6414
                                                                        45.5004
        34.7504
   5239919.57047   4098071.18043
                  24110508.8524                                   24110505.4064
                                                                        43.0004
        23.5004
 09 10 18 23 45 30.0000000  0  9G02G04G05G10G25G13G23G29G30
  -1348541.68448   -996291.19547
                  20482908.2034                                   20482902.2854
                                                                        52.0004
        42.7504
   4560400.43448   3571594.80946
                  21922921.0474                                   21922917.5474
                                                                        48.0004
        37.0004
  -5458824.69147  -4241560.58645
                  23167834.8054                                   23167831.0394
                                                                        47.5004
        34.7504
  -7931268.07447  -6094961.47345
                  22307066.3284                                   22307062.3324
                                                                        47.7504
        35.0004
   1508784.47746   1218849.38343
                  23818113.0704                                   23818109.0824
                                                                        39.0004
        22.7504
  -2606702.01648  -1969115.98846
                  21261480.6644                                   21261476.3794
                                                                        48.5004
        36.5004
   3233355.16447   2545684.97345
                  22622200.2504                                   22622194.2544
                                                                        46.2504
        30.7504
  -6243724.43747  -4787979.13745
                  22848640.1414                                   22848636.1564
                                                                        46.2504
        34.2504
   5243677.63747   4100999.49244
                  24111224.3364                                   24111220.5354
                                                                        43.5004
        24.5004
 09 10 18 23 46  0.0000000  0  9G02G04G05G10G25G13G23G29G30
  -1431646.97748  -1061048.56247
                  20467093.6254                                   20467087.6214
                                                                        51.5004
        42.5004
   4554675.05948   3567133.58646
                  21921831.5474                                   21921827.5594
                                                                        49.2504
        36.5004
  -5652379.52047  -4392382.52045
                  23131002.5314                                   23130998.5664
                                                                        47.0004
        34.0004
  -8117327.82447  -6239943.09445
                  22271659.9224                                   22271656.4064
                                                                        46.2504
        35.0004
   1338503.65246   1086162.85943
                  23785710.6954                                   23785706.2974
                                                                        39.7504
        22.5004
  -2704630.85548  -2045424.12546
                  21242845.0864                                   21242841.1054
                                                                        48.0004
        36.7504
   3213134.77347   2529928.77045
                  22618352.2114                                   22618346.7114
                                                                        46.5004
        31.2504
  -6401658.19947  -4911044.43045
                  22818586.1254                                   22818582.3444
                                                                        45.0004
        34.0004
   5247832.66847   4104237.14844
                  24112015.2504                                   24112011.1684
                                                                        44.2504
        24.7504
 09 10 18 23 46 30.0000000  0  9G02G04G05G10G25G13G23G29G30
  -1514135.38748  -1125325.26247
                  20451396.8524                                   20451391.0634
                                                                        52.0004
        43.0004
   4549356.05948   3562988.93846
                  21920819.4064                                   21920815.5234
                                                                        48.7504
        36.2504
  -5845665.04347  -4542994.60245
                  23094221.5164                                   23094217.6094
                                                                        47.7504
        34.2504
  -8303016.66448  -6384635.66445
                  22236324.3204                                   22236320.5944
                                                                        48.0004
        34.5004
   1168612.07446    953779.51243
                  23753380.3364                                   23753377.3914
                                                                        39.5004
        22.7504
  -2801857.52348  -2121185.00846
                  21224343.4454                                   21224339.2074
                                                                        50.0004
        36.5004
   3193432.24247   2514576.15644
                  22614602.6254                                   22614597.4344
                                                                        46.2504
        29.2504
  -6559094.19947  -5033721.85945
                  22788626.7504                                   22788623.0314
                                                                        45.0004
        34.0004
   5252372.94947   4107774.99644
                  24112879.2584                                   24112874.7774
                                                                        43.0004
        24.7504
 09 10 18 23 47  0.0000000  0  9G02G04G05G10G25G13G23G29G30
  -1596007.55948  -1189121.77347
                  20435816.9144                                   20435810.8444
                                                                        51.5004
        42.5004
   4544441.01248   3559159.01246
                  21919883.9614                                   21919880.4694
                                                                        48.5004
        36.2504
  -6038680.38347  -4693396.18045
                  23057491.9614                                   23057487.5234
                                                                        47.0004
        33.5004
  -8488333.03948  -6529038.02345
                  22201060.3364                                   22201056.2734
                                                                        48.0004
        35.2504
    999112.93846    821702.18444
                  23721126.0394                                   23721122.8364
                                                                        41.5004
        24.7504
  -2898382.65648  -2196399.31246
                  21205975.1724                                   21205970.9734
                                                                        49.5004
        36.7504
   3174243.94147   2499624.20745
                  22610950.8834                                   22610945.5354
                                                                        45.2504
        31.0004
  -6716031.37547  -5156010.54745
                  22758762.6094                                   22758758.6294
                                                                        45.7504
        33.5004
   5257294.18046   4111609.59043
                  24113814.8284                                   24113811.6644
                                                                        40.5004
        23.0004
 09 10 18 23 47 30.0000000  0  9G02G04G05G10G25G13G23G29G30
  -1677260.40248  -1252435.68747
                  20420355.0474                                   20420349.0004
                                                                        51.5004
        43.0004
   4539930.70748   3555644.47346
                  21919025.8444                                   21919022.2584
                                                                        49.0004
        36.5004
  -6231420.07047  -4843582.94545
                  23020814.5084                                   23020810.4614
                                                                        47.0004
        33.5004
  -8673271.82048  -6673146.14845
                  22165867.2274                                   22165863.2974
                                                                        48.2504
        35.5004
    830011.01647    689934.60944
                  23688947.4694                                   23688943.6524
                                                                        42.0004
        25.5004
  -2994203.69148  -2271065.13746
                  21187741.2664                                   21187737.2934
                                                                        49.0004
        36.0004
   3155570.05547   2485073.12545
                  22607397.8834                                   22607391.7194
                                                                        46.5004
        30.0004
  -6872464.21147  -5277906.25445
                  22728994.5634                                   22728990.6484
                                                                        45.0004
        33.0004
   5262596.99246   4115741.59444
                  24114824.3524                                   24114821.6414
                                                                        41.2504
        25.0004
 09 10 18 23 48  0.0000000  0  9G02G04G05G10G25G13G23G29G30
  -1757892.66848  -1315266.02347
                  20405011.0004                                   20405005.5904
                                                                        51.2504
        42.5004
   4535825.00848   3552445.23046
                  21918244.3834                                   21918240.7934
                                                                        48.7504
        36.0004
  -6423880.98047  -4993552.46945
                  22984190.6094                                   22984187.1954
                                                                        47.5004
        34.7504
  -8857829.83648  -6816957.57845
                  22130746.9694                                   22130743.1024
                                                                        48.2504
        35.5004
    661310.50447    558479.76644
                  23656844.9064                                   23656840.9654
                                                                        42.2504
        25.5004
  -3089318.68448  -2345180.89145
                  21169641.5944                                   21169637.1134
                                                                        49.5004
        35.7504
   3137410.37147   2470922.71545
                  22603942.6954                                   22603936.4734
                                                                        46.5004
        30.2504
  -7028389.43747  -5399406.37945
                  22699322.8594                                   22699318.8834
                                                                        44.5004
        33.5004
   5268278.78146   4120168.85544
                  24115904.8674                                   24115903.2894
                                                                        41.7504
        24.2504
 09 10 18 23 48 30.0000000  0  9G02G04G05G10G25G13G23G29G30
  -1837908.30148  -1377615.87147
                  20389784.7814                                   20389779.0044
                                                                        51.5004
        42.2504
   4532117.55948   3549556.27046
                  21917538.8754                                   21917535.5394
                                                                        49.5004
        37.0004
  -6616064.91448  -5143306.19945
                  22947619.3204                                   22947615.4844
                                                                        48.2504
        35.5004
  -9042008.15248  -6960473.14845
                  22095698.8754                                   22095695.6174
                                                                        48.5004
        35.5004
    493009.73047    427336.38344
                  23624817.6954                                   23624814.1294
                                                                        42.7504
        24.5004
  -3183731.32448  -2418749.21946
                  21151675.6254                                   21151670.9494
                                                                        49.2504
        36.5004
   3119758.69547   2457168.19945
                  22600583.8914                                   22600577.1374
                                                                        47.0004
        30.0004
  -7183808.40647  -5520512.03145
                  22669747.6484                                   22669743.6024
                                                                        45.2504
        34.0004
   5274332.96147   4124886.27744
                  24117057.3444                                   24117054.9384
                                                                        42.2504
        25.2504
 09 10 18 23 49  0.0000000  0  8G02G04G05G10G25G13G23G29
  -1917308.96148  -1439486.51247
                  20374675.1884                                   20374669.0394
                                                                        51.7504
        43.0004
   4528804.34048   3546974.36346
                  21916908.5164                                   21916904.9884
                                                                        49.5004
        36.0004
  -6807971.27348  -5292843.62945
                  22911101.1094                                   22911097.0474
                                                                        48.2504
        35.5004
  -9225806.91048  -7103692.91846
                  22060723.0164                                   22060719.2584
                                                                        48.5004
        36.0004
    325109.36346    296504.86744
                  23592866.9614                                   23592864.2074
                                                                        41.7504
        24.0004
  -3277443.14148  -2491771.46146
                  21133843.0634                                   21133838.9844
                                                                        49.5004
        37.0004
   3102610.48847   2443805.99245
                  22597320.3914                                   22597313.6024
                                                                        46.5004
        30.0004
  -7338721.21947  -5641223.28145
                  22640268.8444                                   22640265.2894
                                                                        44.5004
        35.0004
 09 10 18 23 49 30.0000000  0  8G02G04G05G10G25G13G23G29
  -1996096.39548  -1500879.30147
                  20359682.6804                                   20359676.5784
                                                                        51.5004
        42.5004
   4525882.30148   3544697.28946
                  21916352.9694                                   21916349.1414
                                                                        49.2504
        36.2504
  -6999600.75848  -5442165.29745
                  22874635.3284                                   22874630.9454
                                                                        48.2504
        35.7504
  -9409225.87948  -7246616.80946
                  22025819.6954                                   22025815.9924
                                                                        48.0004
        36.0004
    157611.00046    165986.65243
                  23560993.5864                                   23560989.5394
                                                                        40.5004
        22.0004
  -3370455.94148  -2564248.93446
                  21116142.7344                                   21116138.6844
                                                                        49.5004
        36.5004
   3085961.84047   2430833.00045
                  22594152.3364                                   22594146.0004
                                                                        46.2504
        30.0004
  -7493127.74647  -5761540.05545
                  22610886.1024                                   22610882.7034
                                                                        46.5004
        35.2504
 09 10 18 23 50  0.0000000  0  8G02G04G05G10G25G13G23G29
  -2074265.16848  -1561790.05947
                  20344807.4064                                   20344801.6334
                                                                        51.7504
        42.7504
   4523354.31648   3542727.26246
                  21915871.9144                                   21915868.2624
                                                                        49.5004
        36.0004
  -7190945.14148  -5591264.74645
                  22838222.7814                                   22838219.0664
                                                                        48.0004
        35.0004
  -9592256.45747  -7389238.03546
                  21990990.2344                                   21990986.6374
                                                                        47.7504
        36.5004
     -9477.92246     35787.49643
                  23529197.3834                                   23529192.9454
                                                                        40.7504
        22.0004
  -3462764.52748  -2636177.66446
                  21098577.2504                                   21098573.2814
                                                                        50.0004
        37.0004
   3069815.59847   2418251.49645
                  22591079.5164                                   22591073.6604
                                                                        45.2504
        30.5004
  -7647019.50047  -5881455.72345
                  22581601.5314                                   22581598.4414
                                                                        45.5004
        35.5004
 09 10 18 23 50 30.0000000  0  8G02G04G05G10G25G13G23G29
  -2151813.16448  -1622217.07447
                  20330050.5944                                   20330044.5124
                                                                        51.5004
        42.2504
   4521221.35248   3541065.20346
                  21915465.7664                                   21915462.3914
                                                                        49.7504
        36.7504
  -7382000.70347  -5740139.18745
                  22801866.0394                                   22801862.7074
                                                                        47.7504
        34.7504
  -9774895.37147  -7531554.05145
                  21956235.2034                                   21956231.4344
                                                                        47.5004
        35.0004
   -176152.45746    -94088.84443
                  23497480.3284                                   23497476.8054
                                                                        41.2504
        23.2504
  -3554366.73848  -2707556.00046
                  21081145.9924                                   21081142.0394
                                                                        50.0004
        36.7504
   3054172.27347   2406061.95345
                  22588102.5234                                   22588096.5784
                                                                        44.5004
        30.5004
  -7800392.64147  -6000967.24646
                  22552415.8364                                   22552412.4384
                                                                        47.2504
        36.0004
 09 10 18 23 51  0.0000000  0  8G02G04G05G10G25G13G23G29
  -2228744.84448  -1682163.81247
                  20315411.0864                                   20315405.1374
                                                                        52.2504
        42.5004
   4519476.64548   3539705.70346
                  21915133.9064                                   21915130.6564
                                                                        48.7504
        36.5004
  -7572769.39848  -5888790.09845
                  22765564.4694                                   22765560.2894
                                                                        48.0004
        34.5004
  -9957144.96147  -7673566.74646
                  21921554.2584                                   21921550.7034
                                                                        47.5004
        36.5004
   -342414.20747   -223643.38344
                  23465842.2274                                   23465838.2974
                                                                        43.2504
        24.0004
  -3645266.71148  -2778387.11346
                  21063848.2034                                   21063843.9654
                                                                        48.7504
        36.7504
   3039024.68447   2394258.68045
                  22585220.0864                                   22585214.3984
                                                                        45.7504
        30.7504
  -7953249.55947  -6120076.54745
                  22523327.4454                                   22523324.3284
                                                                        45.7504
        35.0004
 09 10 18 23 51 30.0000000  0  8G02G04G05G10G25G13G23G29
   -729641.23448   -514031.13347
                  20600680.9144                                   20600674.7734
                                                                        52.5004
        43.0004
   6093534.59048   4766244.32445
                  22214666.8054                                   22214663.8594
                                                                        48.0004
        35.5004
  -6187826.50048  -4809613.81245
                  23029110.1484                                   23029106.0664
                                                                        48.0004
        35.0004
  -8563580.50447  -6587672.38346
                  22186740.8444                                   22186737.3794
                                                                        47.5004
        36.0004
   1067161.61347    874727.40644
                  23734075.3674                                   23734072.1644
                                                                        43.0004
        26.0004
  -2160045.10948  -1621071.52345
                  21346476.5864                                   21346472.1054
                                                                        48.0004
        35.7504
   4599787.74647   3610437.70744
                  22882223.2194                                   22882217.9774
                                                                        45.0004
        29.5004
  -6530166.42647  -5011180.58245
                  22794131.3754                                   22794128.2934
                                                                        46.5004
        34.7504
 09 10 18 23 52  0.0000000  0  8G02G04G05G10G25G13G23G29
   -805349.72348   -573024.77347
                  20586274.0944                                   20586268.3524
                                                                        51.5004
        43.0004
   6092550.92248   4765477.90246
                  22214480.1094                                   22214476.5354
                                                                        48.2504
        36.0004
  -6378024.95748  -4957820.40645
                  22992916.7424                                   22992912.2114
                                                                        48.0004
        35.2504
  -8745053.33648  -6729079.75845
                  22152207.6884                                   22152203.6374
                                                                        48.2504
        35.7504
    901723.54347    745814.69144
                  23702593.3134                                   23702589.9264
                                                                        43.5004
        25.2504
  -2249550.94148  -1690816.35946
                  21329444.2034                                   21329439.6844
                                                                        48.5004
        36.2504
   4585615.47347   3599394.37944
                  22879526.1024                                   22879520.3794
                                                                        45.5004
        29.7504
  -6681992.66447  -5129486.70745
                  22765239.7114                                   22765236.4574
                                                                        45.5004
        34.0004
 09 10 18 23 52 30.0000000  0  8G02G04G05G10G25G13G23G29
   -880451.22748   -631545.40247
                  20571982.8364                                   20571976.7154
                                                                        52.7504
        42.7504
   6091940.07847   4765001.82445
                  22214363.4454                                   22214360.2584
                                                                        47.2504
        35.7504
  -6567939.64848  -5105805.87945
                  22956776.8914                                   22956772.9064
                                                                        48.0004
        35.5004
  -8926139.21948  -6870185.65246
                  22117747.9694                                   22117744.4734
                                                                        48.0004
        36.5004
    736696.73847    617222.39844
                  23671190.4924                                   23671186.4024
                                                                        43.0004
        24.0004
  -2338363.41448  -1760020.89146
                  21312543.6564                                   21312539.4454
                                                                        48.5004
        36.5004
   4571922.70347   3588724.73045
                  22876920.9064                                   22876914.7464
                                                                        45.7504
        30.0004
  -6833305.28147  -5247392.61345
                  22736445.8754                                   22736442.1604
                                                                        45.7504
        33.7504
 09 10 18 23 53  0.0000000  0  8G02G04G05G10G25G13G23G29
   -954951.65648   -689597.69147
                  20557805.7584                                   20557799.7034
                                                                        52.0004
        43.0004
   6091695.14147   4764810.93045
                  22214317.3284                                   22214313.8754
                                                                        47.2504
        35.5004
  -6757574.69547  -5253573.42245
                  22920690.7734                                   22920686.9184
                                                                        47.7504
        35.7504
  -9106842.18747  -7010993.20346
                  22083361.5634                                   22083357.7544
                                                                        47.7504
        36.2504
    572078.69147    488948.67644
                  23639864.0474                                   23639860.5704
                                                                        43.2504
        25.0004
  -2426488.78948  -1828690.05146
                  21295774.1414                                   21295769.8674
                                                                        49.0004
        36.5004
   4558701.41847   3578422.50044
                  22874405.1094                                   22874398.6294
                                                                        45.5004
        28.7504
  -6984108.53947  -5364901.66445
                  22707749.1804                                   22707745.4694
                                                                        47.2504
        35.0004
 09 10 18 23 53 30.0000000  0  8G02G04G05G10G25G13G23G29
  -1028851.10948   -747181.67247
                  20543743.3444                                   20543737.0824
                                                                        52.7504
        42.5004
   6091813.55548   4764903.27745
                  22214339.6564                                   22214336.2504
                                                                        48.0004
        35.0004
  -6946927.49248  -5401121.05145
                  22884658.2734                                   22884654.2854
                                                                        48.2504
        35.5004
  -9287159.17648  -7151499.90646
                  22049048.3134                                   22049044.7894
                                                                        49.0004
        36.0004
    407870.99247    360994.61844
                  23608616.2034                                   23608612.7584
                                                                        42.0004
        26.0004
  -2513927.50448  -1896824.07446
                  21279135.0554                                   21279130.7584
                                                                        49.2504
        36.5004
   4545949.82047   3568486.22344
                  22871978.2664                                   22871971.9494
                                                                        45.7504
        28.7504
  -7134399.07047  -5482011.21945
                  22679150.1024                                   22679146.2894
                                                                        47.5004
        35.2504
 09 10 18 23 54  0.0000000  0  8G02G04G05G10G25G13G23G29
  -1102152.50848   -804299.64147
                  20529794.3674                                   20529788.3554
                                                                        52.0004
        43.0004
   6092290.09848   4765274.75445
                  22214430.0004                                   22214426.5124
                                                                        50.0004
        35.7504
  -7135999.30547  -5548449.73446
                  22848678.7814                                   22848675.1524
                                                                        47.5004
        36.0004
  -9467091.50848  -7291706.95745
                  22014808.3054                                   22014804.5864
                                                                        48.2504
        35.7504
    244072.96547    233359.70744
                  23577446.2664                                   23577443.1214
                                                                        42.0004
        24.2504
  -2600682.84848  -1964425.59046
                  21262625.9144                                   21262621.6254
                                                                        50.0004
        37.0004
   4533661.46547   3558910.97344
                  22869640.1724                                   22869633.4804
                                                                        45.5004
        27.7504
  -7284178.10247  -5598722.17645
                  22650648.1724                                   22650644.5434
                                                                        47.5004
        35.7504
 09 10 18 23 54 30.0000000  0  8G02G04G05G10G25G13G23G29
  -1174854.47348   -860950.53147
                  20515959.8754                                   20515953.7814
                                                                        52.0004
        42.5004
   6093124.77048   4765925.16445
                  22214589.0314                                   22214585.6764
                                                                        48.2504
        35.5004
  -7324786.97348  -5695557.01246
                  22812753.5554                                   22812749.7194
                                                                        48.0004
        36.5004
  -9646635.78948  -7431611.59446
                  21980642.2814                                   21980638.6524
                                                                        48.7504
        36.5004
     80690.16846    106048.58644
                  23546355.4614                                   23546352.1374
                                                                        41.5004
        24.0004
  -2686753.31248  -2031493.52346
                  21246247.5474                                   21246242.8244
                                                                        49.7504
        37.2504
   4521836.29747   3549696.60544
                  22867389.2974                                   22867383.6724
                                                                        44.5004
        28.7504
  -7433442.43448  -5715032.02745
                  22622243.7974                                   22622239.6844
                                                                        48.0004
        35.2504
 09 10 18 23 55  0.0000000  0  8G02G04G05G10G25G13G23G29
  -1246958.52048   -917135.52347
                  20502238.8054                                   20502232.7544
                                                                        52.0004
        42.5004
   6094314.33648   4766852.16445
                  22214815.2894                                   22214812.3324
                                                                        49.0004
        35.5004
  -7513288.78547  -5842441.58245
                  22776882.9924                                   22776879.1884
                                                                        47.5004
        35.7504
  -9825790.38748  -7571212.58646
                  21946550.6644                                   21946546.4184
                                                                        49.7504
        36.0004
    -82276.50846    -20938.30944
                  23515343.7894                                   23515340.4694
                                                                        41.5004
        24.5004
  -2772139.61748  -2098028.29346
                  21229998.6024                                   21229994.4414
                                                                        50.0004
        36.7504
   4510471.20747   3540840.71944
                  22865226.6954                                   22865220.9924
                                                                        45.5004
        29.2504
  -7582190.44147  -5830939.57445
                  22593938.0554                                   22593934.3364
                                                                        46.7504
        35.5004
 09 10 18 23 55 30.0000000  0  8G02G04G05G10G25G13G23G29
  -1318463.77348   -972853.89147
                  20488631.7504                                   20488625.4144
                                                                        52.0004
        42.0004
   6095857.95748   4768055.05145
                  22215109.0634                                   22215105.5634
                                                                        49.0004
        34.7504
  -7701501.96547  -5989101.18745
                  22741067.2344                                   22741063.4304
                                                                        46.7504
        35.2504
 -10004552.61748  -7710507.84446
                  21912533.2504                                   21912529.7774
                                                                        49.5004
        37.0004
   -244824.10946   -147598.78544
                  23484412.3284                                   23484409.0594
                                                                        41.7504
        25.5004
  -2856841.36748  -2164029.64146
                  21213880.4144                                   21213876.3324
                                                                        50.0004
        36.0004
   4499563.82047   3532341.43044
                  22863151.1484                                   22863145.0474
                                                                        45.0004
        29.0004
  -7730419.83247  -5946443.02046
                  22565731.2034                                   22565727.5554
                                                                        47.5004
        36.0004
 09 10 18 23 56  0.0000000  0  8G02G04G05G10G25G13G23G29
  -1389373.85948  -1028108.51247
                  20475138.1564                                   20475132.0004
                                                                        51.5004
        42.2504
   6097749.69548   4769529.13345
                  22215468.8594                                   22215465.2034
                                                                        49.2504
        34.7504
  -7889428.06247  -6135537.16445
                  22705306.0554                                   22705302.2854
                                                                        46.0004
        35.7504
 -10182923.63748  -7849498.28546
                  21878589.8444                                   21878586.9614
                                                                        49.5004
        37.2504
   -406952.95747   -273932.88744
                  23453560.7974                                   23453556.6684
                                                                        42.0004
        26.0004
  -2940862.41048  -2229500.59046
                  21197891.8674                                   21197887.7074
                                                                        50.2504
        36.0004
   4489108.98047   3524194.82844
                  22861161.6174                                   22861156.0204
                                                                        45.2504
        28.7504
  -7878131.37547  -6061542.91445
                  22537622.5634                                   22537619.0904
                                                                        46.5004
        35.5004
 09 10 18 23 56 30.0000000  0  8G02G04G05G10G25G13G23G29
  -1459687.98448  -1082898.80147
                  20461757.8284                                   20461751.6484
                                                                        52.0004
        42.2504
   6099989.26648   4771274.24245
                  22215895.0084                                   22215891.4414
                                                                        49.5004
        34.5004
  -8077063.81647  -6281746.80946
                  22669600.2584                                   22669596.4384
                                                                        47.0004
        36.2504
 -10360900.31648  -7988181.40646
                  21844722.4924                                   21844718.7274
                                                                        49.0004
        37.2504
   -568659.73847   -399938.13344
                  23422788.4694                                   23422784.7344
                                                                        42.7504
        25.7504
  -3024201.93048  -2294440.50046
                  21182032.8284                                   21182028.2854
                                                                        50.7504
        36.2504
   4479104.98447   3516399.50844
                  22859257.9844                                   22859251.9494
                                                                        46.0004
        29.2504
  -8025322.28147  -6176237.06645
                  22509612.4144                                   22509609.2234
                                                                        47.0004
        35.7504
 09 10 18 23 57  0.0000000  0  8G02G04G05G10G25G13G23G29
  -1529402.73848  -1137221.96547
                  20448491.4774                                   20448485.6174
                                                                        52.0004
        42.5004
   6102577.42648   4773290.96945
                  22216387.6254                                   22216384.1684
                                                                        48.0004
        34.2504
  -8264403.75047  -6427725.99646
                  22633950.7584                                   22633946.5784
                                                                        47.5004
        36.2504
 -10538477.34448  -8126553.15246
                  21810930.7194                                   21810926.8244
                                                                        48.5004
        37.5004
   -729938.74247   -525610.09444
                  23392098.0004                                   23392094.4024
                                                                        42.0004
        25.7504
  -3106856.86348  -2358846.98846
                  21166304.4614                                   21166299.7424
                                                                        50.7504
        36.2504
   4469552.87547   3508956.30944
                  22857440.1334                                   22857434.1884
                                                                        45.7504
        28.5004
  -8171986.60547  -6290520.94145
                  22481703.2974                                   22481699.9844
                                                                        47.0004
        34.7504
 09 10 18 23 57 30.0000000  0  8G02G04G05G10G25G13G23G29
  -1598521.98448  -1191081.07447
                  20435338.2344                                   20435332.1454
                                                                        51.5004
        42.2504
   6105509.53148   4775575.74245
                  22216945.5004                                   22216942.2664
                                                                        49.2504
        35.2504
  -8451449.65247  -6573476.04346
                  22598357.1094                                   22598353.1254
                                                                        46.7504
        36.5004
 -10715656.03948  -8264614.45346
                  21777214.5314                                   21777210.7894
                                                                        49.5004
        37.2504
   -890790.07847   -650948.66444
                  23361489.1414                                   23361485.2974
                                                                        42.2504
        25.7504
  -3188830.65648  -2422722.70746
                  21150704.8984                                   21150700.8874
                                                                        51.2504
        36.2504
   4460447.05547   3501860.86344
                  22855707.6564                                   22855701.3634
                                                                        45.2504
        29.2504
  -8318126.70748  -6404396.38345
                  22453893.9454                                   22453890.2384
                                                                        48.0004
        35.5004
 09 10 18 23 58  0.0000000  0  8G02G04G05G10G25G13G23G29
  -1667049.36348  -1244478.96947
                  20422298.2194                                   20422292.4224
                                                                        51.5004
        42.2504
   6108779.59848   4778123.83245
                  22217567.6254                                   22217564.1484
                                                                        49.0004
        35.0004
  -8638202.81647  -6718998.00846
                  22562818.7894                                   22562815.2544
                                                                        46.5004
        36.2504
 -10892437.50848  -8402366.25046
                  21743574.1334                                   21743570.5394
                                                                        49.5004
        37.0004
  -1051215.34846   -775955.25044
                  23330960.5474                                   23330957.5314
                                                                        41.0004
        26.7504
  -3270127.04748  -2486070.47746
                  21135235.0704                                   21135230.9184
                                                                        51.0004
        36.7504
   4451781.30547   3495108.31644
                  22854058.5164                                   22854052.1914
                                                                        44.5004
        28.0004
  -8463743.22347  -6517863.71545
                  22426183.8984                                   22426180.2854
                                                                        47.0004
        35.5004
 09 10 18 23 58 30.0000000  0  8G02G04G05G10G25G13G23G29
  -1734982.06248  -1297413.48847
                  20409371.1024                                   20409365.0784
                                                                        52.5004
        43.0004
   6112388.67648   4780936.01245
                  22218254.9304                                   22218251.3524
                                                                        48.7504
        35.5004
  -8824657.50448  -6864287.39546
                  22527338.0234                                   22527334.1414
                                                                        48.0004
        36.7504
 -11068816.18748  -8539804.13746
                  21710010.4614                                   21710006.6954
                                                                        49.5004
        37.2504
  -1211208.79746   -900625.44944
                  23300515.5864                                   23300511.5824
                                                                        41.0004
        24.7504
  -3350743.51248  -2548888.53146
                  21119894.1644                                   21119889.7234
                                                                        51.0004
        36.5004
   4443557.29347   3488699.96944
                  22852492.9774                                   22852487.3404
                                                                        44.7504
        26.5004
  -8608830.69947  -6630918.83246
                  22398574.8054                                   22398571.1644
                                                                        47.5004
        36.0004
 09 10 18 23 59  0.0000000  0  8G02G04G05G10G25G13G23G29
  -1802317.65248  -1349882.84847
                  20396557.6484                                   20396551.3284
                                                                        52.5004
        42.7504
   6116338.01648   4784013.37545
                  22219006.0944                                   22219003.0204
                                                                        49.0004
        34.7504
  -9010809.34447  -7009340.80146
                  22491914.4454                                   22491910.9264
                                                                        47.2504
        36.7504
 -11244787.31648  -8676924.48446
                  21676523.6884                                   21676520.5234
                                                                        49.0004
        37.2504
  -1370765.15646  -1024955.04344
                  23270152.3594                                   23270148.9454
                                                                        40.0004
        24.7504
  -3430677.55948  -2611174.73846
                  21104683.4384                                   21104678.6844
                                                                        51.0004
        36.7504
   4435774.40247   3482635.38744
                  22851012.2734                                   22851005.8284
                                                                        45.0004
        25.5004
  -8753384.95347  -6743558.52745
                  22371067.0394                                   22371063.3714
                                                                        46.5004
        35.2504
 09 10 18 23 59 30.0000000  0  8G02G04G05G10G25G13G23G29
  -1869062.13348  -1401891.64847
                  20383856.5944                                   20383850.6214
                                                                        51.5004
        42.5004
   6120619.88748   4787349.78545
                  22219821.0704                                   22219818.0044
                                                                        48.7504
        33.5004
  -9196662.11748  -7154161.10946
                  22456547.9614                                   22456543.6524
                                                                        48.2504
        36.2504
 -11420355.02048  -8813730.50846
                  21643114.7424                                   21643111.4694
                                                                        48.7504
        37.5004
  -1529887.20746  -1148946.17244
                  23239872.8054                                   23239868.8714
                                                                        39.7504
        24.5004
  -3509935.26648  -2672933.94546
                  21089600.8984                                   21089596.2074
                                                                        50.7504
        36.0004
   4428425.20747   3476908.78544
                  22849614.3674                                   22849607.2664
                                                                        45.0004
        28.5004
  -8897409.98447  -6855785.82845
                  22343659.9694                                   22343656.2424
                                                                        47.5004
        35.7504
