     2.11           OBSERVATION DATA    G (GPS)             RINEX VERSION / TYPE
teqc  2019Feb25                         20221121 12:27:59UTCPGM / RUN BY / DATE
OSX ker:10.11.6|Core i5|gcc 4.3 -m64|OSX ker:10.10+|=+      COMMENT
BIT 2 OF LLI FLAGS DATA COLLECTED UNDER A/S CONDITION       COMMENT
04712761                                                    MARKER NAME
2761                                                        MARKER NUMBER
-Unknown-           -Unknown-                               OBSERVER / AGENCY
0220400471          TRIMBLE R7          2.30                REC # / TYPE / VERS
-Unknown-           TRM39105.00     NONE                    ANT # / TYPE
  1449460.5172 -1709240.0573  5952443.1587                  APPROX POSITION XYZ
        0.0000        0.0000        0.0000                  ANTENNA: DELTA H/E/N
     1     1                                                WAVELENGTH FACT L1/2
    20    L1    L2    L5    L6    L7    L8    C1    P1    C2# / TYPES OF OBSERV
          P2    C5    C6    C7    C8    S1    S2    S5    S6# / TYPES OF OBSERV
          S7    S8                                          # / TYPES OF OBSERV
    30.0000                                                 INTERVAL
    15                                                      LEAP SECONDS
Forced Modulo Decimation to 30 seconds                      COMMENT
 SNR is mapped to RINEX snr flag value [0-9]                COMMENT
  L1 & L2: min(max(int(snr_dBHz/6), 0), 9)                  COMMENT
teqc edited: Beidou # 1 - 37 excluded                       COMMENT
  2009    10     3    23     9   30.0000000     GPS         TIME OF FIRST OBS
                                                            END OF HEADER
 09 10  3 23  9 30.0000000  0 10G02G04G12G13G17G20G23G30G31G32
   -287983.22358   -156269.12556
                  22241064.2504                                   22241058.9384
                                                                        50.5004
        38.2504
   -179828.26658    -97736.96157
                  20663403.8984                                   20663401.1334
                                                                        51.0004
        42.0004
    -87990.51257    -48430.53555
                  22785082.5164                                   22785079.2194
                                                                        47.2504
        34.5004
   -316661.16056   -174045.91853
                  23796799.4694                                   23796795.4184
                                                                        41.5004
        22.7504
     15797.96157      8065.80555
                  23320800.8444                                   23320797.7074
                                                                        45.2504
        32.2504
    -14975.15257     -8840.91055
                  22614735.6334                                   22614731.4384
                                                                        46.2504
        31.0004
   -223679.68457   -121514.14855
                  22249076.2974                                   22249070.2544
                                                                        47.5004
        34.7504
   -184034.41457   -100764.37155
                  22654152.2894                                   22654149.5904
                                                                        45.5004
        30.2504
   -178151.69556    -99655.01654
                  23779666.2034                                   23779662.3364
                                                                        40.5004
        26.2504
      9069.89856      3536.64153
                  24670664.5234                                   24670661.7504
                                                                        37.5004
        20.0004
 09 10  3 23 10  0.0000000  0 10G02G04G12G13G17G20G23G30G31G32
   -474593.04348   -301679.30546
                  22205553.1804                                   22205548.0084
                                                                        50.7504
        37.7504
   -297223.82448   -189214.01247
                  20641064.1724                                   20641061.1374
                                                                        50.7504
        42.0004
   -146118.08647    -93724.75045
                  22774021.3204                                   22774017.7624
                                                                        46.5004
        34.7504
   -524363.66846   -335892.00044
                  23757274.6954                                   23757270.7344
                                                                        41.7504
        26.0004
     24105.07047     14538.82445
                  23322381.9614                                   23322378.4844
                                                                        46.0004
        32.2504
    -26268.03147    -17640.58245
                  22612586.2734                                   22612582.3714
                                                                        47.0004
        30.2504
   -368692.87147   -234511.44145
                  22221481.2114                                   22221475.7074
                                                                        47.0004
        34.7504
   -303469.53147   -193830.66444
                  22631424.2734                                   22631421.6564
                                                                        44.7504
        29.5004
   -296367.00847   -191770.76244
                  23757171.1334                                   23757167.1054
                                                                        42.2504
        27.2504
     13305.78146      6837.34443
                  24671470.0864                                   24671468.0004
                                                                        37.7504
        22.2504
 09 10  3 23 10 30.0000000  0 10G02G04G12G13G17G20G23G30G31G32
   -660874.59048   -446833.69946
                  22170105.0704                                   22170099.5164
                                                                        51.0004
        37.2504
   -414047.21948   -280245.21546
                  20618833.2344                                   20618830.0864
                                                                        51.0004
        41.7504
   -203660.67647   -138563.23045
                  22763071.7424                                   22763068.1524
                                                                        47.0004
        35.2504
   -731800.64847   -497531.15644
                  23717800.3914                                   23717797.6884
                                                                        42.5004
        25.2504
     32667.17647     21210.55945
                  23324011.8364                                   23324007.7704
                                                                        45.7504
        33.0004
    -37185.45747    -26147.71544
                  22610509.0944                                   22610505.2894
                                                                        47.0004
        29.2504
   -513124.73847   -347055.76645
                  22193996.7424                                   22193991.1094
                                                                        46.7504
        34.7504
   -422222.78947   -286365.69545
                  22608826.3754                                   22608823.4574
                                                                        44.5004
        30.0004
   -413983.64847   -283420.10244
                  23734789.3594                                   23734785.3754
                                                                        44.5004
        28.0004
     17698.64546     10260.35243
                  24672306.8204                                   24672303.9804
                                                                        38.2504
        22.7504
 09 10  3 23 11  0.0000000  0 10G02G04G12G13G17G20G23G30G31G32
   -846623.74648   -591573.23846
                  22134757.9304                                   22134753.0004
                                                                        50.0004
        38.0004
   -530095.77348   -370672.67646
                  20596749.9384                                   20596747.1484
                                                                        51.0004
        41.7504
   -260417.19947   -182789.10945
                  22752271.1254                                   22752267.6604
                                                                        46.5004
        34.7504
   -938766.81647   -658803.46944
                  23678416.4064                                   23678412.8364
                                                                        42.5004
        24.2504
     41684.29747     28236.86745
                  23325728.0554                                   23325724.1134
                                                                        47.0004
        33.5004
    -47527.33647    -34206.30944
                  22608541.3364                                   22608537.2114
                                                                        46.5004
        29.0004
   -656771.30547   -458988.17245
                  22166662.0474                                   22166655.9224
                                                                        46.7504
        34.7504
   -540090.79347   -378210.86345
                  22586396.8364                                   22586394.1214
                                                                        43.7504
        30.5004
   -530798.64847   -374444.73844
                  23712559.4224                                   23712555.8244
                                                                        42.5004
        27.7504
     22448.61746     13961.73843
                  24673210.3204                                   24673208.1174
                                                                        40.0004
        22.5004
 09 10  3 23 11 30.0000000  0 10G02G04G12G13G17G20G23G30G31G32
  -1031748.60548   -735826.32446
                  22099529.8834                                   22099524.9414
                                                                        50.2504
        38.2504
   -645279.06648   -460425.89546
                  20574831.3754                                   20574828.6804
                                                                        51.2504
        41.0004
   -316299.51247   -226333.79345
                  22741637.2114                                   22741633.5864
                                                                        46.7504
        35.5004
  -1145169.14147   -819636.43444
                  23639139.3914                                   23639135.6994
                                                                        43.0004
        27.0004
     51243.87547     35685.85545
                  23327546.5164                                   23327543.3874
                                                                        45.7504
        32.7504
    -57206.35947    -41748.39844
                  22606699.7034                                   22606694.9224
                                                                        47.2504
        29.2504
   -799541.04347   -570237.37545
                  22139493.6724                                   22139488.1724
                                                                        47.7504
        35.5004
   -656983.45747   -469296.16845
                  22564153.2274                                   22564150.3094
                                                                        46.2504
        30.5004
   -646720.91847   -464773.74244
                  23690500.3984                                   23690496.5664
                                                                        43.2504
        28.0004
     27643.58246     18009.79743
                  24674198.8204                                   24674196.3284
                                                                        38.5004
        22.0004
 09 10  3 23 12  0.0000000  0 10G02G04G12G13G17G20G23G30G31G32
  -1216197.22748   -879552.50046
                  22064430.5944                                   22064425.6684
                                                                        51.0004
        38.0004
   -759546.87148   -549465.73047
                  20553087.0084                                   20553084.0434
                                                                        51.2504
        42.2504
   -371259.55947   -269159.77345
                  22731178.2664                                   22731175.0514
                                                                        47.2504
        35.5004
  -1350954.69946   -979988.78544
                  23599980.1484                                   23599976.1804
                                                                        41.7504
        26.0004
     61393.54747     43594.67245
                  23329478.1564                                   23329474.5824
                                                                        45.7504
        32.2504
    -66175.29347    -48737.18745
                  22604992.8284                                   22604988.5984
                                                                        47.0004
        30.0004
   -941382.37948   -680763.05945
                  22112502.1414                                   22112496.5864
                                                                        48.2504
        35.0004
   -772850.02747   -559581.88345
                  22542104.5634                                   22542101.7624
                                                                        43.2504
        30.2504
   -761700.30547   -554368.02744
                  23668620.4614                                   23668616.6884
                                                                        44.2504
        27.7504
     33331.05546     22441.49643
                  24675280.9844                                   24675279.1374
                                                                        38.0004
        19.2504
 09 10  3 23 12 30.0000000  0 10G02G04G12G13G17G20G23G30G31G32
  -1399953.64848  -1022739.31646
                  22029462.9924                                   22029457.7194
                                                                        50.7504
        38.0004
   -872884.39848   -637780.66846
                  20531519.5784                                   20531516.7194
                                                                        49.7504
        41.7504
   -425284.89847   -311257.40645
                  22720897.1644                                   22720894.5984
                                                                        46.5004
        35.0004
  -1556106.44946  -1139847.26644
                  23560940.2034                                   23560937.0234
                                                                        41.2504
        25.5004
     72145.02747     51972.40645
                  23331524.0704                                   23331520.7934
                                                                        44.0004
        31.0004
    -74422.13747    -55163.30944
                  22603423.3594                                   22603419.3134
                                                                        46.2504
        29.5004
  -1082279.60547   -790553.05945
                  22085690.3134                                   22085684.5904
                                                                        47.7504
        35.2504
   -887675.68047   -649056.49244
                  22520253.4924                                   22520251.4614
                                                                        43.2504
        29.0004
   -875722.01647   -643216.09844
                  23646923.7194                                   23646919.0594
                                                                        43.0004
        27.2504
     39523.38346     27266.68442
                  24676459.4614                                   24676457.4104
                                                                        38.5004
        17.2504
 09 10  3 23 13  0.0000000  0 10G02G04G12G13G17G20G23G30G31G32
  -1583017.79748  -1165386.66046
                  21994626.9144                                   21994621.7114
                                                                        51.5004
        38.7504
   -985293.54348   -725372.16446
                  20510128.8444                                   20510125.9224
                                                                        51.0004
        41.7504
   -478379.49647   -352629.87545
                  22710794.2734                                   22710791.1334
                                                                        47.5004
        35.5004
  -1760623.27346  -1299210.98044
                  23522021.9534                                   23522018.4774
                                                                        40.0004
        24.0004
     83493.37947     60815.23445
                  23333683.8134                                   23333680.3594
                                                                        44.2504
        31.0004
    -81951.52347    -61030.36344
                  22601990.3444                                   22601986.5514
                                                                        46.7504
        29.0004
  -1222233.53147   -899608.04345
                  22059058.0784                                   22059052.1174
                                                                        47.7504
        35.0004
  -1001461.81647   -737721.04744
                  22498600.8134                                   22498598.5824
                                                                        45.0004
        28.5004
   -988787.58647   -731319.09044
                  23625407.2194                                   23625403.9614
                                                                        43.5004
        27.7504
     46216.07446     32481.73043
                  24677732.6724                                   24677730.6884
                                                                        39.7504
        18.2504
 09 10  3 23 13 30.0000000  0  9G02G04G12G13G17G20G23G30G31
  -1765382.02048  -1307488.62946
                  21959924.0084                                   21959918.9694
                                                                        50.7504
        38.7504
  -1096768.00848   -812235.38347
                  20488915.9534                                   20488912.9804
                                                                        51.5004
        42.2504
   -530538.38347   -393273.15645
                  22700868.6644                                   22700865.4574
                                                                        46.5004
        34.7504
  -1964496.09446  -1458072.86744
                  23483226.7194                                   23483222.6914
                                                                        41.2504
        25.5004
     95442.64847     70126.34045
                  23335957.6254                                   23335953.9654
                                                                        45.0004
        32.0004
    -88759.78947    -66335.52744
                  22600695.2734                                   22600691.4104
                                                                        45.5004
        29.5004
  -1361236.14148  -1007921.77045
                  22032606.7114                                   22032600.9104
                                                                        48.5004
        35.5004
  -1114201.75047   -825570.43745
                  22477147.8444                                   22477144.5394
                                                                        45.7504
        30.0004
  -1100889.95347   -818671.52044
                  23604075.0944                                   23604071.2624
                                                                        43.5004
        27.0004
 09 10  3 23 14  0.0000000  0  9G02G04G12G13G17G20G23G30G31
  -1947050.92248  -1449048.80546
                  21925353.8204                                   21925348.5984
                                                                        51.0004
        38.5004
  -1207314.25048   -898375.28547
                  20467879.5084                                   20467876.2584
                                                                        49.7504
        42.0004
   -581770.74247   -433194.49645
                  22691119.5084                                   22691116.4064
                                                                        47.0004
        35.5004
  -2167728.89847  -1616436.07844
                  23444552.8054                                   23444548.6804
                                                                        43.0004
        25.5004
    107983.37147     79898.30945
                  23338344.3134                                   23338340.9064
                                                                        44.0004
        32.7504
    -94856.50847    -71086.28544
                  22599534.9144                                   22599530.8794
                                                                        45.7504
        28.7504
  -1499293.12547  -1115498.65645
                  22006335.1334                                   22006329.5824
                                                                        47.0004
        35.0004
  -1225901.61347   -912609.28945
                  22455891.3204                                   22455888.8714
                                                                        45.2504
        30.0004
  -1212035.91447   -905278.74644
                  23582924.2274                                   23582920.9454
                                                                        42.5004
        27.5004
 09 10  3 23 14 30.0000000  0  9G02G04G12G13G17G20G23G30G31
  -2128032.39848  -1590073.28146
                  21890913.9844                                   21890908.3014
                                                                        51.2504
        38.5004
  -1316942.06248   -983799.55546
                  20447018.0164                                   20447015.1884
                                                                        51.0004
        41.7504
   -632088.34447   -472403.07045
                  22681544.3984                                   22681541.1254
                                                                        47.0004
        35.7504
  -2370328.64147  -1774306.02344
                  23405999.7194                                   23405995.4924
                                                                        43.5004
        26.0004
    121103.09047     90121.43845
                  23340840.2974                                   23340837.3244
                                                                        44.2504
        32.0004
   -100254.18747    -75292.38344
                  22598507.3984                                   22598503.8164
                                                                        45.2504
        28.0004
  -1636413.02748  -1222345.36345
                  21980242.3754                                   21980236.4104
                                                                        48.0004
        35.0004
  -1336571.10247   -998845.14844
                  22434832.0004                                   22434829.2274
                                                                        43.0004
        29.5004
  -1322234.81647   -991147.99244
                  23561954.4694                                   23561950.6724
                                                                        43.5004
        28.5004
 09 10  3 23 15  0.0000000  0  9G02G04G12G13G17G20G23G30G31
  -2308328.62548  -1730563.84046
                  21856604.4454                                   21856599.2384
                                                                        51.5004
        38.5004
  -1425655.11348  -1068511.03546
                  20426330.6024                                   20426327.8444
                                                                        49.2504
        41.7504
   -681496.32448   -510902.82045
                  22672142.2664                                   22672139.2584
                                                                        48.0004
        35.0004
  -2572296.26647  -1931683.38744
                  23367565.9384                                   23367562.1414
                                                                        43.2504
        27.5004
    134795.21547    100790.58645
                  23343445.9844                                   23343442.6524
                                                                        42.5004
        30.7504
   -104958.92647    -78958.44544
                  22597612.3914                                   22597608.5984
                                                                        45.5004
        27.7504
  -1772598.18747  -1328463.69145
                  21954327.0394                                   21954321.1094
                                                                        46.7504
        34.7504
  -1446213.77047  -1084280.93745
                  22413967.4064                                   22413964.7194
                                                                        43.0004
        30.0004
  -1431490.40647  -1076282.21144
                  23541163.2424                                   23541159.8674
                                                                        44.0004
        27.5004
 09 10  3 23 15 30.0000000  0  9G02G04G12G13G17G20G23G30G31
  -2487948.80948  -1870527.62146
                  21822424.0314                                   21822418.6994
                                                                        51.0004
        38.5004
  -1533463.77048  -1152517.76247
                  20405815.3134                                   20405812.3244
                                                                        50.0004
        42.2504
   -730008.16447   -548704.30945
                  22662910.8524                                   22662907.9694
                                                                        47.5004
        35.2504
  -2773639.73447  -2088574.37544
                  23329251.2194                                   23329247.6604
                                                                        42.5004
        27.0004
    149046.68047    111895.56645
                  23346158.2504                                   23346154.9844
                                                                        42.5004
        30.5004
   -108984.30947    -82095.10944
                  22596846.1094                                   22596843.0554
                                                                        45.5004
        29.0004
  -1907858.16448  -1433861.09845
                  21928588.0634                                   21928582.4774
                                                                        48.0004
        34.7504
  -1554840.35547  -1168925.09844
                  22393296.4534                                   22393294.0904
                                                                        43.0004
        29.2504
  -1539812.72347  -1160689.19944
                  23520550.2894                                   23520546.7734
                                                                        43.5004
        28.5004
 09 10  3 23 16  0.0000000  0  9G02G04G12G13G17G20G23G30G31
  -2666908.44948  -2009976.67246
                  21788369.2194                                   21788363.7464
                                                                        50.7504
        38.0004
  -1640385.86348  -1235833.70347
                  20385468.8524                                   20385465.7304
                                                                        51.7504
        42.0004
   -777642.84848   -585822.14145
                  22653846.3444                                   22653842.9924
                                                                        48.0004
        35.5004
  -2974373.63747  -2244990.35244
                  23291053.1254                                   23291049.9384
                                                                        42.5004
        26.5004
    163837.22747    123420.64545
                  23348972.6484                                   23348969.1884
                                                                        42.7504
        31.5004
   -112350.48447    -84718.12544
                  22596205.8984                                   22596202.0824
                                                                        44.0004
        28.7504
  -2042209.50448  -1538550.43445
                  21903021.7814                                   21903015.6914
                                                                        48.5004
        34.5004
  -1662467.94547  -1252790.91844
                  22372815.5864                                   22372813.1024
                                                                        44.5004
        29.2504
  -1647219.05147  -1244382.41044
                  23500112.1334                                   23500108.1684
                                                                        43.5004
        27.5004
 09 10  3 23 16 30.0000000  0  9G02G04G12G13G17G20G23G30G31
  -2845219.31648  -2148920.15646
                  21754437.5784                                   21754432.6054
                                                                        50.5004
        38.5004
  -1746434.53148  -1318469.06646
                  20365288.8364                                   20365285.2624
                                                                        51.2504
        41.0004
   -824415.93447   -622268.66045
                  22644945.4144                                   22644942.5634
                                                                        47.7504
        35.2504
  -3174508.32047  -2400939.39544
                  23252968.3984                                   23252965.0864
                                                                        43.0004
        26.5004
    179150.68447    135353.17245
                  23351886.7274                                   23351883.4654
                                                                        43.7504
        31.7504
   -115073.51247    -86839.95744
                  22595687.4924                                   22595684.1414
                                                                        45.0004
        28.0004
  -2175664.07047  -1642540.96945
                  21877626.0084                                   21877620.1994
                                                                        47.5004
        34.7504
  -1769109.87547  -1335888.65644
                  22352522.9774                                   22352520.1884
                                                                        45.0004
        28.7504
  -1753722.41047  -1327372.03544
                  23479845.2194                                   23479840.9614
                                                                        44.0004
        28.0004
 09 10  3 23 17  0.0000000  0  9G02G04G12G13G17G20G23G30G31
  -1447465.18048  -1059761.03946
                  22020421.5944                                   22020416.1134
                                                                        51.0004
        38.7504
   -276197.84448   -172830.12146
                  20645064.9924                                   20645062.0864
                                                                        52.7504
        41.5004
    705080.37147    569546.70345
                  22935999.0084                                   22935996.0394
                                                                        47.5004
        35.0004
  -1798626.46947  -1328823.60944
                  23514790.1564                                   23514786.7194
                                                                        43.7504
        26.0004
   1770392.41447   1375281.75845
                  23654690.1334                                   23654686.8014
                                                                        44.0004
        30.7504
   1458252.11747   1139128.09844
                  22895081.1334                                   22895077.4844
                                                                        45.2504
        27.5004
   -732807.69148   -518237.16445
                  22152192.4384                                   22152185.9654
                                                                        48.5004
        34.2504
   -299353.76647   -190624.16044
                  22632207.9774                                   22632204.9884
                                                                        45.7504
        29.2504
   -283910.71147   -182064.17644
                  23759541.1564                                   23759536.7974
                                                                        43.5004
        28.2504
 09 10  3 23 17 30.0000000  0  9G02G04G12G13G17G20G23G30G31
  -1624507.13348  -1197715.81646
                  21986731.4454                                   21986726.0394
                                                                        51.0004
        39.0004
   -380533.62548   -254130.73846
                  20625210.6564                                   20625207.6524
                                                                        52.2504
        41.2504
    659990.07847    534411.48845
                  22927418.5004                                   22927415.1884
                                                                        46.7504
        34.0004
  -1997589.17247  -1483859.44944
                  23476929.0944                                   23476925.2034
                                                                        45.7504
        28.0004
   1786710.17247   1387996.85245
                  23657795.1484                                   23657791.7034
                                                                        43.2504
        30.5004
   1456773.01247   1137975.56344
                  22894800.3134                                   22894795.9574
                                                                        45.5004
        28.2504
   -864499.30547   -620853.92645
                  22127132.2664                                   22127126.7504
                                                                        47.5004
        35.0004
   -404057.60547   -272211.66044
                  22612283.4614                                   22612280.7154
                                                                        45.0004
        29.2504
   -388641.93447   -263672.98844
                  23739611.1484                                   23739607.3984
                                                                        43.5004
        28.0004
 09 10  3 23 18  0.0000000  0  9G02G04G12G13G17G20G23G30G31
  -1800928.75048  -1335187.20746
                  21953159.6724                                   21953154.6484
                                                                        52.0004
        39.2504
   -484030.05948   -334777.28947
                  20605515.7664                                   20605512.8164
                                                                        52.5004
        42.0004
    615720.81347    499915.87545
                  22918994.3594                                   22918991.0474
                                                                        47.5004
        34.0004
  -2195978.53947  -1638448.52044
                  23439176.7664                                   23439172.9304
                                                                        45.7504
        27.5004
   1803508.47747   1401086.37945
                  23660991.8054                                   23660988.7384
                                                                        44.0004
        31.0004
   1455895.01247   1137291.41844
                  22894633.1174                                   22894629.1174
                                                                        45.0004
        28.2504
   -995325.02747   -722796.06245
                  22102236.9384                                   22102231.1214
                                                                        47.7504
        34.7504
   -507809.12547   -353057.08645
                  22592540.4924                                   22592537.7814
                                                                        46.2504
        30.0004
   -492503.98047   -344604.47344
                  23719846.7814                                   23719842.7734
                                                                        44.0004
        29.2504
 09 10  3 23 18 30.0000000  0  9G02G04G12G13G17G20G23G30G31
  -1976743.36348  -1472185.66046
                  21919703.0864                                   21919697.8134
                                                                        52.0004
        38.7504
   -586701.20748   -414780.75847
                  20585978.5554                                   20585975.6414
                                                                        52.0004
        42.0004
    572256.80947    466047.82845
                  22910723.2424                                   22910720.6024
                                                                        47.7504
        34.5004
  -2393805.76647  -1792599.58644
                  23401531.3984                                   23401527.1844
                                                                        46.5004
        26.7504
   1820771.14847   1414537.76245
                  23664276.7034                                   23664273.6484
                                                                        45.0004
        30.5004
   1455601.32047   1137062.57444
                  22894576.7344                                   22894573.5354
                                                                        45.0004
        28.5004
  -1125297.83247   -824073.55145
                  22077503.9064                                   22077498.5944
                                                                        47.7504
        35.0004
   -610622.28947   -433171.18445
                  22572975.8674                                   22572973.0744
                                                                        45.5004
        30.0004
   -595510.45347   -424869.21944
                  23700245.1724                                   23700241.6844
                                                                        44.2504
        29.0004
 09 10  3 23 19  0.0000000  0  9G02G04G12G13G17G20G23G30G31
  -2151959.32848  -1608717.64146
                  21886360.7814                                   21886355.3594
                                                                        52.0004
        39.0004
   -688558.02748   -494149.69947
                  20566595.8204                                   20566592.4104
                                                                        51.5004
        42.0004
    529584.90247    432797.05145
                  22902603.1254                                   22902599.9844
                                                                        47.0004
        34.5004
  -2591079.10947  -1946319.09044
                  23363991.0474                                   23363987.3244
                                                                        45.5004
        26.5004
   1838484.69947   1428340.47345
                  23667647.3444                                   23667644.2154
                                                                        45.2504
        31.0004
   1455878.28547   1137278.34844
                  22894630.0784                                   22894626.1174
                                                                        45.7504
        28.2504
  -1254427.30147   -924693.91845
                  22052931.1804                                   22052925.5864
                                                                        47.2504
        35.5004
   -712508.12547   -512562.74245
                  22553587.2344                                   22553584.9614
                                                                        44.2504
        30.0004
   -697672.44547   -504475.91444
                  23680804.3674                                   23680800.1884
                                                                        44.5004
        27.0004
 09 10  3 23 19 30.0000000  0  9G02G04G12G13G17G20G23G30G31
  -2326582.57848  -1744787.67246
                  21853131.3284                                   21853126.0864
                                                                        52.0004
        38.7504
   -789607.95348   -572889.86347
                  20547366.6334                                   20547363.4454
                                                                        51.7504
        42.0004
    487694.84847    400155.50445
                  22894631.6804                                   22894628.2544
                                                                        47.0004
        34.5004
  -2787803.43447  -2099610.73444
                  23326555.4224                                   23326551.8134
                                                                        44.0004
        25.0004
   1856638.57047   1442486.31345
                  23671102.2814                                   23671098.7344
                                                                        45.0004
        31.0004
   1456715.61747   1137930.83244
                  22894788.6094                                   22894785.0944
                                                                        45.2504
        27.2504
  -1382720.35548  -1024662.54745
                  22028518.0314                                   22028512.4574
                                                                        48.2504
        35.7504
   -813474.33247   -591237.66445
                  22534373.9924                                   22534371.7664
                                                                        46.2504
        30.7504
   -798997.40247   -583430.40644
                  23661522.9534                                   23661519.2464
                                                                        43.7504
        27.5004
 09 10  3 23 20  0.0000000  0  9G02G04G12G13G17G20G23G30G31
  -2500620.87548  -1880401.86346
                  21820012.5084                                   21820007.2624
                                                                        51.5004
        39.0004
   -889860.60548   -651008.80946
                  20528288.9304                                   20528285.7664
                                                                        51.7504
        41.5004
    446575.83247    368114.69145
                  22886807.3674                                   22886803.8834
                                                                        47.0004
        34.5004
  -2983985.03547  -2252479.49244
                  23289223.7034                                   23289220.4884
                                                                        45.0004
        25.5004
   1875221.03547   1456966.10545
                  23674639.0084                                   23674635.3794
                                                                        43.7504
        30.5004
   1458101.42647   1139010.71544
                  22895052.6174                                   22895048.6024
                                                                        44.7504
        27.5004
  -1510184.89148  -1123985.59445
                  22004262.2034                                   22004256.6174
                                                                        48.2504
        35.7504
   -913529.81647   -669202.82845
                  22515333.5314                                   22515331.5514
                                                                        45.0004
        30.5004
   -899494.26247   -661739.66844
                  23642398.8754                                   23642395.3874
                                                                        44.5004
        28.5004
 09 10  3 23 20 30.0000000  0  9G02G04G12G13G17G20G23G30G31
  -2674080.76248  -2015565.30546
                  21787004.2504                                   21786998.6844
                                                                        52.0004
        38.7504
   -989324.53548   -728513.08246
                  20509361.4534                                   20509358.5274
                                                                        50.5004
        41.7504
    406217.37147    336666.62145
                  22879127.2274                                   22879123.6174
                                                                        46.2504
        34.2504
  -3179629.85247  -2404929.96944
                  23251994.1804                                   23251990.7424
                                                                        45.7504
        27.5004
   1894220.91447   1471771.14145
                  23678253.9224                                   23678250.3874
                                                                        42.2504
        30.0004
   1460024.21947   1140508.97344
                  22895418.6644                                   22895414.6214
                                                                        45.0004
        27.2504
  -1636828.29747  -1222668.73045
                  21980163.0944                                   21980157.0554
                                                                        47.7504
        35.0004
  -1012683.35247   -746465.18445
                  22496465.5474                                   22496462.9494
                                                                        46.5004
        31.2504
   -999171.96547   -739410.64844
                  23623431.2034                                   23623427.5164
                                                                        43.2504
        29.2504
 09 10  3 23 21  0.0000000  0  9G02G04G12G13G17G20G23G30G31
  -2846964.14148  -2150279.59846
                  21754105.6414                                   21754100.5664
                                                                        51.5004
        38.7504
  -1088003.86748   -805406.16847
                  20490583.5474                                   20490580.3984
                                                                        52.5004
        42.0004
    366612.86347    305806.03145
                  22871590.5314                                   22871587.1684
                                                                        47.0004
        34.7504
  -3374738.66047  -2556962.78144
                  23214865.8984                                   23214862.4804
                                                                        46.2504
        29.2504
   1913631.88747   1486896.50844
                  23681947.4774                                   23681944.2304
                                                                        43.7504
        29.5004
   1462477.98447   1142421.03544
                  22895885.5234                                   22895881.5394
                                                                        45.0004
        28.5004
  -1762653.18748  -1320714.02745
                  21956218.9534                                   21956213.2664
                                                                        48.7504
        35.0004
  -1110938.98047   -823027.96145
                  22477768.1884                                   22477765.5824
                                                                        45.0004
        31.0004
  -1098033.95347   -816446.01644
                  23604618.8204                                   23604614.7734
                                                                        43.0004
        29.7504
 09 10  3 23 21 30.0000000  0  9G02G04G12G13G17G20G23G30G31
  -3019281.19548  -2284552.73046
                  21721314.7424                                   21721309.2704
                                                                        51.7504
        39.7504
  -1185909.57848   -881696.35547
                  20471952.5394                                   20471949.4804
                                                                        51.7504
        42.0004
    327748.96547    275522.48445
                  22864194.9224                                   22864191.5594
                                                                        46.7504
        35.0004
  -3569319.88347  -2708584.50444
                  23177838.9384                                   23177835.0434
                                                                        46.2504
        29.5004
   1933439.98447   1502331.34044
                  23685717.0004                                   23685713.7034
                                                                        43.5004
        28.5004
   1465448.60547   1144735.85944
                  22896450.7274                                   22896446.5704
                                                                        44.7504
        27.2504
  -1887670.24648  -1418129.91045
                  21932429.6024                                   21932423.6024
                                                                        48.7504
        35.0004
  -1208307.75047   -898899.63345
                  22459239.6024                                   22459237.0124
                                                                        44.5004
        30.5004
  -1196091.33247   -892854.42245
                  23585958.5474                                   23585955.0274
                                                                        43.5004
        30.0004
 09 10  3 23 22  0.0000000  0  9G02G04G12G13G17G20G23G30G31
  -3191037.84048  -2418389.16446
                  21688630.5394                                   21688625.9264
                                                                        52.2504
        39.5004
  -1283050.12548   -957390.33247
                  20453467.7274                                   20453464.9304
                                                                        51.0004
        42.0004
    289615.19147    245807.79745
                  22856938.3594                                   22856934.9534
                                                                        46.7504
        34.7504
  -3763378.80947  -2859799.21944
                  23140909.9774                                   23140906.3164
                                                                        45.7504
        28.0004
   1953634.43447   1518067.24644
                  23689560.6804                                   23689556.2464
                                                                        42.5004
        29.5004
   1468925.28947   1147444.96544
                  22897112.4844                                   22897109.0354
                                                                        44.5004
        26.5004
  -2011886.54748  -1514921.80545
                  21908791.5004                                   21908786.0634
                                                                        48.0004
        35.7504
  -1304797.99247   -974086.75045
                  22440878.0944                                   22440875.6604
                                                                        43.5004
        30.7504
  -1293352.33247   -968642.25044
                  23567450.7114                                   23567447.1884
                                                                        43.2504
        29.2504
 09 10  3 23 22 30.0000000  0  9G02G04G12G13G17G20G23G30G31
  -3362241.60948  -2551794.73846
                  21656051.6174                                   21656046.6994
                                                                        51.0004
        39.7504
  -1379434.52048  -1032495.00847
                  20435126.2114                                   20435123.0864
                                                                        50.7504
        42.0004
    252200.49647    216653.50845
                  22849818.6484                                   22849815.7584
                                                                        47.0004
        34.7504
  -3956921.76247  -3010611.88744
                  23104080.1414                                   23104076.3954
                                                                        45.7504
        26.0004
   1974203.39546   1534094.96544
                  23693474.1174                                   23693470.6094
                                                                        41.2504
        27.2504
   1472895.78147   1150538.77744
                  22897868.4224                                   22897864.1214
                                                                        45.5004
        27.0004
  -2135310.06648  -1611095.94945
                  21885304.8284                                   21885299.2424
                                                                        48.7504
        35.7504
  -1400419.07047  -1048596.64845
                  22422681.3914                                   22422679.6644
                                                                        43.0004
        30.5004
  -1389826.36747  -1043816.85544
                  23549092.2114                                   23549088.3554
                                                                        44.5004
        29.0004
 09 10  3 23 23  0.0000000  0  9G02G04G12G13G17G20G23G30G31
  -3532896.65248  -2684772.58246
                  21623576.9534                                   21623572.2854
                                                                        51.5004
        40.0004
  -1475069.37948  -1107015.64147
                  20416927.3364                                   20416924.1804
                                                                        50.5004
        42.2504
    215496.58647    188053.12145
                  22842834.0634                                   22842830.9844
                                                                        47.0004
        35.0004
  -4149952.83247  -3161025.68744
                  23067347.5004                                   23067343.1414
                                                                        45.7504
        25.5004
   1995137.93047   1550407.52744
                  23697457.6644                                   23697454.6414
                                                                        42.5004
        28.5004
   1477351.69547   1154010.82444
                  22898716.3204                                   22898712.4884
                                                                        45.0004
        27.2504
  -2257946.64148  -1706656.89846
                  21861967.8674                                   21861962.0084
                                                                        48.5004
        36.0004
  -1495177.34847  -1122434.21945
                  22404649.8444                                   22404647.5664
                                                                        43.0004
        30.5004
  -1485519.73447  -1118383.16044
                  23530882.5084                                   23530879.1684
                                                                        43.0004
        28.7504
 09 10  3 23 23 30.0000000  0  9G02G04G12G13G17G20G23G30G31
  -3703004.68448  -2817324.24246
                  21591206.5704                                   21591201.3874
                                                                        51.2504
        40.0004
  -1569958.11748  -1180954.96147
                  20398870.6564                                   20398867.7304
                                                                        50.7504
        42.0004
    179497.23047    160001.65245
                  22835983.4384                                   22835980.2974
                                                                        46.5004
        34.2504
  -4342471.68047  -3311040.35944
                  23030711.9454                                   23030708.2154
                                                                        46.0004
        26.7504
   2016432.20347   1567000.40245
                  23701510.1094                                   23701507.3284
                                                                        44.2504
        30.5004
   1482287.24647   1157856.66844
                  22899655.5394                                   22899651.3794
                                                                        45.0004
        27.7504
  -2379798.08648  -1801606.04745
                  21838780.3674                                   21838774.6524
                                                                        49.0004
        35.5004
  -1589076.38347  -1195602.35545
                  22386781.3364                                   22386779.2194
                                                                        43.7504
        31.2504
  -1580435.18447  -1192343.13744
                  23512821.0004                                   23512816.9184
                                                                        43.5004
        29.2504
 09 10  3 23 24  0.0000000  0  9G02G04G12G13G17G20G23G30G31
  -3872570.67248  -2949453.59846
                  21558939.2194                                   21558933.6054
                                                                        51.7504
        39.5004
  -1664107.43048  -1254318.01646
                  20380954.6484                                   20380951.6374
                                                                        51.7504
        41.7504
    144193.96947    132492.53945
                  22829265.6094                                   22829262.4454
                                                                        45.5004
        34.7504
  -4534482.63347  -3460659.27344
                  22994174.2274                                   22994170.1024
                                                                        45.7504
        28.0004
   2038076.88747   1583866.32845
                  23705628.9844                                   23705626.1254
                                                                        43.2504
        30.7504
   1487692.91847   1162068.85944
                  22900684.0784                                   22900680.4344
                                                                        45.5004
        27.0004
  -2500870.64848  -1895948.29745
                  21815740.9304                                   21815735.3444
                                                                        49.0004
        35.2504
  -1682122.86747  -1268106.19545
                  22369075.2424                                   22369073.0634
                                                                        44.5004
        30.7504
  -1674579.65647  -1265702.43444
                  23494905.6954                                   23494901.5784
                                                                        44.5004
        29.5004
 09 10  3 23 24 30.0000000  0  9G02G04G12G13G17G20G23G30G31
  -4041598.32848  -3081163.40646
                  21526774.1024                                   21526768.9344
                                                                        51.0004
        39.5004
  -1757523.07848  -1327109.42246
                  20363177.9384                                   20363175.2074
                                                                        50.5004
        41.7504
    109578.93847    105519.83245
                  22822678.7814                                   22822675.2894
                                                                        45.0004
        33.5004
  -4725988.07847  -3609884.26644
                  22957731.3914                                   22957728.2974
                                                                        45.5004
        29.0004
   2060064.02347   1600999.09845
                  23709813.1644                                   23709810.0004
                                                                        43.7504
        30.5004
   1493559.94147   1166640.49244
                  22901800.6564                                   22901796.0944
                                                                        44.5004
        27.2504
  -2621168.56647  -1989686.89145
                  21792848.7194                                   21792843.3404
                                                                        47.7504
        35.5004
  -1774322.67247  -1339950.19145
                  22351530.6724                                   22351528.5864
                                                                        44.7504
        30.5004
  -1767959.27047  -1338465.81644
                  23477136.2584                                   23477131.8754
                                                                        42.0004
        28.5004
 09 10  3 23 25  0.0000000  0  9G02G04G12G13G17G20G23G30G31
  -4210088.46948  -3212454.40246
                  21494711.3834                                   21494706.3134
                                                                        51.5004
        40.0004
  -1850207.65648  -1399331.13347
                  20345540.9774                                   20345538.0554
                                                                        50.7504
        42.0004
     75647.46547     79079.77045
                  22816221.8914                                   22816219.0514
                                                                        46.5004
        34.0004
  -4916987.73847  -3758715.12144
                  22921385.7734                                   22921382.1684
                                                                        46.0004
        29.7504
   2082388.75447   1618394.92244
                  23714061.5314                                   23714058.4924
                                                                        43.7504
        28.2504
   1499884.22347   1171568.51644
                  22903003.9844                                   22903000.2704
                                                                        44.2504
        27.0004
  -2740693.66848  -2082823.36745
                  21770104.0634                                   21770098.1804
                                                                        48.2504
        35.5004
  -1865678.57847  -1411136.71544
                  22334145.4614                                   22334143.6254
                                                                        43.2504
        29.5004
  -1860575.92247  -1410634.49244
                  23459511.2974                                   23459507.4654
                                                                        44.7504
        29.2504
 09 10  3 23 25 30.0000000  0  9G02G04G12G13G17G20G23G30G31
  -2802618.87148  -2115724.86746
                  21762544.0394                                   21762538.8014
                                                                        51.7504
        39.5004
   -366743.43448   -243384.95347
                  20627834.5864                                   20627831.8754
                                                                        50.5004
        42.2504
   1617812.99647   1280767.16445
                  23109686.3674                                   23109682.8204
                                                                        46.2504
        34.2504
  -3532057.43447  -2679548.61344
                  23184928.5474                                   23184925.1174
                                                                        45.7504
        28.5004
   3680462.16847   2863646.87944
                  24018164.4924                                   24018161.4064
                                                                        44.0004
        27.7504
   3082077.88747   2404446.64844
                  23204084.8754                                   23204081.4264
                                                                        44.2504
        26.0004
  -1284025.94548   -947757.72345
                  22047298.8134                                   22047293.0474
                                                                        48.5004
        35.5004
   -380772.23847   -254066.86345
                  22616713.9384                                   22616712.2624
                                                                        43.5004
        31.2504
   -377012.36747   -254610.99644
                  23741824.5704                                   23741821.1764
                                                                        44.5004
        29.7504
 09 10  3 23 26  0.0000000  0  9G02G04G12G13G17G20G23G30G31
  -2970047.00848  -2246188.32046
                  21730683.2034                                   21730678.2664
                                                                        52.2504
        39.7504
   -457985.33648   -314482.48047
                  20610472.0704                                   20610469.0474
                                                                        52.0004
        42.0004
   1585222.90247   1255372.26645
                  23103484.0474                                   23103481.2074
                                                                        46.0004
        33.5004
  -3722055.73047  -2827599.20344
                  23148773.5944                                   23148769.5044
                                                                        45.5004
        29.2504
   3703434.90647   2881547.66844
                  24022536.1804                                   24022532.7584
                                                                        44.7504
        27.2504
   3089290.08647   2410066.52044
                  23205457.5394                                   23205454.3984
                                                                        45.0004
        26.0004
  -1402020.79348  -1039701.75445
                  22024845.2664                                   22024839.5594
                                                                        49.5004
        35.5004
   -470458.92247   -323952.71145
                  22599647.6724                                   22599645.5824
                                                                        44.2504
        30.7504
   -468123.03147   -325606.33244
                  23724486.6564                                   23724482.4384
                                                                        44.0004
        29.2504
 09 10  3 23 26 30.0000000  0  9G02G04G12G13G17G20G23G30G31
  -3136944.87548  -2376238.48446
                  21698924.1334                                   21698918.5434
                                                                        51.5004
        39.2504
   -548509.33248   -385020.57847
                  20593245.6414                                   20593242.3714
                                                                        52.2504
        42.0004
   1553296.87947   1230494.89545
                  23097409.1564                                   23097405.3324
                                                                        46.7504
        34.2504
  -3911552.52347  -2975259.02044
                  23112713.0474                                   23112709.3094
                                                                        45.2504
        28.0004
   3726724.54347   2899695.41044
                  24026968.6254                                   24026964.7664
                                                                        46.0004
        29.5004
   3096938.54747   2416026.30544
                  23206913.3524                                   23206909.6414
                                                                        44.5004
        26.0004
  -1519252.93448  -1131051.45345
                  22002536.5944                                   22002530.9774
                                                                        49.2504
        35.2504
   -559315.62947   -393191.91845
                  22582738.9694                                   22582736.7504
                                                                        46.5004
        30.2504
   -558484.39147   -396017.82444
                  23707291.2664                                   23707287.3914
                                                                        44.5004
        29.0004
 09 10  3 23 27  0.0000000  0  9G02G04G12G13G17G20G23G30G31
  -3303319.02048  -2505880.63346
                  21667263.8284                                   21667258.6844
                                                                        52.0004
        40.0004
   -638323.95748   -455005.94546
                  20576154.5474                                   20576151.5314
                                                                        50.0004
        41.5004
   1522023.95347   1206126.39545
                  23091457.8754                                   23091454.4924
                                                                        46.0004
        33.5004
  -4100553.15647  -3122532.21544
                  23076748.1254                                   23076743.5164
                                                                        46.0004
        27.7504
   3750320.55547   2918081.86745
                  24031459.2664                                   24031455.5124
                                                                        46.7504
        30.7504
   3105012.58647   2422317.77344
                  23208450.3754                                   23208445.7894
                                                                        45.0004
        26.7504
  -1635729.78148  -1221812.63345
                  21980371.4774                                   21980365.7304
                                                                        48.5004
        35.5004
   -647350.42247   -461790.71945
                  22565986.6094                                   22565984.7034
                                                                        43.5004
        31.0004
   -648104.64147   -465851.83645
                  23690237.4144                                   23690233.5274
                                                                        43.0004
        30.2504
 09 10  3 23 27 30.0000000  0  9G02G04G12G13G17G20G23G30G31
  -3469173.30948  -2635117.71946
                  21635702.9694                                   21635697.8324
                                                                        51.5004
        40.0004
   -727435.34848   -524443.34847
                  20559197.1414                                   20559194.1454
                                                                        51.2504
        42.2504
   1491396.34447   1182260.70745
                  23085629.7424                                   23085626.3204
                                                                        46.0004
        33.7504
  -4289060.53147  -3269421.09444
                  23040875.8134                                   23040871.6094
                                                                        46.2504
        28.0004
   3774214.24247   2936700.27344
                  24036005.1024                                   24036002.6484
                                                                        44.0004
        29.7504
   3113503.99647   2428934.41844
                  23210065.8524                                   23210061.9694
                                                                        44.7504
        26.5004
  -1751455.96948  -1311988.84445
                  21958349.9224                                   21958344.0434
                                                                        48.0004
        35.5004
   -734568.53147   -529752.87145
                  22549389.3444                                   22549387.1764
                                                                        46.0004
        30.2504
   -736989.49647   -535112.77045
                  23673322.6804                                   23673319.0084
                                                                        43.7504
        30.2504
 09 10  3 23 28  0.0000000  0  9G02G04G12G13G17G20G23G30G31
  -3634508.47748  -2763950.25846
                  21604240.4224                                   21604235.0554
                                                                        51.7504
        39.7504
   -815846.34848   -593335.02047
                  20542373.1414                                   20542370.1094
                                                                        51.5004
        42.0004
   1461409.05947   1158894.05145
                  23079922.9694                                   23079920.0904
                                                                        45.5004
        33.5004
  -4477074.49247  -3415925.48844
                  23005098.2114                                   23005094.0594
                                                                        46.0004
        28.2504
   3798400.35547   2955546.48845
                  24040607.4924                                   24040605.1524
                                                                        42.2504
        30.0004
   3122407.52347   2435872.22744
                  23211759.9534                                   23211756.2034
                                                                        44.5004
        27.0004
  -1866433.71547  -1401581.87545
                  21936470.2894                                   21936464.4224
                                                                        47.5004
        35.2504
   -820973.94547   -597081.82845
                  22532947.2584                                   22532944.9344
                                                                        44.0004
        30.5004
   -825142.22747   -603803.28545
                  23656548.0314                                   23656544.6374
                                                                        43.7504
        30.0004
 09 10  3 23 28 30.0000000  0  9G02G04G12G13G17G20G23G30G31
  -3799324.87148  -2892378.55546
                  21572876.9064                                   21572871.8244
                                                                        52.5004
        39.5004
   -903559.24248   -661682.78547
                  20525681.7974                                   20525678.6724
                                                                        52.5004
        42.0004
   1432058.23447   1136023.35945
                  23074338.1254                                   23074334.7194
                                                                        46.7504
        33.5004
  -4664594.12147  -3562044.69544
                  22969414.0634                                   22969410.3054
                                                                        46.0004
        29.7504
   3822874.75446   2974617.38344
                  24045264.6414                                   24045262.1954
                                                                        41.7504
        27.2504
   3131718.75847   2443127.77344
                  23213531.7114                                   23213528.3714
                                                                        43.2504
        25.5004
  -1980663.96548  -1490592.42246
                  21914733.1024                                   21914727.2624
                                                                        49.5004
        36.0004
   -906569.00847   -663779.36745
                  22516659.1644                                   22516657.0784
                                                                        43.7504
        30.7504
   -912564.83647   -671924.86745
                  23639912.1414                                   23639908.4414
                                                                        42.5004
        30.2504
 09 10  3 23 29  0.0000000  0  9G02G04G12G13G17G20G23G30G31
  -3963625.87948  -3020405.29746
                  21541611.3754                                   21541606.2344
                                                                        52.0004
        40.0004
   -990579.33248   -729490.64547
                  20509122.6254                                   20509119.6374
                                                                        51.2504
        42.0004
   1403335.72347   1113642.23445
                  23068872.4924                                   23068868.7664
                                                                        44.7504
        33.5004
  -4851621.60547  -3707780.41044
                  22933824.2974                                   22933820.6764
                                                                        45.7504
        29.2504
   3847629.73447   2993906.89844
                  24049976.0944                                   24049973.1604
                                                                        43.2504
        29.0004
   3141429.82847   2450694.78544
                  23215380.0234                                   23215376.0394
                                                                        42.5004
        24.7504
  -2094150.80548  -1579023.65245
                  21893136.7894                                   21893130.7854
                                                                        49.2504
        35.5004
   -991359.27347   -729849.89545
                  22500524.0784                                   22500521.6374
                                                                        45.7504
        30.7504
   -999262.48047   -739481.51644
                  23623413.9844                                   23623410.9804
                                                                        44.0004
        29.2504
 09 10  3 23 29 30.0000000  0  9G02G04G12G13G17G20G23G30G31
  -4127412.45748  -3148031.18046
                  21510443.7814                                   21510438.9344
                                                                        52.5004
        40.0004
  -1076909.59848   -796760.92646
                  20492694.2504                                   20492691.4304
                                                                        52.5004
        41.7504
   1375236.04747   1091746.35945
                  23063524.8914                                   23063521.6764
                                                                        46.0004
        34.0004
  -5038157.25047  -3853132.85944
                  22898327.2974                                   22898323.5664
                                                                        45.5004
        28.2504
   3872659.56347   3013410.64544
                  24054739.3834                                   24054735.6414
                                                                        45.2504
        27.0004
   3151535.21947   2458569.11743
                  23217302.5004                                   23217298.7344
                                                                        42.5004
        22.7504
  -2206897.41848  -1666878.14545
                  21871681.9064                                   21871676.0474
                                                                        49.5004
        35.5004
  -1075347.50047   -795295.24245
                  22484541.6484                                   22484539.7774
                                                                        45.5004
        30.5004
  -1085238.57047   -806475.86744
                  23607053.7664                                   23607050.1254
                                                                        43.7504
        29.7504
 09 10  3 23 30  0.0000000  0  9G02G04G12G13G17G20G23G30G31
  -4290689.94548  -3275260.36346
                  21479373.3524                                   21479368.1094
                                                                        52.5004
        40.2504
  -1162557.79348   -863499.82447
                  20476396.0944                                   20476392.9964
                                                                        52.5004
        42.0004
   1347750.12147   1070328.78945
                  23058294.6644                                   23058291.2194
                                                                        46.0004
        34.2504
  -5224205.15647  -3998105.26244
                  22862923.7424                                   22862920.0664
                                                                        45.5004
        29.5004
   3897954.79747   3033121.24644
                  24059553.4304                                   24059549.1054
                                                                        45.0004
        27.7504
   3162025.45747   2466743.32844
                  23219298.9384                                   23219295.5124
                                                                        43.0004
        25.5004
  -2318909.56248  -1754160.30545
                  21850367.0314                                   21850361.4384
                                                                        49.0004
        35.2504
  -1158541.58647   -860121.82445
                  22468710.5864                                   22468708.5824
                                                                        46.0004
        30.5004
  -1170500.31247   -872913.52344
                  23590828.8054                                   23590824.7464
                                                                        44.0004
        28.5004
 09 10  3 23 30 30.0000000  0  9G02G04G12G13G17G20G23G30G31
  -4453458.05948  -3402092.63746
                  21448399.4064                                   21448394.0904
                                                                        53.0004
        40.0004
  -1247525.26648   -929708.32446
                  20460227.3364                                   20460224.6914
                                                                        52.2504
        41.7504
   1320874.47747   1049386.73445
                  23053180.4694                                   23053176.7274
                                                                        45.7504
        34.0004
  -5409764.03547  -4142696.59845
                  22827613.1414                                   22827609.8404
                                                                        46.2504
        30.2504
   3923511.60247   3053035.64144
                  24064416.3364                                   24064412.7114
                                                                        42.5004
        28.0004
   3172896.23047   2475213.98844
                  23221368.0004                                   23221364.1724
                                                                        43.0004
        25.2504
  -2430187.91848  -1840870.64845
                  21829191.3134                                   21829185.4964
                                                                        48.7504
        35.5004
  -1240943.78947   -924331.40645
                  22453029.8364                                   22453027.9534
                                                                        45.2504
        31.2504
  -1255049.32047   -938795.75844
                  23574739.2424                                   23574735.7704
                                                                        42.2504
        28.5004
 09 10  3 23 31  0.0000000  0  9G02G04G12G13G17G20G23G30G31
  -4615717.16448  -3528528.30546
                  21417522.7894                                   21417517.4224
                                                                        52.5004
        40.5004
  -1331814.83648   -995388.56246
                  20444187.9774                                   20444184.6484
                                                                        50.2504
        41.7504
   1294603.98447   1028916.34045
                  23048180.8984                                   23048178.0704
                                                                        45.2504
        34.0004
  -5594833.08247  -4286906.24645
                  22792396.0474                                   22792392.0514
                                                                        47.5004
        30.5004
   3949325.32446   3073150.19144
                  24069328.1174                                   24069325.1134
                                                                        41.0004
        27.5004
   3184143.42247   2483978.10244
                  23223507.8594                                   23223503.7504
                                                                        42.5004
        26.0004
  -2540734.09048  -1927010.50445
                  21808154.8754                                   21808148.7704
                                                                        48.5004
        35.5004
  -1322556.65247   -987925.85245
                  22437499.7974                                   22437497.7234
                                                                        43.7504
        30.2504
  -1338888.42647  -1004124.86744
                  23558785.3594                                   23558781.9224
                                                                        44.7504
        29.7504
 09 10  3 23 31 30.0000000  0  9G02G04G12G13G17G20G23G30G31
  -4777466.42248  -3654566.71946
                  21386742.6484                                   21386737.6524
                                                                        53.0004
        40.0004
  -1415427.66448  -1060541.47347
                  20428276.6254                                   20428273.6954
                                                                        50.7504
        42.0004
   1268935.28547   1008914.79745
                  23043296.2504                                   23043293.4224
                                                                        44.0004
        33.7504
  -5779410.51247  -4430732.79745
                  22757271.7584                                   22757268.1134
                                                                        47.0004
        30.0004
   3975392.21546   3093461.96544
                  24074288.5944                                   24074285.7774
                                                                        41.7504
        28.7504
   3195762.98847   2493032.26644
                  23225719.4064                                   23225715.6374
                                                                        42.5004
        25.5004
  -2650548.62548  -2012580.40245
                  21787258.0554                                   21787252.2344
                                                                        48.7504
        35.0004
  -1403381.56247  -1050906.26644
                  22422119.0704                                   22422116.7704
                                                                        44.0004
        29.7504
  -1422019.05947  -1068901.98844
                  23542966.6804                                   23542962.5354
                                                                        44.0004
        28.0004
 09 10  3 23 32  0.0000000  0  9G02G04G12G13G17G20G23G30G31
  -4938706.16848  -3780208.07046
                  21356059.9384                                   21356054.6524
                                                                        52.2504
        40.5004
  -1498366.04348  -1125168.71946
                  20412494.2504                                   20412491.0984
                                                                        52.7504
        41.7504
   1243864.21547    989378.90645
                  23038525.8134                                   23038522.2894
                                                                        46.5004
        33.5004
  -5963495.81647  -4574175.91844
                  22722241.2194                                   22722237.8484
                                                                        46.5004
        29.0004
   4001707.61747   3113967.45344
                  24079296.5944                                   24079293.9884
                                                                        43.0004
        29.5004
   3207750.69547   2502373.30544
                  23228000.0474                                   23227996.5044
                                                                        42.5004
        24.0004
  -2759632.96948  -2097581.25445
                  21766500.1414                                   21766493.7974
                                                                        49.7504
        35.2504
  -1483421.49647  -1113275.10545
                  22406887.7274                                   22406886.0084
                                                                        46.5004
        30.7504
  -1504443.87947  -1133129.16044
                  23527281.3364                                   23527277.9064
                                                                        43.5004
        28.5004
 09 10  3 23 32 30.0000000  0  9G02G04G12G13G17G20G23G30G31
  -5099436.96548  -3905452.86746
                  21325473.8984                                   21325468.4024
                                                                        52.2504
        40.5004
  -1580633.06648  -1189272.90247
                  20396839.2344                                   20396836.0234
                                                                        51.0004
        42.0004
   1219385.50847    970304.66845
                  23033867.3134                                   23033864.3324
                                                                        44.7504
        34.0004
  -6147088.59847  -4717235.24644
                  22687305.5314                                   22687301.1294
                                                                        46.0004
        29.5004
   4028266.43047   3134662.59844
                  24084350.0554                                   24084347.5164
                                                                        44.7504
        28.5004
   3220101.15646   2511997.03544
                  23230350.3674                                   23230346.7584
                                                                        41.7504
        25.7504
  -2867988.79747  -2182014.41045
                  21745880.4614                                   21745874.5474
                                                                        47.5004
        35.0004
  -1562678.95747  -1175034.22745
                  22391805.5864                                   22391803.5664
                                                                        46.0004
        31.0004
  -1586165.28147  -1196808.18444
                  23511730.2424                                   23511726.4414
                                                                        44.2504
        28.7504
 09 10  3 23 33  0.0000000  0  9G02G04G12G13G17G20G23G30G31
  -5259659.49248  -4030301.58246
                  21294984.2194                                   21294979.2854
                                                                        53.0004
        40.5004
  -1662231.21148  -1252855.84447
                  20381311.6724                                   20381308.5314
                                                                        52.0004
        42.2504
   1195494.54747    951688.44945
                  23029321.0784                                   23029317.9454
                                                                        45.0004
        33.5004
  -6330188.00847  -4859910.09445
                  22652462.4694                                   22652458.6484
                                                                        46.7504
        30.2504
   4055064.25847   3155544.04344
                  24089449.9384                                   24089445.9924
                                                                        45.2504
        27.7504
   3232809.90646   2521899.94144
                  23232768.4304                                   23232765.0084
                                                                        41.5004
        24.5004
  -2975617.59848  -2265880.99645
                  21725399.4304                                   21725393.4024
                                                                        49.7504
        35.5004
  -1641156.69947  -1236185.61345
                  22376871.5864                                   22376870.0004
                                                                        44.2504
        30.2504
  -1667186.31247  -1259941.59044
                  23496312.9384                                   23496308.7664
                                                                        44.2504
        29.2504
 09 10  3 23 33 30.0000000  0  9G02G04G12G13G17G20G23G30G31
  -5419374.52748  -4154754.79346
                  21264591.6954                                   21264586.5274
                                                                        52.5004
        40.0004
  -1743163.67248  -1315920.10947
                  20365910.8524                                   20365907.4454
                                                                        52.5004
        42.2504
   1172185.95747    933525.91845
                  23024885.5554                                   23024882.0474
                                                                        46.0004
        33.0004
  -6512794.05547  -5002200.46545
                  22617713.4774                                   22617709.7274
                                                                        47.2504
        30.5004
   4082095.63347   3176607.48844
                  24094593.8134                                   24094589.9494
                                                                        44.5004
        25.2504
   3245871.32447   2532077.54344
                  23235254.6644                                   23235250.9224
                                                                        42.0004
        24.5004
  -3082522.03548  -2349183.18045
                  21705056.5474                                   21705050.5824
                                                                        49.2504
        35.5004
  -1718858.92647  -1296732.81245
                  22362085.1564                                   22362083.7934
                                                                        44.7504
        31.0004
  -1747509.60547  -1322531.20744
                  23481027.6414                                   23481024.1254
                                                                        43.2504
        28.7504
 09 10  3 23 34  0.0000000  0  9G02G04G12G13G17G20G23G30G31
  -4003157.11748  -3051208.71946
                  21534088.7344                                   21534083.6564
                                                                        52.2504
        40.7504
   -248010.21948   -150865.46547
                  20650428.8914                                   20650425.8674
                                                                        52.0004
        42.5004
   2724875.90647   2143414.12145
                  23320352.8444                                   23320349.2194
                                                                        45.5004
        33.2504
  -5119479.98847  -3916501.13745
                  22882852.1414                                   22882848.8164
                                                                        46.7504
        30.5004
   5684775.12547   4425448.66044
                  24399573.3984                                   24399570.2734
                                                                        43.0004
        25.5004
   4834700.59047   3770126.19944
                  23537599.0164                                   23537595.5084
                                                                        42.2504
        25.2504
  -1613279.98448  -1204319.31645
                  21984643.8834                                   21984638.1454
                                                                        49.5004
        35.5004
   -220365.59047   -129075.62145
                  22647239.2504                                   22647237.3834
                                                                        44.5004
        30.5004
   -251715.41847   -156977.32444
                  23765667.8054                                   23765663.9414
                                                                        43.5004
        29.0004
 09 10  3 23 34 30.0000000  0  8G02G04G12G13G20G23G30G31
  -4161859.79348  -3174873.12946
                  21503888.7344                                   21503883.1484
                                                                        52.5004
        41.0004
   -327620.09448   -212899.15647
                  20635279.7034                                   20635276.7544
                                                                        52.7504
        42.0004
   2702717.10547   2126147.50445
                  23316135.8054                                   23316132.2664
                                                                        46.0004
        33.2504
  -5301098.68447  -4058022.15245
                  22848291.3594                                   22848287.8284
                                                                        46.0004
        30.2504
   4848453.18446   3780842.59043
                  23540216.3054                                   23540212.2734
                                                                        41.2504
        23.0004
  -1718741.28548  -1286496.98445
                  21964575.3284                                   21964569.5474
                                                                        50.0004
        35.0004
   -296525.99247   -188421.28545
                  22632745.9694                                   22632744.7074
                                                                        45.0004
        30.0004
   -330652.87547   -218487.03544
                  23750646.2894                                   23750642.8874
                                                                        42.5004
        28.5004
 09 10  3 23 35  0.0000000  0  8G02G04G12G13G20G23G30G31
  -4320056.22748  -3298143.11346
                  21473785.0554                                   21473779.7934
                                                                        53.2504
        40.5004
   -406571.96548   -274420.11346
                  20620255.6954                                   20620252.5314
                                                                        52.0004
        41.7504
   2681127.14847   2109324.17645
                  23312027.7664                                   23312023.5274
                                                                        45.0004
        32.2504
  -5482222.20347  -4199157.32445
                  22813824.8204                                   22813821.0004
                                                                        46.7504
        30.5004
   4862543.93846   3791822.37944
                  23542896.8284                                   23542893.4534
                                                                        40.7504
        24.2504
  -1823482.82848  -1368113.75045
                  21944643.5634                                   21944637.8284
                                                                        50.5004
        35.5004
   -371919.67247   -247169.62945
                  22618399.1564                                   22618397.6054
                                                                        43.7504
        30.2504
   -408901.14547   -279459.86344
                  23735756.2814                                   23735752.2624
                                                                        43.5004
        28.2504
 09 10  3 23 35 30.0000000  0  8G02G04G12G13G20G23G30G31
  -4477740.88348  -3421014.23846
                  21443778.3984                                   21443772.9844
                                                                        52.2504
        40.2504
   -484862.58648   -335425.76247
                  20605357.2194                                   20605354.0204
                                                                        53.0004
        42.2504
   2660107.07047   2092944.89145
                  23308027.8054                                   23308024.2304
                                                                        46.5004
        32.5004
  -5662843.98847  -4339901.53144
                  22779453.3524                                   22779449.3634
                                                                        47.0004
        29.7504
   4876974.98846   3803067.29744
                  23545643.4614                                   23545639.1604
                                                                        39.5004
        25.0004
  -1927500.57848  -1449166.56245
                  21924849.8594                                   21924844.0164
                                                                        49.7504
        35.7504
   -446543.12947   -305317.84845
                  22604199.2344                                   22604197.0084
                                                                        47.0004
        30.5004
   -486456.28547   -339892.48044
                  23720997.9844                                   23720994.0634
                                                                        43.5004
        27.7504
 09 10  3 23 36  0.0000000  0  8G02G04G12G13G20G23G30G31
  -4634911.87948  -3543485.19146
                  21413869.6414                                   21413864.9844
                                                                        53.0004
        41.0004
   -562492.11748   -395916.27747
                  20590585.0634                                   20590581.8164
                                                                        52.2504
        42.2504
   2639654.17247   2077007.51245
                  23304135.7034                                   23304131.8954
                                                                        45.2504
        32.0004
  -5842961.25447  -4480252.64844
                  22745178.0944                                   22745174.1844
                                                                        46.2504
        29.5004
   4891744.30546   3814575.91043
                  23548453.1174                                   23548450.5124
                                                                        39.0004
        22.5004
  -2030793.79348  -1529654.77045
                  21905193.6644                                   21905187.6374
                                                                        51.0004
        35.0004
   -520396.72747   -362865.99645
                  22590145.0084                                   22590143.2774
                                                                        46.0004
        31.2504
   -563319.05547   -399785.52744
                  23706371.7114                                   23706367.9024
                                                                        42.0004
        29.2504
 09 10  3 23 36 30.0000000  0  8G02G04G12G13G20G23G30G31
  -4791570.32448  -3665556.68446
                  21384058.9774                                   21384053.9304
                                                                        52.5004
        40.7504
   -639464.41848   -455894.71147
                  20575937.5004                                   20575934.5274
                                                                        52.2504
        42.0004
   2619762.78947   2061507.59845
                  23300350.1724                                   23300346.9574
                                                                        45.0004
        32.0004
  -6022573.94147  -4620210.54744
                  22710999.0234                                   22710994.6914
                                                                        46.5004
        29.2504
   4906846.02746   3826343.46944
                  23551327.6884                                   23551324.5634
                                                                        39.2504
        24.7504
  -2133365.30148  -1609580.65245
                  21885674.7584                                   21885669.5434
                                                                        50.5004
        35.2504
   -593484.80147   -419817.74645
                  22576236.8054                                   22576234.8094
                                                                        45.5004
        30.2504
   -639493.25447   -459142.13344
                  23691876.0234                                   23691872.6684
                                                                        44.5004
        27.2504
 09 10  3 23 37  0.0000000  0  8G02G04G12G13G20G23G30G31
  -4947723.07448  -3787234.20746
                  21354343.9304                                   21354338.5474
                                                                        52.2504
        41.0004
   -715787.86748   -515367.54747
                  20561413.9304                                   20561410.4414
                                                                        52.2504
        42.0004
   2600422.89147   2046437.52345
                  23296670.2194                                   23296666.7734
                                                                        46.0004
        33.0004
  -6201687.71947  -4759779.69945
                  22676914.7424                                   22676910.6054
                                                                        46.5004
        31.0004
   4922268.95746   3838361.26644
                  23554262.9064                                   23554258.7734
                                                                        40.7504
        26.0004
  -2235222.84448  -1688950.16846
                  21866292.1484                                   21866286.1724
                                                                        50.2504
        36.2504
   -665815.70347   -476179.39844
                  22562472.5234                                   22562470.9344
                                                                        45.5004
        29.5004
   -714987.49246   -517968.90644
                  23677509.8984                                   23677506.9964
                                                                        41.7504
        28.2504
 09 10  3 23 37 30.0000000  0  8G02G04G12G13G20G23G30G31
  -5103372.52048  -3908519.55546
                  21324725.0394                                   21324720.0004
                                                                        52.2504
        40.5004
   -791467.69948   -574338.82047
                  20547012.2504                                   20547009.1994
                                                                        52.0004
        42.5004
   2581627.25047   2031791.68445
                  23293093.1804                                   23293089.8244
                                                                        46.7504
        32.7504
  -6380304.55947  -4898961.64545
                  22642924.7424                                   22642921.4614
                                                                        46.2504
        30.7504
   4938006.33646   3850624.16044
                  23557257.1804                                   23557253.7234
                                                                        41.5004
        25.7504
  -2336370.55948  -1767766.52346
                  21847044.2034                                   21847038.8914
                                                                        50.0004
        36.0004
   -737395.39847   -531955.67645
                  22548851.2344                                   22548849.4304
                                                                        47.0004
        30.5004
   -789807.34846   -576270.15244
                  23663272.1414                                   23663269.0594
                                                                        41.7504
        28.5004
 09 10  3 23 38  0.0000000  0  8G02G04G12G13G20G23G30G31
  -5258520.89548  -4029414.42646
                  21295201.2114                                   21295195.6764
                                                                        52.0004
        41.0004
   -866508.15648   -632811.91447
                  20532732.4304                                   20532729.3204
                                                                        52.0004
        42.0004
   2563369.43047   2017564.97345
                  23289619.1254                                   23289615.4804
                                                                        44.5004
        32.7504
  -6558425.21947  -5037756.92645
                  22609029.5084                                   22609026.3284
                                                                        46.0004
        31.0004
   4954051.94946   3863127.22744
                  23560310.6174                                   23560307.3524
                                                                        41.5004
        24.0004
  -2436812.08648  -1846032.72345
                  21827931.2894                                   21827925.2304
                                                                        49.5004
        35.5004
   -808228.92647   -587150.62145
                  22535372.4534                                   22535371.1994
                                                                        46.7504
        30.7504
   -863956.79347   -634049.08244
                  23649162.0864                                   23649158.7504
                                                                        42.0004
        27.5004
 09 10  3 23 38 30.0000000  0  8G02G04G12G13G20G23G30G31
  -5413168.29348  -4149918.86746
                  21265772.5704                                   21265767.8834
                                                                        52.0004
        41.0004
   -940911.64148   -690788.63747
                  20518574.1804                                   20518571.0744
                                                                        53.0004
        42.2504
   2545644.59047   2003753.49245
                  23286246.2114                                   23286242.5124
                                                                        46.7504
        33.5004
  -6736048.58247  -5176164.69545
                  22575229.3834                                   22575225.6604
                                                                        46.0004
        31.0004
   4970401.60546   3875867.21944
                  23563421.9454                                   23563418.2854
                                                                        41.7504
        24.2504
  -2536548.91048  -1923749.74645
                  21808951.5864                                   21808945.9454
                                                                        50.2504
        35.0004
   -878318.59847   -641765.94545
                  22522034.2664                                   22522032.5984
                                                                        45.7504
        31.5004
   -937438.12147   -691307.40644
                  23635179.2034                                   23635175.9804
                                                                        43.7504
        28.5004
 09 10  3 23 39  0.0000000  0  8G02G04G12G13G20G23G30G31
  -5567316.44148  -4270034.20346
                  21236439.3054                                   21236433.9384
                                                                        51.7504
        41.0004
  -1014682.38748   -748272.31647
                  20504535.7344                                   20504533.0554
                                                                        53.0004
        42.0004
   2528446.30147   1990352.19945
                  23282973.1334                                   23282969.8874
                                                                        45.7504
        33.0004
  -6913176.02047  -5314186.05145
                  22541523.1954                                   22541519.1054
                                                                        47.0004
        31.0004
   4987048.88046   3888839.08343
                  23566589.5784                                   23566586.3754
                                                                        41.5004
        22.7504
  -2635584.25048  -2000920.12146
                  21790105.7584                                   21790099.8634
                                                                        50.2504
        36.0004
   -947669.08647   -695805.30145
                  22508837.5864                                   22508835.9614
                                                                        47.0004
        30.0004
  -1010256.33247   -748049.12544
                  23621322.6724                                   23621319.2704
                                                                        43.5004
        28.5004
 09 10  3 23 39 30.0000000  0  8G02G04G12G13G20G23G30G31
  -5720961.77348  -4389757.77746
                  21207201.3594                                   21207196.1454
                                                                        52.0004
        40.5004
  -1087818.93448   -805261.84046
                  20490618.4144                                   20490615.3554
                                                                        53.0004
        41.7504
   2511774.34447   1977361.02345
                  23279800.8524                                   23279797.9264
                                                                        45.2504
        32.7504
  -7089802.78947  -5451817.28545
                  22507911.9614                                   22507908.1024
                                                                        47.5004
        31.5004
   5003993.53146   3902042.60543
                  23569813.7814                                   23569810.4964
                                                                        40.5004
        20.7504
  -2733915.88748  -2077542.17245
                  21771394.1174                                   21771387.8634
                                                                        50.7504
        35.5004
  -1016279.89147   -749268.47745
                  22495781.8284                                   22495780.2304
                                                                        47.0004
        30.7504
  -1082409.50047   -804272.45744
                  23607592.3834                                   23607589.1604
                                                                        44.0004
        28.0004
 09 10  3 23 40  0.0000000  0  8G02G04G12G13G20G23G30G31
  -5874109.09048  -4509093.30146
                  21178058.4694                                   21178052.9774
                                                                        51.5004
        40.7504
  -1160328.21948   -861762.55547
                  20476820.6254                                   20476817.2504
                                                                        52.2504
        42.0004
   2495619.63347   1964772.88745
                  23276726.9694                                   23276723.4064
                                                                        47.0004
        33.0004
  -7265932.44147  -5589061.18745
                  22474395.6334                                   22474392.0314
                                                                        47.5004
        30.7504
   5021226.99946   3915471.25143
                  23573093.1884                                   23573089.7814
                                                                        41.2504
        21.7504
  -2831549.77748  -2153620.51245
                  21752814.9064                                   21752809.0164
                                                                        49.7504
        34.5004
  -1084157.86347   -802160.50445
                  22482865.2034                                   22482862.9884
                                                                        44.7504
        30.5004
  -1153904.56647   -859982.82844
                  23593987.4924                                   23593983.8444
                                                                        42.7504
        27.2504
 09 10  3 23 40 30.0000000  0  8G02G04G12G13G20G23G30G31
  -6026756.89148  -4628039.80146
                  21149010.8364                                   21149005.1414
                                                                        52.0004
        41.2504
  -1232210.99648   -917775.12947
                  20463141.7734                                   20463138.4884
                                                                        52.7504
        42.2504
   2479979.66447   1952585.88745
                  23273750.4064                                   23273746.7854
                                                                        46.0004
        32.2504
  -7441562.24647  -5725915.58644
                  22440974.4614                                   22440970.8284
                                                                        47.0004
        29.7504
   5038746.39846   3929122.75443
                  23576427.0944                                   23576423.3754
                                                                        41.5004
        22.5004
  -2928485.97348  -2229155.21145
                  21734368.4064                                   21734362.8164
                                                                        50.2504
        35.7504
  -1151303.99647   -854482.18044
                  22470087.2894                                   22470085.7344
                                                                        46.5004
        29.7504
  -1224743.02047   -915181.65244
                  23580506.9844                                   23580504.1604
                                                                        43.0004
        28.5004
 09 10  3 23 41  0.0000000  0  8G02G04G12G13G20G23G30G31
  -6178904.33648  -4746596.67646
                  21120058.3364                                   21120053.1454
                                                                        51.7504
        41.0004
  -1303468.22348   -973300.21947
                  20449581.7424                                   20449578.7154
                                                                        52.7504
        42.0004
   2464850.96947   1940797.24645
                  23270871.3204                                   23270867.6094
                                                                        46.2504
        31.5004
  -7616690.01247  -5862378.76245
                  22407648.4924                                   22407644.9104
                                                                        47.0004
        30.0004
   5056549.00447   3942994.89543
                  23579815.2344                                   23579811.3984
                                                                        42.0004
        22.5004
  -3024724.42248  -2304146.18045
                  21716055.0234                                   21716049.3954
                                                                        50.0004
        35.0004
  -1217719.66047   -906234.57445
                  22457448.9064                                   22457446.9924
                                                                        45.7504
        30.2504
  -1294925.86347   -969869.64144
                  23567152.4304                                   23567148.4344
                                                                        43.0004
        28.0004
 09 10  3 23 41 30.0000000  0  8G02G04G12G13G20G23G30G31
  -6330548.30948  -4864761.08646
                  21091201.7584                                   21091196.8404
                                                                        51.5004
        41.2504
  -1374100.59048  -1028338.41047
                  20436141.2194                                   20436138.0204
                                                                        53.0004
        42.0004
   2450231.27747   1929405.24645
                  23268089.1414                                   23268085.6684
                                                                        46.2504
        31.7504
  -7791312.92247  -5998448.55945
                  22374418.7814                                   22374415.2034
                                                                        47.7504
        30.2504
   5074632.37547   3957085.88344
                  23583255.9924                                   23583252.6174
                                                                        42.0004
        25.7504
  -3120265.16848  -2378593.50445
                  21697874.2584                                   21697868.3634
                                                                        50.0004
        35.5004
  -1283406.23847   -957418.86745
                  22444949.3674                                   22444947.0434
                                                                        47.0004
        30.0004
  -1364453.75447  -1024047.32044
                  23553921.2734                                   23553917.4964
                                                                        44.0004
        28.7504
 09 10  3 23 42  0.0000000  0  8G02G04G12G13G20G23G30G31
  -6481686.94948  -4982531.43746
                  21062440.9224                                   21062436.0274
                                                                        51.0004
        41.2504
  -1444108.17248  -1082889.75447
                  20422819.0864                                   20422815.8954
                                                                        52.7504
        42.5004
   2436118.32847   1918408.11745
                  23265403.7504                                   23265400.4454
                                                                        46.5004
        31.7504
  -7965427.80547  -6134122.48445
                  22341286.0784                                   22341282.1844
                                                                        47.5004
        31.2504
   5092994.53546   3971394.09044
                  23586750.3524                                   23586746.8524
                                                                        40.2504
        25.5004
  -3215107.62948  -2452496.72745
                  21679826.1024                                   21679820.5664
                                                                        49.5004
        35.0004
  -1348364.65647  -1008035.89145
                  22432588.2424                                   22432585.9064
                                                                        46.5004
        30.7504
  -1433327.45747  -1077715.31644
                  23540815.1644                                   23540811.7194
                                                                        44.5004
        28.0004
 09 10  3 23 42 30.0000000  0  8G02G04G12G13G20G23G30G31
  -6632323.39148  -5099910.68746
                  21033775.9454                                   21033770.7544
                                                                        51.5004
        41.2504
  -1513495.98848  -1136958.19146
                  20409614.8444                                   20409611.9064
                                                                        52.7504
        41.5004
   2422505.43847   1907800.74245
                  23262813.0314                                   23262809.6884
                                                                        45.7504
        31.7504
  -8139036.19948  -6269401.76245
                  22308250.0314                                   22308245.9574
                                                                        48.7504
        31.7504
   5111628.79346   3985914.31643
                  23590295.6644                                   23590293.3914
                                                                        39.0004
        22.7504
  -3309255.95748  -2525859.05545
                  21661910.4304                                   21661904.5434
                                                                        49.5004
        35.5004
  -1412600.15647  -1058089.62545
                  22420364.7814                                   22420362.8324
                                                                        45.2504
        30.2504
  -1501551.53947  -1130877.02044
                  23527832.6564                                   23527828.9104
                                                                        44.7504
        27.5004
 09 10  3 23 43  0.0000000  0  8G02G04G12G13G20G23G30G31
  -5207029.69948  -3989292.21946
                  21305000.3364                                   21304995.2504
                                                                        51.7504
        41.0004
     -6841.52048     37058.28147
                  20696321.3524                                   20696318.5004
                                                                        53.0004
        42.2504
   3984810.81647   3125181.61345
                  23560110.3134                                   23560107.1024
                                                                        45.7504
        32.5004
  -6736708.93448  -5176679.21145
                  22575103.7424                                   22575099.9534
                                                                        48.5004
        31.7504
   6705952.81646   5228244.72343
                  23893686.0474                                   23893682.4384
                                                                        39.0004
        22.0004
  -1827285.84048  -1371077.13345
                  21943920.0084                                   21943914.0554
                                                                        49.5004
        35.5004
     99309.24647    120021.57044
                  22708071.6644                                   22708069.3754
                                                                        45.5004
        29.7504
      6296.18047     44069.12944
                  23814766.8984                                   23814763.1644
                                                                        44.5004
        28.0004
 09 10  3 23 43 30.0000000  0  8G02G04G12G13G20G23G30G31
  -5356654.72348  -4105883.27746
                  21276527.5554                                   21276522.4454
                                                                        51.0004
        41.0004
    -74990.18448    -16044.58647
                  20683353.0864                                   20683350.3984
                                                                        52.2504
        42.2504
   3972190.87147   3115347.95745
                  23557708.5084                                   23557705.5274
                                                                        46.5004
        32.5004
  -6909294.91048  -5311161.82045
                  22542261.6804                                   22542257.6764
                                                                        49.0004
        32.2504
   6725125.15246   5243184.18443
                  23897334.6174                                   23897330.5274
                                                                        39.0004
        19.5004
  -1920043.88348  -1443356.12545
                  21926268.6484                                   21926262.7234
                                                                        49.0004
        35.5004
     36517.83247     71093.23845
                  22696122.8674                                   22696120.6954
                                                                        46.5004
        30.2504
    -60629.79747     -8080.88344
                  23802030.9614                                   23802027.3484
                                                                        44.5004
        27.7504
 09 10  3 23 44  0.0000000  0  8G02G04G12G13G20G23G30G31
  -5505774.36748  -4222080.43046
                  21248151.0704                                   21248146.2934
                                                                        49.7504
        41.2504
   -142523.37548    -68667.83647
                  20670502.3754                                   20670499.3094
                                                                        52.2504
        42.0004
   3960060.45347   3105895.74645
                  23555400.2974                                   23555396.7344
                                                                        46.5004
        32.5004
  -7081369.15647  -5445245.69945
                  22509516.7664                                   22509513.3634
                                                                        47.7504
        31.7504
   6744559.89146   5258328.18043
                  23901032.5864                                   23901028.4774
                                                                        40.2504
        20.5004
  -2012109.80547  -1515095.78545
                  21908749.0784                                   21908743.1024
                                                                        47.0004
        35.5004
    -25556.53547     22723.62944
                  22684310.6804                                   22684308.0084
                                                                        45.2504
        29.5004
   -126911.04746    -59728.45744
                  23789417.6804                                   23789414.9184
                                                                        40.7504
        27.5004
 09 10  3 23 44 30.0000000  0  8G02G04G12G13G20G23G30G31
  -5654387.14548  -4337882.60946
                  21219871.0314                                   21219866.0634
                                                                        51.0004
        41.0004
   -209441.44948   -120811.69947
                  20657767.9774                                   20657764.8364
                                                                        52.5004
        42.0004
   3948416.44947   3096822.53545
                  23553184.4144                                   23553181.4574
                                                                        47.2504
        32.2504
  -7252928.40247  -5578928.27045
                  22476870.3594                                   22476866.7934
                                                                        47.5004
        31.0004
   6764254.77346   5273674.89843
                  23904781.2584                                   23904776.7034
                                                                        41.5004
        22.5004
  -2103483.38748  -1586295.99645
                  21891361.3984                                   21891355.4384
                                                                        49.7504
        34.7504
    -86915.01247    -25088.17644
                  22672634.1254                                   22672631.9414
                                                                        45.2504
        29.0004
   -192548.77747   -110874.76644
                  23776927.2194                                   23776924.1564
                                                                        44.0004
        28.7504
 09 10  3 23 45  0.0000000  0  8G02G04G12G13G20G23G30G31
  -5802486.04748  -4453284.31646
                  21191688.6804                                   21191684.0394
                                                                        49.5004
        41.5004
   -275740.72348   -172473.45746
                  20645151.8754                                   20645148.8874
                                                                        52.5004
        41.7504
   3937261.03147   3088130.00845
                  23551061.6644                                   23551058.1374
                                                                        47.2504
        31.7504
  -7423965.34447  -5712203.84845
                  22444322.8444                                   22444319.0514
                                                                        47.7504
        30.7504
   6784211.78947   5289225.90643
                  23908578.7344                                   23908574.6644
                                                                        43.0004
        22.7504
  -2194159.75448  -1656952.89845
                  21874106.1954                                   21874100.1294
                                                                        48.2504
        35.5004
   -147553.79347    -72339.10245
                  22661095.3364                                   22661092.2504
                                                                        45.0004
        30.2504
   -257538.76647   -161516.26244
                  23764560.3054                                   23764557.0044
                                                                        42.5004
        27.0004
 09 10  3 23 45 30.0000000  0  8G02G04G12G13G20G23G30G31
  -5950073.10248  -4568287.25046
                  21163604.1884                                   21163599.0164
                                                                        50.0004
        41.5004
   -341424.98848   -223656.00847
                  20632652.3204                                   20632649.5434
                                                                        53.0004
        42.0004
   3926589.15247   3079814.33245
                  23549031.1334                                   23549027.4774
                                                                        47.2504
        32.0004
  -7594480.31648  -5845072.65645
                  22411874.7664                                   22411871.1724
                                                                        48.0004
        30.5004
   6804426.23047   5304977.46143
                  23912425.5084                                   23912421.7624
                                                                        42.2504
        23.2504
  -2284141.91448  -1727068.85545
                  21856983.1804                                   21856977.2894
                                                                        48.7504
        35.5004
   -207477.32847   -119032.71944
                  22649691.5004                                   22649689.2894
                                                                        44.0004
        29.0004
   -321885.38347   -211656.45744
                  23752315.4614                                   23752311.8874
                                                                        42.7504
        28.0004
 09 10  3 23 46  0.0000000  0  8G02G04G12G13G20G23G30G31
  -6097149.83248  -4682892.45746
                  21135616.1484                                   21135611.3914
                                                                        49.7504
        41.0004
   -406498.04348   -274362.28547
                  20620269.1094                                   20620266.4534
                                                                        52.0004
        42.5004
   3916394.26247   3071870.27045
                  23547091.2194                                   23547087.0904
                                                                        46.7504
        31.0004
  -7764473.66448  -5977534.93445
                  22379526.1564                                   22379522.7344
                                                                        48.5004
        31.5004
   6824892.16846   5320924.97343
                  23916319.5234                                   23916316.1804
                                                                        41.5004
        23.0004
  -2373433.22748  -1796646.47745
                  21839991.6804                                   21839985.9654
                                                                        48.2504
        35.7504
   -266690.02047   -165172.48045
                  22638424.3204                                   22638421.7664
                                                                        45.2504
        30.2504
   -385592.63346   -261298.41044
                  23740192.3674                                   23740188.7894
                                                                        40.5004
        25.2504
 09 10  3 23 46 30.0000000  0  8G02G04G12G13G20G23G30G31
  -6243713.55148  -4797097.85246
                  21107725.7664                                   21107721.0004
                                                                        50.7504
        41.7504
   -470960.41048   -324592.73847
                  20608002.8134                                   20607999.5474
                                                                        52.7504
        42.2504
   3906674.19147   3064296.17645
                  23545241.0634                                   23545237.1094
                                                                        46.5004
        31.5004
  -7933942.80948  -6109588.77345
                  22347277.6414                                   22347273.5204
                                                                        48.7504
        31.7504
   6845607.32846   5337066.56343
                  23920260.4924                                   23920258.7544
                                                                        40.0004
        22.0004
  -2462033.31248  -1865685.50045
                  21823131.5864                                   21823126.1454
                                                                        49.0004
        35.2504
   -325193.08247   -210759.29344
                  22627290.6414                                   22627288.5314
                                                                        43.5004
        29.2504
   -448661.27047   -310442.83244
                  23728191.1564                                   23728187.3914
                                                                        43.7504
        27.7504
 09 10  3 23 47  0.0000000  0  8G02G04G12G13G20G23G30G31
  -6389763.91048  -4910903.26246
                  21079933.4614                                   21079928.6454
                                                                        51.7504
        41.0004
   -534813.76648   -374348.58647
                  20595851.8364                                   20595849.0204
                                                                        53.0004
        42.5004
   3897425.67247   3057089.57045
                  23543480.8984                                   23543477.3444
                                                                        46.7504
        31.0004
  -8102886.02048  -6241232.87945
                  22315129.0474                                   22315124.9654
                                                                        48.2504
        32.7504
   6866568.56346   5353399.78943
                  23924250.0944                                   23924247.2234
                                                                        39.7504
        20.2504
  -2549943.17648  -1934186.70745
                  21806402.8204                                   21806396.9694
                                                                        49.5004
        35.2504
   -382988.57447   -255794.60945
                  22616293.0784                                   22616291.0234
                                                                        45.5004
        30.2504
   -511092.67247   -359090.64844
                  23716310.3524                                   23716306.9494
                                                                        43.5004
        28.0004
 09 10  3 23 47 30.0000000  0  8G02G04G12G13G20G23G30G31
  -6535299.52748  -5024307.68746
                  21052238.7814                                   21052233.8674
                                                                        51.2504
        41.2504
   -598058.74648   -423630.34846
                  20583816.9064                                   20583813.7194
                                                                        53.2504
        41.7504
   3888645.28547   3050247.69945
                  23541810.0394                                   23541806.6564
                                                                        46.7504
        31.0004
  -8271300.66048  -6372465.11345
                  22283080.7274                                   22283076.7464
                                                                        48.0004
        32.2504
   6887773.55947   5369923.14543
                  23928285.7504                                   23928282.0784
                                                                        42.5004
        21.2504
  -2637162.89548  -2002150.09045
                  21789805.4694                                   21789799.5634
                                                                        49.7504
        35.0004
   -440078.36747   -300280.17245
                  22605429.4144                                   22605427.0164
                                                                        45.7504
        30.0004
   -572888.62947   -407243.37944
                  23704551.2344                                   23704547.9184
                                                                        43.7504
        28.0004
 09 10  3 23 48  0.0000000  0  8G02G04G12G13G20G23G30G31
  -6680318.88748  -5137309.76246
                  21024642.5704                                   21024637.5474
                                                                        50.7504
        41.5004
   -660696.59048   -472438.99247
                  20571896.9694                                   20571893.9774
                                                                        53.0004
        42.0004
   3880329.91447   3043768.22345
                  23540227.8134                                   23540224.2154
                                                                        46.0004
        31.0004
  -8439184.73848  -6503283.91045
                  22251133.5164                                   22251129.6024
                                                                        49.0004
        32.2504
   6909219.28547   5386634.17643
                  23932367.0554                                   23932362.2504
                                                                        43.0004
        21.0004
  -2723692.87548  -2069576.01245
                  21773339.1564                                   21773333.2154
                                                                        48.2504
        35.2504
   -496463.94547   -344216.92644
                  22594699.7734                                   22594697.1054
                                                                        45.7504
        29.7504
   -634050.21947   -454901.78144
                  23692912.2194                                   23692909.3164
                                                                        44.5004
        28.7504
 09 10  3 23 48 30.0000000  0  8G02G04G12G13G20G23G30G31
  -6824824.14848  -5249911.28946
                  20997144.2114                                   20997139.1724
                                                                        50.7504
        40.7504
   -722731.81648   -520778.05547
                  20560091.8914                                   20560089.2034
                                                                        52.5004
        42.0004
   3872473.29747   3037646.21545
                  23538733.2194                                   23538729.4654
                                                                        46.0004
        31.0004
  -8606538.84048  -6633689.66845
                  22219286.6724                                   22219282.8714
                                                                        48.2504
        32.2504
   6930899.81347   5403528.02343
                  23936492.8674                                   23936488.4144
                                                                        43.2504
        22.0004
  -2809537.28148  -2136467.77045
                  21757003.5554                                   21756997.7664
                                                                        49.2504
        35.7504
   -552150.34447   -387608.87945
                  22584102.4924                                   22584100.2664
                                                                        46.2504
        30.7504
   -694582.39147   -502069.66044
                  23681393.6804                                   23681390.4064
                                                                        44.0004
        27.0004
 09 10  3 23 49  0.0000000  0  8G02G04G12G13G20G23G30G31
  -6968812.19548  -5362109.74646
                  20969744.0234                                   20969739.0084
                                                                        51.5004
        41.2504
   -784164.40248   -568647.76647
                  20548401.9614                                   20548399.2274
                                                                        53.0004
        42.0004
   3865074.41047   3031880.88745
                  23537324.9694                                   23537321.9454
                                                                        47.0004
        32.0004
  -8773359.39848  -6763679.67645
                  22187541.8134                                   22187538.0084
                                                                        48.5004
        32.0004
   6952814.31346   5420604.15643
                  23940662.0474                                   23940658.6374
                                                                        41.7504
        22.0004
  -2894694.66448  -2202824.19145
                  21740798.9304                                   21740792.9534
                                                                        49.7504
        35.5004
   -607137.53547   -430455.94945
                  22573638.5554                                   22573636.6214
                                                                        46.0004
        30.2504
   -754484.33647   -548746.42244
                  23669995.1094                                   23669991.0004
                                                                        43.5004
        26.7504
 09 10  3 23 49 30.0000000  0  8G02G04G12G13G20G23G30G31
  -7112282.35248  -5473904.62546
                  20942442.8134                                   20942437.7114
                                                                        51.7504
        41.2504
   -844995.65648   -616048.74647
                  20536826.1024                                   20536823.4694
                                                                        53.5004
        42.0004
   3858128.71947   3026468.68045
                  23536003.2664                                   23535999.7114
                                                                        46.2504
        31.7504
  -8939644.85548  -6893252.75445
                  22155898.2734                                   22155895.0124
                                                                        48.2504
        33.0004
   6974959.57046   5437860.19143
                  23944876.6564                                   23944873.5394
                                                                        39.2504
        22.0004
  -2979166.37948  -2268646.28945
                  21724724.1174                                   21724718.2114
                                                                        49.5004
        35.2504
   -661428.77347   -472760.87544
                  22563307.9304                                   22563305.0434
                                                                        46.2504
        29.7504
   -813758.68747   -594934.16044
                  23658715.0784                                   23658711.5664
                                                                        43.2504
        28.0004
 09 10  3 23 50  0.0000000  0  8G02G04G12G13G20G23G30G31
  -7255232.99648  -5585294.76247
                  20915239.9454                                   20915234.7344
                                                                        52.0004
        42.0004
   -905226.21948   -662981.73447
                  20525364.6954                                   20525361.8834
                                                                        53.2504
        42.0004
   3851633.82447   3021407.67245
                  23534767.5234                                   23534764.0204
                                                                        46.2504
        31.5004
  -9105392.39148  -7022406.67645
                  22124357.9924                                   22124354.3874
                                                                        48.5004
        32.7504
   6997333.49246   5455294.39543
                  23949133.5784                                   23949131.2544
                                                                        36.2504
        20.7504
  -3062952.07448  -2333933.82045
                  21708780.3204                                   21708774.0204
                                                                        50.2504
        34.7504
   -715024.32447   -514523.58645
                  22553108.3594                                   22553106.0354
                                                                        46.0004
        30.5004
   -872406.17247   -640633.44544
                  23647554.5474                                   23647550.9494
                                                                        43.0004
        27.5004
 09 10  3 23 50 30.0000000  0  8G02G04G12G13G20G23G30G31
  -7397659.84048  -5696276.74646
                  20888137.1094                                   20888132.2074
                                                                        52.0004
        41.5004
   -964854.45748   -709445.33646
                  20514017.7894                                   20514014.7504
                                                                        51.2504
        41.5004
   3845590.04347   3016698.22745
                  23533617.3674                                   23533614.3444
                                                                        45.7504
        31.0004
  -9270596.82848  -7151137.43745
                  22092920.6724                                   22092917.0044
                                                                        48.7504
        32.5004
   7019936.13346   5472906.78943
                  23953436.1564                                   23953432.2704
                                                                        39.2504
        21.0004
  -3146049.82848  -2398685.34446
                  21692967.4144                                   21692961.1484
                                                                        50.2504
        36.0004
   -767924.00847   -555744.15644
                  22543042.0394                                   22543040.1054
                                                                        46.0004
        29.7504
   -930425.67646   -685843.47344
                  23636514.1024                                   23636510.1174
                                                                        40.7504
        27.2504
 09 10  3 23 51  0.0000000  0  8G02G04G12G13G20G23G30G31
  -7539562.71548  -5806850.46147
                  20861134.1254                                   20861129.4344
                                                                        52.0004
        42.2504
  -1023882.50448   -755441.21147
                  20502785.1644                                   20502782.0594
                                                                        52.7504
        42.0004
   3839992.71547   3012336.67245
                  23532551.7424                                   23532548.9574
                                                                        45.7504
        30.5004
  -9435256.93448  -7279443.98845
                  22061587.1174                                   22061583.2584
                                                                        49.0004
        33.0004
   7042763.78947   5490694.55543
                  23957779.8204                                   23957776.0514
                                                                        42.2504
        23.0004
  -3228461.04748  -2462901.89545
                  21677285.1804                                   21677278.9804
                                                                        49.5004
        35.5004
   -820130.42247   -596424.52044
                  22533107.1724                                   22533105.2034
                                                                        45.7504
        29.5004
   -987819.35547   -730565.81644
                  23625592.4224                                   23625588.4024
                                                                        43.0004
        26.7504
 09 10  3 23 51 30.0000000  0  8G02G04G12G13G20G23G30G31
  -7680943.75848  -5917017.46547
                  20834230.0394                                   20834225.0554
                                                                        52.7504
        42.0004
  -1082315.43048   -800973.37547
                  20491665.6804                                   20491662.8014
                                                                        52.5004
        42.5004
   3834835.46547   3008318.06645
                  23531570.3594                                   23531567.5704
                                                                        45.0004
        31.0004
  -9599374.42648  -7407327.77745
                  22030356.6804                                   22030352.7304
                                                                        48.7504
        33.2504
   7065809.86747   5508652.56343
                  23962165.3134                                   23962161.2774
                                                                        43.2504
        22.5004
  -3310190.00848  -2526586.84445
                  21661732.5944                                   21661726.8094
                                                                        50.0004
        34.7504
   -871649.27347   -636569.15244
                  22523303.6484                                   22523301.3714
                                                                        46.2504
        29.7504
  -1044592.37147   -774804.43044
                  23614788.8364                                   23614785.0394
                                                                        42.5004
        28.0004
 09 10  3 23 52  0.0000000  0  8G02G04G12G13G20G23G30G31
  -6246377.64848  -4799173.74646
                  21107218.8444                                   21107214.2074
                                                                        52.5004
        41.0004
    435266.95748    381558.34047
                  20780452.0004                                   20780449.2854
                                                                        51.0004
        42.0004
   5405534.38347   4232239.25445
                  23830464.4844                                   23830461.2154
                                                                        44.2504
        30.0004
  -8187521.85548  -6307182.93745
                  22299023.2344                                   22299019.3874
                                                                        49.0004
        32.7504
   8664490.65646   6754377.87143
                  24266384.0784                                   24266380.2074
                                                                        41.2504
        20.5004
  -1815814.96148  -1362138.80545
                  21946102.6024                                   21946096.7814
                                                                        50.5004
        35.0004
    652938.98447    551421.76245
                  22813423.0864                                   22813421.6454
                                                                        46.0004
        30.0004
    474674.64546    409040.02344
                  23903895.7814                                   23903891.7774
                                                                        41.0004
        26.5004
 09 10  3 23 52 30.0000000  0  8G02G04G12G13G20G23G30G31
  -6386710.22348  -4908523.60546
                  21080514.1094                                   21080509.1684
                                                                        52.5004
        41.5004
    378021.25048    336951.25447
                  20769558.6094                                   20769555.8094
                                                                        53.7504
        42.2504
   5401248.03147   4228899.19144
                  23829649.0084                                   23829645.3984
                                                                        45.7504
        29.5004
  -8350546.40248  -6434215.04745
                  22268000.6254                                   22267997.0434
                                                                        49.0004
        33.0004
   8687967.01646   6772671.26643
                  24270851.0394                                   24270847.7584
                                                                        39.0004
        19.2504
  -1896180.00848  -1424760.93745
                  21930809.9614                                   21930803.8054
                                                                        50.7504
        34.7504
    602790.63347    512345.16444
                  22803879.6804                                   22803878.4264
                                                                        45.7504
        29.5004
    419138.29747    365764.82844
                  23893327.5944                                   23893323.8594
                                                                        44.2504
        28.5004
 09 10  3 23 53  0.0000000  0  8G02G04G12G13G20G23G30G31
  -6526516.06248  -5017463.16447
                  21053909.8364                                   21053905.1604
                                                                        52.5004
        42.0004
    321368.74648    292806.41847
                  20758777.9384                                   20758774.9964
                                                                        53.0004
        42.0004
   5397393.71547   4225895.87144
                  23828915.8594                                   23828911.7624
                                                                        45.7504
        29.5004
  -8513019.94948  -6560817.78545
                  22237082.9774                                   22237079.3484
                                                                        48.7504
        32.0004
   8711655.61746   6791129.84442
                  24275357.7034                                   24275355.8284
                                                                        37.0004
        16.7504
  -1975863.09448  -1486851.65645
                  21915646.5864                                   21915640.9534
                                                                        50.0004
        35.5004
    553325.85547    473801.13745
                  22794467.5474                                   22794465.6644
                                                                        46.0004
        30.5004
    364219.18847    322970.48844
                  23882877.2974                                   23882873.4694
                                                                        44.5004
        28.7504
 09 10  3 23 53 30.0000000  0  8G02G04G12G13G20G23G30G31
  -6665794.98448  -5125992.03546
                  21027406.1094                                   21027401.1024
                                                                        52.0004
        41.5004
    265306.40248    249121.50847
                  20748109.6254                                   20748106.8874
                                                                        53.2504
        42.2504
   5393966.48447   4223225.32844
                  23828263.5084                                   23828259.1484
                                                                        46.0004
        29.0004
  -8674942.01248  -6686990.83645
                  22206270.0164                                   22206266.0234
                                                                        49.0004
        33.2504
   8735552.31346   6809750.58243
                  24279906.0784                                   24279903.3054
                                                                        38.5004
        19.2504
  -2054866.71548  -1548412.95745
                  21900612.7814                                   21900606.9184
                                                                        50.2504
        34.7504
    504540.84447    435786.75045
                  22785183.9224                                   22785182.4964
                                                                        46.2504
        30.2504
    309914.49247    280655.01244
                  23872543.5474                                   23872539.8874
                                                                        45.2504
        28.5004
 09 10  3 23 54  0.0000000  0  8G02G04G12G13G20G23G30G31
  -6804548.32848  -5234111.68046
                  21001002.3444                                   21000997.1334
                                                                        52.2504
        41.5004
    209831.23448    205894.20346
                  20737552.8444                                   20737549.9654
                                                                        52.5004
        41.7504
   5390961.39847   4220883.72744
                  23827691.5084                                   23827687.5634
                                                                        45.5004
        29.7504
  -8836312.08648  -6812733.70345
                  22175562.8364                                   22175558.7384
                                                                        49.7504
        33.0004
   8759653.13746   6828530.41843
                  24284492.9454                                   24284489.7704
                                                                        40.5004
        21.2504
  -2133193.05548  -1609446.48045
                  21885707.6564                                   21885701.9264
                                                                        50.5004
        35.0004
    456431.96547    398299.28544
                  22776029.9144                                   22776027.5634
                                                                        45.0004
        29.2504
    256220.89847    238815.87144
                  23862326.1094                                   23862322.5824
                                                                        44.5004
        28.2504
 09 10  3 23 54 30.0000000  0  8G02G04G12G13G20G23G30G31
  -6942773.11348  -5341819.30547
                  20974698.8754                                   20974693.9884
                                                                        52.2504
        42.0004
    154942.30548    163123.61746
                  20727108.0634                                   20727105.2704
                                                                        53.0004
        41.5004
   5388376.20347   4218869.24245
                  23827199.5084                                   23827196.0274
                                                                        46.0004
        30.2504
  -8997127.51648  -6938044.39545
                  22144960.6254                                   22144956.4144
                                                                        49.0004
        33.5004
   8783955.39546   6847467.20743
                  24289117.8364                                   24289114.1914
                                                                        41.2504
        22.7504
  -2210842.21948  -1669952.30546
                  21870931.7114                                   21870926.1294
                                                                        49.5004
        36.0004
    408998.09447    361337.88345
                  22767003.1024                                   22767001.3444
                                                                        44.7504
        30.2504
    203137.07447    197451.81344
                  23852224.2814                                   23852220.4774
                                                                        44.0004
        28.5004
 09 10  3 23 55  0.0000000  0  8G02G04G12G13G20G23G30G31
  -7080468.92648  -5449114.61347
                  20948496.0474                                   20948491.0554
                                                                        52.2504
        42.0004
    100638.09448    120808.65246
                  20716774.2664                                   20716771.2774
                                                                        52.5004
        41.5004
   5386207.37947   4217179.19545
                  23826787.0164                                   23826783.9734
                                                                        45.5004
        31.0004
  -9157386.79748  -7062921.73445
                  22114463.6334                                   22114460.2974
                                                                        49.2504
        33.2504
   8808456.37546   6866558.81643
                  24293779.7274                                   24293776.4924
                                                                        41.7504
        22.2504
  -2287815.40248  -1729931.42646
                  21856284.0004                                   21856278.0474
                                                                        49.7504
        36.0004
    362236.60547    324900.38344
                  22758104.4144                                   22758102.7344
                                                                        45.0004
        29.0004
    150660.82447    156561.11744
                  23842238.0164                                   23842234.7304
                                                                        44.5004
        27.7504
 09 10  3 23 55 30.0000000  0  8G02G04G12G13G20G23G30G31
  -7217635.43048  -5555997.44947
                  20922394.2424                                   20922389.2934
                                                                        51.7504
        42.0004
     46916.50048     78947.65247
                  20706551.6884                                   20706548.4494
                                                                        53.0004
        42.0004
   5384450.81347   4215810.41445
                  23826452.9924                                   23826449.4184
                                                                        45.0004
        30.2504
  -9317088.19948  -7187364.36745
                  22084073.6024                                   22084069.8834
                                                                        49.2504
        33.7504
   8833152.89146   6885802.85243
                  24298478.9694                                   24298476.2504
                                                                        39.5004
        19.2504
  -2364114.03948  -1789384.91045
                  21841764.6564                                   21841759.1844
                                                                        49.2504
        34.5004
    316144.10247    288984.09445
                  22749333.7734                                   22749331.4184
                                                                        45.5004
        30.0004
     98790.05147    116142.23844
                  23832368.1254                                   23832364.4384
                                                                        45.0004
        27.0004
 09 10  3 23 56  0.0000000  0  8G02G04G12G13G20G23G30G31
  -7354270.91048  -5662466.39847
                  20896393.3364                                   20896387.9144
                                                                        51.7504
        42.2504
     -6223.67248     37539.68847
                  20696439.3134                                   20696436.2774
                                                                        53.0004
        42.0004
   5383103.40647   4214760.44145
                  23826195.7734                                   23826193.2274
                                                                        45.5004
        31.0004
  -9476229.94148  -7311370.89545
                  22053789.8834                                   22053786.5004
                                                                        49.0004
        34.2504
   8858042.03546   6905196.76643
                  24303214.8284                                   24303212.0314
                                                                        38.0004
        18.2504
  -2439739.18448  -1848313.55945
                  21827373.9144                                   21827368.0944
                                                                        50.0004
        35.0004
    270718.89547    253587.93844
                  22740689.4304                                   22740687.3714
                                                                        45.7504
        29.7504
     47523.44547     76194.23844
                  23822612.1484                                   23822608.6604
                                                                        44.0004
        27.7504
 09 10  3 23 56 30.0000000  0  8G02G04G12G13G20G23G30G31
  -7490372.69148  -5768519.67246
                  20870493.4924                                   20870488.5044
                                                                        51.7504
        41.5004
    -58781.48448     -3414.32846
                  20686437.6024                                   20686434.9574
                                                                        53.5004
        41.7504
   5382163.75047   4214028.02745
                  23826017.2584                                   23826014.6334
                                                                        45.2504
        30.5004
  -9634807.66448  -7434937.92245
                  22023613.3674                                   22023610.0204
                                                                        49.5004
        33.7504
   8883124.00046   6924741.20742
                  24307988.8674                                   24307985.4304
                                                                        39.5004
        16.7504
  -2514689.37948  -1906716.29345
                  21813111.5944                                   21813105.5634
                                                                        49.5004
        35.5004
    225961.13347    218711.80545
                  22732172.2114                                   22732169.7814
                                                                        45.5004
        30.5004
     -3139.02747     36717.00844
                  23812971.2114                                   23812967.7274
                                                                        44.2504
        27.5004
 09 10  3 23 57  0.0000000  0  8G02G04G12G13G20G23G30G31
  -7625938.21548  -5874155.03947
                  20844696.5314                                   20844691.4694
                                                                        51.2504
        42.2504
   -110757.86348    -43915.48446
                  20676546.8754                                   20676543.8874
                                                                        52.0004
        41.2504
   5381630.16447   4213612.07844
                  23825916.3364                                   23825912.8984
                                                                        44.5004
        28.5004
  -9792818.52748  -7558063.27745
                  21993545.4144                                   21993541.6484
                                                                        49.0004
        34.0004
   8908396.79346   6944434.34043
                  24312797.9064                                   24312794.3244
                                                                        40.0004
        19.7504
  -2588964.22748  -1964592.79745
                  21798977.1024                                   21798971.6294
                                                                        49.0004
        35.2504
    181869.83647    184355.06345
                  22723781.8524                                   22723779.1024
                                                                        44.7504
        30.0004
    -53197.64146     -2289.52744
                  23803445.1644                                   23803441.7894
                                                                        40.2504
        27.5004
 09 10  3 23 57 30.0000000  0  7G02G04G12G13G23G30G31
  -7760969.09848  -5979373.88347
                  20819000.9454                                   20818995.7074
                                                                        51.7504
        42.0004
   -162156.25448    -83966.19946
                  20666766.1094                                   20666762.9414
                                                                        53.5004
        41.7504
   5381497.62147   4213509.10945
                  23825891.3134                                   23825887.5164
                                                                        44.7504
        30.0004
  -9950262.73048  -7680747.07045
                  21963584.5474                                   21963580.9064
                                                                        48.7504
        34.2504
  -2662567.26248  -2021945.86345
                  21784971.0634                                   21784965.5984
                                                                        49.0004
        35.5004
    138439.71547    150513.48044
                  22715517.4454                                   22715514.4304
                                                                        44.0004
        29.7504
   -102657.38747    -40829.46144
                  23794032.6254                                   23794030.0274
                                                                        43.0004
        26.7504
 09 10  3 23 58  0.0000000  0  7G02G04G12G13G23G30G31
  -7895465.18448  -6084175.98847
                  20793407.2034                                   20793402.0864
                                                                        52.0004
        42.0004
   -212979.42648   -123568.70746
                  20657095.0314                                   20657092.0164
                                                                        52.5004
        41.7504
   5381760.36747   4213713.86345
                  23825941.2274                                   23825937.2624
                                                                        45.5004
        31.2504
 -10107139.27748  -7802988.52345
                  21933732.0634                                   21933728.1214
                                                                        49.2504
        34.0004
  -2735500.68448  -2078777.13745
                  21771092.4224                                   21771086.5124
                                                                        49.2504
        35.0004
     95667.44547    117184.43845
                  22707378.4774                                   22707375.2934
                                                                        46.2504
        30.2504
   -151521.10946    -78905.00844
                  23784735.2664                                   23784731.1914
                                                                        41.0004
        28.2504
 09 10  3 23 58 30.0000000  0  7G02G04G12G13G23G30G31
  -8029424.91048  -6188560.06647
                  20767915.1954                                   20767910.2854
                                                                        51.5004
        42.0004
   -263228.75848   -162724.02747
                  20647532.6094                                   20647529.4384
                                                                        53.2504
        42.0004
   5382415.57847   4214224.49244
                  23826066.0004                                   23826061.7814
                                                                        45.5004
        29.7504
 -10263446.31248  -7924786.21145
                  21903987.8914                                   21903983.8554
                                                                        49.7504
        33.2504
  -2807765.13348  -2135087.13345
                  21757341.0084                                   21757334.9144
                                                                        48.7504
        34.5004
     53551.00847     84366.42245
                  22699363.6484                                   22699360.9614
                                                                        46.0004
        30.0004
   -199790.30947   -116517.35244
                  23775549.7344                                   23775545.9574
                                                                        43.7504
        27.2504
 09 10  3 23 59  0.0000000  0  7G02G04G12G13G23G30G31
  -8162840.62948  -6292520.23447
                  20742527.2424                                   20742522.0394
                                                                        51.2504
        42.0004
   -312898.74248   -201427.91046
                  20638080.9224                                   20638077.8244
                                                                        51.7504
        41.7504
   5383467.08247   4215043.83644
                  23826265.5634                                   23826262.3244
                                                                        44.0004
        28.5004
 -10419174.84848  -8046133.12145
                  21874353.3914                                   21874349.6524
                                                                        49.5004
        33.7504
  -2879355.01247  -2190871.45745
                  21743717.9694                                   21743712.2344
                                                                        47.5004
        35.2504
     12095.06647     52063.03944
                  22691474.7194                                   22691471.9414
                                                                        44.2504
        28.7504
   -247459.78146   -153662.30544
                  23766478.4694                                   23766474.8524
                                                                        41.0004
        28.0004
 09 10  3 23 59 30.0000000  0  7G02G04G12G13G23G30G31
  -8295713.32848  -6396057.38347
                  20717242.3914                                   20717237.1174
                                                                        51.5004
        42.0004
   -361993.09848   -239683.33247
                  20628738.5704                                   20628735.5984
                                                                        53.2504
        42.0004
   5384909.85947   4216168.14844
                  23826539.8674                                   23826536.4774
                                                                        43.5004
        28.5004
 -10574325.08248  -8167029.41445
                  21844829.3914                                   21844825.7774
                                                                        49.7504
        34.0004
  -2950273.18048  -2246132.35545
                  21730222.4844                                   21730216.8284
                                                                        49.5004
        34.7504
    -28704.44547     20271.15644
                  22683710.9844                                   22683708.6914
                                                                        44.2504
        29.5004
   -294533.43747   -190342.96944
                  23757520.5554                                   23757516.7774
                                                                        45.0004
        27.7504
