     2.11           OBSERVATION DATA    G (GPS)             RINEX VERSION / TYPE
teqc  2019Feb25                         20221121 12:28:46UTCPGM / RUN BY / DATE
OSX ker:10.11.6|Core i5|gcc 4.3 -m64|OSX ker:10.10+|=+      COMMENT
BIT 2 OF LLI FLAGS DATA COLLECTED UNDER A/S CONDITION       COMMENT
04713000                                                    MARKER NAME
3000                                                        MARKER NUMBER
-Unknown-           -Unknown-                               OBSERVER / AGENCY
0220400471          TRIMBLE R7          2.30                REC # / TYPE / VERS
-Unknown-           TRM39105.00     NONE                    ANT # / TYPE
  1449458.8541 -1709243.4329  5952440.4143                  APPROX POSITION XYZ
        0.0000        0.0000        0.0000                  ANTENNA: DELTA H/E/N
     1     1                                                WAVELENGTH FACT L1/2
    20    L1    L2    L5    L6    L7    L8    C1    P1    C2# / TYPES OF OBSERV
          P2    C5    C6    C7    C8    S1    S2    S5    S6# / TYPES OF OBSERV
          S7    S8                                          # / TYPES OF OBSERV
    30.0000                                                 INTERVAL
    15                                                      LEAP SECONDS
Forced Modulo Decimation to 30 seconds                      COMMENT
 SNR is mapped to RINEX snr flag value [0-9]                COMMENT
  L1 & L2: min(max(int(snr_dBHz/6), 0), 9)                  COMMENT
teqc edited: Beidou # 1 - 37 excluded                       COMMENT
  2009    10    27     0     0    0.0000000     GPS         TIME OF FIRST OBS
                                                            END OF HEADER
 09 10 27  0  0  0.0000000  0  9G02G04G05G10G13G23G29G16G07
  -5814344.59048  -4515307.66046
                  21060929.5944                                   21060924.4694
                                                                        52.2504
        40.5004
    794530.46147    621379.82844
                  23720760.1334                                   23720757.7704
                                                                        44.0004
        28.0004
 -17887607.99648 -13902856.63346
                  21514634.3594                                   21514630.4144
                                                                        51.2504
        41.2504
 -16547766.61348 -12860258.75046
                  20851072.3204                                   20851068.7274
                                                                        52.0004
        41.0004
  -6852957.56248  -5323865.89545
                  21656740.7274                                   21656736.5864
                                                                        48.7504
        33.2504
   -313674.56646   -239113.59043
                  24173292.6174                                   24173286.6294
                                                                        41.5004
        21.0004
 -13325350.00848 -10339340.91046
                  22038973.1254                                   22038970.2464
                                                                        49.0004
        38.2504
  -7728723.37147  -5989321.98444
                  23817603.7194                                   23817599.8324
                                                                        42.0004
        25.2504
  -7813609.17246  -6076831.47744
                  23717374.3364                                   23717371.0234
                                                                        40.5004
        26.0004
 09 10 27  0  0 30.0000000  0  9G02G04G05G10G13G23G29G16G07
  -5840631.36748  -4535790.85946
                  21055927.7034                                   21055922.3324
                                                                        52.5004
        41.0004
    819566.69947    640888.56344
                  23725524.3834                                   23725521.8204
                                                                        43.7504
        26.2504
 -18045464.92648 -14025862.02746
                  21484594.9064                                   21484591.6254
                                                                        50.5004
        40.5004
 -16686712.91048 -12968528.60546
                  20824631.6334                                   20824628.2154
                                                                        52.0004
        41.5004
  -6885988.36748  -5349604.17645
                  21650455.2034                                   21650451.5434
                                                                        48.0004
        33.5004
   -295295.60947   -224792.35243
                  24176790.9454                                   24176784.6604
                                                                        42.2504
        22.5004
 -13426555.77748 -10418202.52346
                  22019714.6564                                   22019711.4844
                                                                        48.5004
        38.0004
  -7855937.74646  -6088450.04344
                  23793395.2274                                   23793391.5984
                                                                        41.5004
        25.2504
  -7985588.78546  -6210841.52044
                  23684647.7894                                   23684643.8364
                                                                        40.7504
        25.0004
 09 10 27  0  1  0.0000000  0  8G02G04G05G10G13G29G16G07
  -5866361.41848  -4555840.24246
                  21051031.2894                                   21051025.7304
                                                                        51.7504
        40.7504
    844820.04346    660566.48444
                  23730329.4454                                   23730326.6484
                                                                        41.2504
        27.2504
 -18202860.29348 -14148507.76246
                  21454643.4224                                   21454639.7384
                                                                        50.5004
        41.7504
 -16825096.94148 -13076360.33646
                  20798298.0084                                   20798294.8134
                                                                        52.0004
        41.5004
  -6918400.58248  -5374860.45745
                  21644287.6414                                   21644283.6524
                                                                        48.5004
        33.0004
 -13527108.41048 -10496555.20746
                  22000579.8284                                   22000576.6334
                                                                        48.2504
        38.5004
  -7982542.62947  -6187103.20344
                  23769303.2814                                   23769299.7934
                                                                        42.2504
        24.5004
  -8157153.30947  -6344528.10244
                  23651999.8204                                   23651996.8404
                                                                        42.0004
        25.5004
 09 10 27  0  1 30.0000000  0  8G02G04G05G10G13G29G16G07
  -5891531.57448  -4575453.34846
                  21046241.3594                                   21046235.9964
                                                                        51.5004
        41.2504
    870293.77047    680416.07444
                  23735177.2664                                   23735175.0164
                                                                        43.0004
        27.5004
 -18359788.57048 -14270789.55546
                  21424781.0234                                   21424777.4184
                                                                        50.7504
        41.0004
 -16962912.67248 -13183749.22746
                  20772072.6484                                   20772069.5434
                                                                        52.0004
        41.0004
  -6950191.13348  -5399632.29345
                  21638237.7344                                   21638233.5634
                                                                        48.7504
        33.2504
 -13627003.12148 -10574395.24246
                  21981570.4694                                   21981567.2704
                                                                        49.0004
        38.0004
  -8108531.69546  -6285276.49244
                  23745328.5084                                   23745324.5204
                                                                        41.5004
        25.5004
  -8328293.53546  -6477884.06244
                  23619432.7974                                   23619429.5164
                                                                        41.5004
        26.7504
 09 10 27  0  2  0.0000000  0  8G02G04G05G10G13G29G16G07
  -5916142.08248  -4594630.36746
                  21041558.2424                                   21041552.8914
                                                                        52.0004
        41.0004
    895985.82847    700435.81644
                  23740066.2664                                   23740064.0474
                                                                        43.5004
        27.5004
 -18516245.70748 -14392704.20346
                  21395008.5004                                   21395004.8444
                                                                        50.0004
        41.5004
 -17100157.04348 -13290692.88746
                  20745956.0864                                   20745952.5784
                                                                        52.2504
        40.7504
  -6981361.12548  -5423920.58245
                  21632306.0634                                   21632301.8094
                                                                        49.0004
        34.2504
 -13726236.65648 -10651720.08646
                  21962687.1644                                   21962683.7464
                                                                        48.2504
        38.0004
  -8233901.81246  -6382967.49244
                  23721471.7814                                   23721467.8244
                                                                        41.5004
        26.0004
  -8499006.74247  -6610907.28944
                  23586947.7504                                   23586943.6374
                                                                        43.5004
        27.0004
 09 10 27  0  2 30.0000000  0  8G02G04G05G10G13G29G16G07
  -5940191.05948  -4613369.83246
                  21036981.9774                                   21036976.4384
                                                                        51.2504
        41.5004
    921898.84047    720627.71944
                  23744997.5234                                   23744994.6094
                                                                        43.2504
        26.7504
 -18672228.07448 -14514248.90646
                  21365325.8524                                   21365322.3364
                                                                        51.0004
        41.0004
 -17236826.01648 -13397188.18746
                  20719948.5784                                   20719945.4614
                                                                        52.0004
        41.0004
  -7011908.53148  -5447723.74645
                  21626493.6334                                   21626489.6454
                                                                        48.5004
        33.0004
 -13824807.09848 -10728528.19546
                  21943929.9924                                   21943926.7664
                                                                        49.2504
        38.0004
  -8358648.85246  -6480172.99644
                  23697733.3914                                   23697729.0554
                                                                        41.7504
        27.2504
  -8669285.27347  -6743591.85544
                  23554545.1724                                   23554540.6524
                                                                        43.5004
        28.2504
 09 10 27  0  3  0.0000000  0  8G02G04G05G10G13G29G16G07
  -5963685.90648  -4631677.50446
                  21032510.6414                                   21032505.0634
                                                                        51.0004
        40.5004
    948024.14847    740985.07844
                  23749969.1564                                   23749966.0354
                                                                        42.7504
        25.7504
 -18827738.21548 -14635425.62146
                  21335733.3524                                   21335729.6914
                                                                        50.2504
        41.7504
 -17372923.23848 -13503237.98046
                  20694049.9844                                   20694046.8674
                                                                        52.5004
        41.0004
  -7041842.15648  -5471048.71545
                  21620797.2344                                   21620793.3164
                                                                        49.0004
        33.7504
 -13922718.17248 -10804822.52346
                  21925297.7344                                   21925294.3444
                                                                        49.5004
        38.7504
  -8482776.39147  -6576895.72744
                  23674112.1414                                   23674108.6174
                                                                        42.0004
        25.2504
  -8839133.34447  -6875940.97744
                  23522224.3364                                   23522220.2814
                                                                        44.5004
        29.2504
 09 10 27  0  3 30.0000000  0  8G02G04G05G10G13G29G16G07
  -5986631.29748  -4649557.03146
                  21028144.5084                                   21028138.8674
                                                                        51.5004
        40.7504
    974356.84847    761504.02044
                  23754979.7664                                   23754977.0824
                                                                        43.0004
        26.0004
 -18982778.82048 -14756236.47746
                  21306230.0084                                   21306226.2194
                                                                        51.2504
        41.2504
 -17508451.45748 -13608844.39546
                  20668260.0864                                   20668256.6804
                                                                        52.0004
        41.0004
  -7071166.39148  -5493898.77045
                  21615216.6884                                   21615213.0514
                                                                        49.0004
        32.7504
 -14019973.16848 -10880605.64146
                  21906791.0474                                   21906788.0474
                                                                        49.0004
        38.5004
  -8606286.41847  -6673137.30544
                  23650609.1254                                   23650604.9454
                                                                        42.5004
        25.2504
  -9008550.93747  -7007954.64544
                  23489985.1254                                   23489981.2234
                                                                        43.5004
        29.2504
 09 10 27  0  4  0.0000000  0  8G02G04G05G10G13G29G16G07
  -6009032.83648  -4667012.78146
                  21023881.9694                                   21023876.0004
                                                                        50.2504
        40.7504
   1000891.04346    782179.92644
                  23760028.8914                                   23760026.8914
                                                                        41.2504
        26.0004
 -19137351.61748 -14876682.82046
                  21276815.7274                                   21276812.3364
                                                                        51.2504
        41.5004
 -17643412.77048 -13714009.04746
                  20642577.4064                                   20642574.0824
                                                                        52.5004
        41.0004
  -7099887.15648  -5516278.56645
                  21609751.5084                                   21609747.5514
                                                                        48.5004
        33.0004
 -14116575.18048 -10955879.93446
                  21888408.1414                                   21888404.6914
                                                                        48.7504
        38.2504
  -8729181.14547  -6768899.44144
                  23627222.6174                                   23627218.3364
                                                                        42.2504
        24.0004
  -9177538.85947  -7139633.51244
                  23457827.2584                                   23457823.4844
                                                                        42.5004
        28.2504
 09 10 27  0  4 30.0000000  0  8G02G04G05G10G13G29G16G07
  -6030892.72748  -4684046.46146
                  21019722.2584                                   21019716.3914
                                                                        51.2504
        41.0004
   1027623.66447    803010.38344
                  23765116.3914                                   23765114.3324
                                                                        43.0004
        25.0004
 -19291455.90248 -14996764.07846
                  21247490.5784                                   21247487.1524
                                                                        50.7504
        41.2504
 -17777806.67648 -13818731.55546
                  20617003.3284                                   20617000.2624
                                                                        52.5004
        41.0004
  -7128008.02048  -5538190.90645
                  21604400.3674                                   21604396.4884
                                                                        48.5004
        32.7504
 -14212524.27748 -11030645.45346
                  21870149.6804                                   21870146.0784
                                                                        48.0004
        38.2504
  -8851460.00846  -6864181.66443
                  23603954.2894                                   23603949.2114
                                                                        41.0004
        22.5004
  -9346095.28247  -7270976.13944
                  23425751.8444                                   23425748.1454
                                                                        42.5004
        27.7504
 09 10 27  0  5  0.0000000  0  8G02G04G05G10G13G29G16G07
  -6052218.26248  -4700663.76246
                  21015663.7734                                   21015658.2734
                                                                        51.0004
        40.5004
   1054547.02047    823989.48044
                  23770240.3134                                   23770237.6724
                                                                        44.2504
        28.0004
 -19445095.63748 -15116483.35246
                  21218254.0944                                   21218250.5394
                                                                        51.7504
        41.2504
 -17911638.25448 -13923015.86746
                  20591535.8444                                   20591533.0864
                                                                        52.7504
        41.2504
  -7155536.41448  -5559641.59045
                  21599162.1804                                   21599157.7544
                                                                        48.5004
        32.2504
 -14307826.39848 -11104906.84846
                  21852014.1954                                   21852011.1684
                                                                        49.2504
        38.5004
  -8973127.94946  -6958987.84443
                  23580801.4454                                   23580795.9844
                                                                        40.5004
        21.2504
  -9514223.30547  -7401984.93044
                  23393757.9064                                   23393754.4884
                                                                        42.0004
        27.7504
 09 10 27  0  5 30.0000000  0  8G02G04G05G10G13G29G16G07
  -4497586.29748  -3489262.23446
                  21311500.3754                                   21311494.9694
                                                                        50.7504
        40.5004
   2657082.59847   2072718.41444
                  24075192.3284                                   24075190.3594
                                                                        44.2504
        26.7504
 -18022839.86348 -14008232.10946
                  21488900.4144                                   21488896.8554
                                                                        50.7504
        41.5004
 -16469477.02348 -12799253.85246
                  20865969.8834                                   20865966.9344
                                                                        52.7504
        40.7504
  -5607049.11348  -4353028.12145
                  21893829.2034                                   21893825.1804
                                                                        48.5004
        31.7504
 -12827053.55948  -9951057.89146
                  22133796.1804                                   22133792.4884
                                                                        48.5004
        38.7504
  -7518754.35246  -5825709.73443
                  23857559.2424                                   23857554.2814
                                                                        40.7504
        20.5004
  -8106489.99647  -6305049.83644
                  23661640.5314                                   23661636.9454
                                                                        42.2504
        27.0004
 09 10 27  0  6  0.0000000  0  8G02G04G05G10G13G29G16G07
  -4517844.36748  -3505047.75046
                  21307645.6414                                   21307640.0434
                                                                        50.5004
        40.2504
   2684385.40647   2093993.29344
                  24080388.1334                                   24080385.8284
                                                                        43.7504
        27.0004
 -18175541.81248 -14127220.63746
                  21459842.3594                                   21459838.7814
                                                                        50.5004
        41.5004
 -16602175.26648 -12902655.09046
                  20840718.7274                                   20840715.5044
                                                                        52.2504
        41.0004
  -5633395.13748  -4373557.52745
                  21888815.6024                                   21888811.8914
                                                                        48.7504
        32.5004
 -12921055.97748 -10024306.52346
                  22115907.4694                                   22115904.7304
                                                                        48.0004
        38.5004
  -7639190.94146  -5919556.39143
                  23834641.1254                                   23834636.1994
                                                                        41.5004
        20.7504
  -8273748.76647  -6435381.30144
                  23629812.2424                                   23629808.6214
                                                                        42.2504
        26.7504
 09 10 27  0  6 30.0000000  0  8G02G04G05G10G13G29G16G07
  -4537568.94948  -3520417.55946
                  21303892.0864                                   21303886.5864
                                                                        51.5004
        40.5004
   2711877.04347   2115415.30944
                  24085619.4694                                   24085616.8594
                                                                        44.0004
        26.0004
 -18327769.77748 -14245839.83646
                  21430874.1724                                   21430870.8094
                                                                        51.7504
        41.2504
 -16734302.77048 -13005611.62146
                  20815575.7424                                   20815572.5164
                                                                        52.0004
        40.7504
  -5659150.52748  -4393626.68745
                  21883914.5164                                   21883911.1094
                                                                        49.5004
        32.7504
 -13014405.01648 -10097046.02346
                  22098143.9774                                   22098140.6724
                                                                        49.2504
        38.5004
  -7759007.49646  -6012919.93043
                  23811840.4224                                   23811835.5314
                                                                        40.2504
        21.0004
  -8440566.21947  -6565368.93444
                  23598068.6414                                   23598064.4804
                                                                        44.7504
        28.2504
 09 10 27  0  7  0.0000000  0  8G02G04G05G10G13G29G16G07
  -4556762.80948  -3535373.81646
                  21300239.3524                                   21300234.1024
                                                                        51.5004
        39.7504
   2739554.47747   2136982.05944
                  24090885.9844                                   24090884.0744
                                                                        43.0004
        24.5004
 -18479524.12948 -14364090.00046
                  21401996.4384                                   21401992.3874
                                                                        51.2504
        41.5004
 -16865859.37948 -13108123.27346
                  20790541.0394                                   20790537.8954
                                                                        52.0004
        41.2504
  -5684318.72348  -4413238.29745
                  21879125.4774                                   21879121.6254
                                                                        49.5004
        32.5004
 -13107102.50848 -10169277.84046
                  22080504.2584                                   22080500.7854
                                                                        49.5004
        38.5004
  -7878204.28946  -6105800.57443
                  23789158.0784                                   23789153.4844
                                                                        40.2504
        22.0004
  -8606940.76647  -6695011.45344
                  23566408.6414                                   23566403.8674
                                                                        44.2504
        27.7504
 09 10 27  0  7 30.0000000  0  8G02G04G05G10G13G29G16G07
  -4575426.77748  -3549917.17646
                  21296688.1254                                   21296682.4964
                                                                        51.2504
        40.5004
   2767416.00847   2158692.30943
                  24096188.2814                                   24096185.2344
                                                                        43.0004
        23.2504
 -18630801.62148 -14481968.56246
                  21373209.1024                                   21373205.5274
                                                                        51.7504
        41.7504
 -16996843.15248 -13210188.56646
                  20765615.5084                                   20765612.6994
                                                                        51.7504
        41.2504
  -5708901.96148  -4432394.09445
                  21874447.1954                                   21874443.4224
                                                                        49.0004
        32.7504
 -13199146.57048 -10241000.47346
                  22062988.8754                                   22062985.8634
                                                                        49.7504
        38.7504
  -7996779.21546  -6198196.60543
                  23766594.3834                                   23766589.7584
                                                                        40.7504
        23.0004
  -8772869.48047  -6824306.58244
                  23534833.0704                                   23534828.6914
                                                                        42.7504
        26.5004
 09 10 27  0  8  0.0000000  0  8G02G04G05G10G13G29G16G07
  -4593565.15248  -3564050.97746
                  21293236.3444                                   21293230.6844
                                                                        51.2504
        40.2504
   2795457.87147   2180543.02044
                  24101524.1954                                   24101521.5514
                                                                        42.5004
        25.5004
 -18781604.00048 -14599476.91046
                  21344512.2504                                   21344508.9454
                                                                        52.0004
        41.0004
 -17127255.92248 -13311808.89846
                  20740799.1334                                   20740796.1024
                                                                        52.2504
        41.0004
  -5732903.48048  -4451096.59045
                  21869880.1174                                   21869875.8634
                                                                        48.5004
        33.0004
 -13290540.21948 -10312216.29346
                  22045597.2194                                   22045593.8954
                                                                        50.0004
        38.5004
  -8114733.02046  -6290108.62143
                  23744148.3054                                   23744143.4694
                                                                        41.2504
        22.2504
  -8938351.05547  -6953253.26644
                  23503343.6254                                   23503339.0904
                                                                        43.0004
        28.2504
 09 10 27  0  8 30.0000000  0  8G02G04G05G10G13G29G16G07
  -4611176.94548  -3577774.45346
                  21289884.8134                                   21289879.5234
                                                                        51.0004
        39.5004
   2823679.70747   2202534.00044
                  24106895.2814                                   24106892.6414
                                                                        43.5004
        27.7504
 -18931926.40648 -14716611.24646
                  21315906.8444                                   21315903.2814
                                                                        51.5004
        41.5004
 -17257093.25848 -13412980.82846
                  20716091.9454                                   20716088.3954
                                                                        51.7504
        41.2504
  -5756324.07848  -4469346.44545
                  21865423.5554                                   21865418.9064
                                                                        49.0004
        32.7504
 -13381279.80148 -10382922.46546
                  22028330.0944                                   22028326.9534
                                                                        50.0004
        38.5004
  -8232062.23847  -6381534.03143
                  23721821.1024                                   23721817.2114
                                                                        42.2504
        23.2504
  -9103381.26247  -7081848.23044
                  23471938.2194                                   23471934.9184
                                                                        43.2504
        28.7504
 09 10 27  0  9  0.0000000  0  8G02G04G05G10G13G29G16G07
  -4628264.75448  -3591089.62146
                  21286633.1564                                   21286627.9344
                                                                        51.5004
        40.2504
   2852079.12547   2224663.34444
                  24112299.3754                                   24112297.2704
                                                                        42.2504
        28.5004
 -19081768.47348 -14833371.27346
                  21287392.8834                                   21287389.6294
                                                                        50.7504
        41.7504
 -17386355.53948 -13513704.66046
                  20691494.3444                                   20691490.7664
                                                                        52.2504
        41.5004
  -5779166.23448  -4487145.55545
                  21861077.0944                                   21861072.8134
                                                                        49.0004
        32.7504
 -13471366.39148 -10453119.78546
                  22011187.1954                                   22011183.4534
                                                                        50.0004
        38.5004
  -8348766.47346  -6472472.39843
                  23699613.0864                                   23699608.8554
                                                                        41.7504
        22.7504
  -9267957.69947  -7210089.60244
                  23440621.1334                                   23440617.5864
                                                                        43.5004
        29.5004
 09 10 27  0  9 30.0000000  0  8G02G04G05G10G13G29G16G07
  -4644833.56648  -3604000.38746
                  21283480.2664                                   21283475.1054
                                                                        51.5004
        40.2504
   2880651.11747   2246927.21144
                  24117736.6094                                   24117734.5204
                                                                        42.0004
        27.0004
 -19231131.84848 -14949758.31646
                  21258970.3674                                   21258966.4534
                                                                        51.2504
        41.7504
 -17515044.17248 -13613981.51246
                  20667005.4304                                   20667002.1644
                                                                        51.7504
        41.0004
  -5801435.54348  -4504498.32845
                  21856839.0944                                   21856835.3674
                                                                        48.5004
        32.0004
 -13560802.39848 -10522810.16046
                  21994167.7194                                   21994165.2274
                                                                        50.0004
        38.2504
  -8464847.46147  -6562925.16444
                  23677523.6174                                   23677519.4924
                                                                        42.5004
        25.7504
  -9432080.67247  -7337977.58245
                  23409389.4614                                   23409385.9414
                                                                        43.0004
        30.0004
 09 10 27  0 10  0.0000000  0  8G02G04G05G10G13G29G16G07
  -4660882.33648  -3616505.92246
                  21280426.2424                                   21280420.7154
                                                                        51.5004
        40.7504
   2909396.07846   2269325.84044
                  24123206.2584                                   24123204.5274
                                                                        39.7504
        24.2504
 -19380012.41048 -15065769.16447
                  21230639.2034                                   21230635.3874
                                                                        51.5004
        42.0004
 -17643155.82448 -13713808.77046
                  20642626.6484                                   20642622.8984
                                                                        52.0004
        41.0004
  -5823131.67647  -4521404.45345
                  21852710.5234                                   21852706.9104
                                                                        47.5004
        32.0004
 -13649585.65648 -10591991.91846
                  21977273.0234                                   21977269.9774
                                                                        49.7504
        39.0004
  -8580301.78947  -6652889.62944
                  23655554.1724                                   23655549.9304
                                                                        42.0004
        25.0004
  -9595744.66447  -7465507.93744
                  23378244.9304                                   23378241.2814
                                                                        43.2504
        29.0004
 09 10 27  0 10 30.0000000  0  8G02G04G05G10G13G29G16G07
  -4676413.04748  -3628607.78946
                  21277470.8204                                   21277465.3794
                                                                        52.0004
        39.5004
   2938311.70746   2291857.50043
                  24128708.6024                                   24128706.8754
                                                                        41.0004
        22.7504
 -19528407.99648 -15181402.08247
                  21202400.3054                                   21202396.8284
                                                                        51.5004
        42.0004
 -17770689.23848 -13813185.44546
                  20618357.8444                                   20618354.3794
                                                                        53.0004
        41.2504
  -5844257.01248  -4537865.82845
                  21848690.3754                                   21848686.4414
                                                                        48.5004
        31.5004
 -13737714.84048 -10660664.01646
                  21960502.7894                                   21960499.6884
                                                                        49.5004
        38.7504
  -8695127.85547  -6742364.48444
                  23633703.5234                                   23633698.8674
                                                                        42.5004
        25.2504
  -9758947.89847  -7592679.25844
                  23347188.3134                                   23347184.9534
                                                                        42.2504
        29.5004
 09 10 27  0 11  0.0000000  0  8G02G04G05G10G13G29G16G07
  -4691427.71548  -3640307.53946
                  21274613.5864                                   21274608.3364
                                                                        51.5004
        39.5004
   2967395.77346   2314520.23043
                  24134242.8364                                   24134240.8874
                                                                        41.0004
        22.0004
 -19676318.54348 -15296657.04346
                  21174253.9304                                   21174250.1024
                                                                        51.5004
        41.7504
 -17897643.92248 -13912111.15646
                  20594198.8364                                   20594195.7344
                                                                        52.2504
        41.0004
  -5864813.54748  -4553883.93745
                  21844778.7344                                   21844774.8324
                                                                        48.2504
        32.0004
 -13825191.85248 -10728827.92246
                  21943856.5084                                   21943853.5044
                                                                        49.7504
        38.5004
  -8809325.67247  -6831349.79744
                  23611971.8754                                   23611967.9884
                                                                        43.0004
        26.0004
  -9921686.92147  -7719488.84644
                  23316220.0164                                   23316216.5904
                                                                        43.2504
        29.0004
 09 10 27  0 11 30.0000000  0  8G02G04G05G10G13G29G16G07
  -4705929.38748  -3651607.55146
                  21271854.1414                                   21271848.6724
                                                                        51.5004
        39.7504
   2996644.69547   2337311.64143
                  24139808.5864                                   24139806.3054
                                                                        42.0004
        22.7504
 -19823742.33648 -15411532.70746
                  21146199.6724                                   21146196.4264
                                                                        50.7504
        41.5004
 -18024019.62948 -14010585.73846
                  20570150.4774                                   20570147.0234
                                                                        52.0004
        41.0004
  -5884805.68448  -4569462.24245
                  21840973.8674                                   21840970.2854
                                                                        49.0004
        31.5004
 -13912015.62548 -10796482.79746
                  21927334.3834                                   21927331.1994
                                                                        49.0004
        38.5004
  -8922894.09447  -6919844.64144
                  23590360.7344                                   23590356.2234
                                                                        42.2504
        27.2504
 -10083961.29547  -7845936.40345
                  23285340.8524                                   23285337.0634
                                                                        43.2504
        30.2504
 09 10 27  0 12  0.0000000  0  8G02G04G05G10G13G29G16G07
  -4719921.35248  -3662510.38346
                  21269191.6334                                   21269186.1054
                                                                        51.5004
        39.5004
   3026055.57847   2360229.23444
                  24145406.3834                                   24145403.4804
                                                                        43.5004
        26.0004
 -19970680.87148 -15526030.25446
                  21118238.5474                                   21118234.9804
                                                                        51.2504
        41.7504
 -18149817.58648 -14108610.12146
                  20546212.3754                                   20546208.8524
                                                                        52.0004
        41.5004
  -5904236.19948  -4584602.94145
                  21837276.8134                                   21837272.8134
                                                                        48.7504
        32.2504
 -13998189.78148 -10863631.48046
                  21910935.9224                                   21910932.9574
                                                                        49.5004
        38.5004
  -9035834.48047  -7007850.10944
                  23568868.5474                                   23568865.0124
                                                                        42.0004
        26.2504
 -10245768.76647  -7972020.15844
                  23254549.7584                                   23254545.8634
                                                                        43.5004
        29.5004
 09 10 27  0 12 30.0000000  0  8G02G04G05G10G13G29G16G07
  -4733404.00448  -3673016.34846
                  21266625.6414                                   21266620.2544
                                                                        51.5004
        40.2504
   3055627.16847   2383271.95344
                  24151033.3674                                   24151031.4734
                                                                        44.0004
        26.5004
 -20117130.04748 -15640146.48447
                  21090370.1724                                   21090366.3324
                                                                        51.2504
        42.0004
 -18275034.62148 -14206181.82846
                  20522384.0634                                   20522380.7114
                                                                        52.5004
        41.2504
  -5923107.34448  -4599307.75045
                  21833685.9694                                   21833681.7544
                                                                        49.0004
        32.0004
 -14083711.00848 -10930271.38746
                  21894661.7664                                   21894658.6334
                                                                        50.0004
        38.5004
  -9148143.95346  -7095363.97344
                  23547496.7344                                   23547492.7584
                                                                        41.5004
        25.7504
 -10407106.38347  -8097737.75844
                  23223848.3364                                   23223843.8054
                                                                        44.0004
        28.0004
 09 10 27  0 13  0.0000000  0  8G02G04G05G10G13G29G16G07
  -4746380.39148  -3683127.82846
                  21264156.5234                                   21264151.1134
                                                                        51.0004
        39.5004
   3085356.47347   2406437.67244
                  24156690.7734                                   24156688.7194
                                                                        44.2504
        28.0004
 -20263090.34048 -15753881.77747
                  21062594.6094                                   21062591.1684
                                                                        51.5004
        42.0004
 -18399671.44948 -14303301.43046
                  20498666.3284                                   20498663.2974
                                                                        51.7504
        41.0004
  -5941421.55148  -4613578.56245
                  21830200.6334                                   21830196.7544
                                                                        48.0004
        31.7504
 -14168581.75448 -10996404.44146
                  21878511.5634                                   21878508.6844
                                                                        50.0004
        38.5004
  -9259822.99246  -7182386.59443
                  23526244.3834                                   23526241.1644
                                                                        41.5004
        23.7504
 -10567972.12547  -8223087.64844
                  23193236.6884                                   23193232.2424
                                                                        44.5004
        29.2504
 09 10 27  0 13 30.0000000  0  8G02G04G05G10G13G29G16G07
  -4758853.57048  -3692847.20346
                  21261783.1414                                   21261777.6484
                                                                        50.5004
        39.2504
   3115240.27347   2429723.55944
                  24162377.4924                                   24162375.5354
                                                                        43.0004
        26.5004
 -20408561.29348 -15867235.77346
                  21034912.9614                                   21034909.1214
                                                                        51.2504
        41.7504
 -18523727.83648 -14399968.72346
                  20475059.1954                                   20475055.8364
                                                                        51.7504
        41.5004
  -5959182.45348  -4627418.28145
                  21826820.8524                                   21826817.3164
                                                                        48.0004
        30.5004
 -14252802.80148 -11062031.22346
                  21862484.8524                                   21862481.6564
                                                                        50.0004
        38.5004
  -9370871.59847  -7268917.98044
                  23505112.7504                                   23505109.2974
                                                                        42.0004
        24.5004
 -10728364.50847  -8348068.72744
                  23162714.7894                                   23162710.4304
                                                                        43.2504
        28.0004
 09 10 27  0 14  0.0000000  0  8G02G04G05G10G13G29G16G07
  -4770826.35948  -3702176.64546
                  21259504.8594                                   21259499.0904
                                                                        51.7504
        39.2504
   3145274.23046   2453125.88744
                  24168093.1254                                   24168091.5784
                                                                        41.7504
        25.0004
 -20553542.06648 -15980207.79346
                  21007323.8284                                   21007320.0784
                                                                        51.5004
        41.7504
 -18647203.97348 -14496183.89146
                  20451562.3524                                   20451558.9414
                                                                        51.7504
        41.0004
  -5976393.41448  -4640829.41445
                  21823546.0944                                   21823542.1914
                                                                        48.0004
        31.0004
 -14336374.24248 -11127151.81646
                  21846581.3754                                   21846578.4304
                                                                        49.5004
        37.7504
  -9481289.70746  -7354958.08644
                  23484100.7194                                   23484097.3794
                                                                        41.5004
        26.0004
 -10888282.68746  -8472680.33244
                  23132283.1954                                   23132279.3164
                                                                        41.5004
        28.2504
 09 10 27  0 14 30.0000000  0  8G02G04G05G10G13G29G16G07
  -4782299.78548  -3711117.00046
                  21257321.3674                                   21257315.6484
                                                                        51.0004
        39.5004
   3175458.39546   2476645.21543
                  24173837.1334                                   24173835.6724
                                                                        39.5004
        22.0004
 -20698030.88748 -16092796.47347
                  20979828.3524                                   20979824.8324
                                                                        51.0004
        42.0004
 -18770098.19948 -14591945.63346
                  20428176.5944                                   20428173.2504
                                                                        51.2504
        41.5004
  -5993056.34447  -4653813.53145
                  21820374.7344                                   21820371.7734
                                                                        47.5004
        31.7504
 -14419296.49248 -11191766.56246
                  21830801.8524                                   21830799.1134
                                                                        49.0004
        38.7504
  -9591076.06247  -7440505.89844
                  23463209.7114                                   23463205.5634
                                                                        42.5004
        24.5004
 -11047722.42647  -8596919.20744
                  23101942.5234                                   23101939.3364
                                                                        43.0004
        27.7504
 09 10 27  0 15  0.0000000  0  8G02G04G05G10G13G29G16G07
  -3217857.09448  -2492070.77346
                  21555025.0084                                   21555019.5664
                                                                        50.7504
        39.5004
   4781210.60546   3727881.19143
                  24479401.7584                                   24479401.2194
                                                                        41.7504
        21.5004
 -19266602.71548 -14977397.91447
                  21252220.1804                                   21252216.8094
                                                                        52.0004
        42.5004
 -17316987.03548 -13459651.22346
                  20704694.5084                                   20704691.3134
                                                                        51.5004
        41.7504
  -4433754.69147  -3438773.28945
                  22117099.9614                                   22117096.5354
                                                                        47.5004
        31.2504
 -12926147.67248 -10028273.97746
                  22114938.8524                                   22114935.6254
                                                                        49.0004
        38.5004
  -8124806.98447  -6297958.53944
                  23742230.5474                                   23742227.5004
                                                                        42.0004
        25.7504
  -9631257.55947  -7493180.40244
                  23371487.1484                                   23371483.8794
                                                                        44.0004
        28.5004
 09 10 27  0 15 30.0000000  0  8G02G04G05G10G13G29G16G07
  -3228340.88348  -2500239.99246
                  21553030.0864                                   21553024.5434
                                                                        51.2504
        40.0004
   4811687.78147   3751630.02043
                  24485201.2584                                   24485198.4344
                                                                        42.2504
        22.5004
 -19410106.23448 -15089218.82047
                  21224912.4454                                   21224908.9224
                                                                        50.7504
        42.2504
 -17438717.88748 -13554506.41446
                  20681529.8444                                   20681526.8634
                                                                        51.7504
        41.7504
  -4449332.37548  -3450911.75045
                  22114136.0784                                   22114132.1844
                                                                        48.0004
        32.2504
 -13007773.84448 -10091878.76246
                  22099405.5004                                   22099403.0234
                                                                        48.7504
        38.5004
  -8233329.39147  -6382521.43044
                  23721580.1094                                   23721576.3204
                                                                        42.7504
        25.2504
  -9789736.54346  -7616670.59444
                  23341329.7504                                   23341325.9184
                                                                        41.7504
        29.7504
 09 10 27  0 16  0.0000000  0  8G02G04G05G10G13G29G16G07
  -3238335.63348  -2508028.22746
                  21551128.2814                                   21551122.9384
                                                                        50.7504
        39.7504
   4842304.60947   3775487.57443
                  24491027.5554                                   24491024.7894
                                                                        44.0004
        23.7504
 -19553117.65648 -15200656.28947
                  21197698.0704                                   21197694.3364
                                                                        51.7504
        42.0004
 -17559868.36348 -13648909.39847
                  20658475.4224                                   20658472.2734
                                                                        52.0004
        42.0004
  -4464372.82048  -3462631.53145
                  22111273.9384                                   22111269.8554
                                                                        48.0004
        31.0004
 -13088754.79348 -10154980.78546
                  22083995.8054                                   22083992.8404
                                                                        49.2504
        38.7504
  -8341221.22347  -6466593.01244
                  23701048.8054                                   23701045.1954
                                                                        42.0004
        24.5004
  -9947733.98847  -7739785.62545
                  23311263.9304                                   23311260.3984
                                                                        44.2504
        30.0004
 09 10 27  0 16 30.0000000  0  8G02G04G05G10G13G29G16G07
  -3247841.39848  -2515435.41046
                  21549319.2974                                   21549314.0554
                                                                        50.5004
        38.7504
   4873060.85947   3799453.59844
                  24496880.2274                                   24496877.7424
                                                                        42.5004
        26.2504
 -19695633.92648 -15311707.93447
                  21170578.2194                                   21170574.8634
                                                                        51.2504
        42.2504
 -17680436.07448 -13742858.27346
                  20635532.4384                                   20635529.2154
                                                                        52.5004
        41.5004
  -4478877.00448  -3473933.41445
                  22108513.8444                                   22108510.0394
                                                                        48.0004
        31.5004
 -13169089.41048 -10217579.16446
                  22068708.2114                                   22068705.5004
                                                                        49.5004
        38.5004
  -8448479.85247  -6550171.14844
                  23680638.6564                                   23680634.5204
                                                                        43.7504
        25.2504
 -10105245.42247  -7862521.91045
                  23281290.8364                                   23281287.0474
                                                                        44.5004
        30.0004
 09 10 27  0 17  0.0000000  0  8G02G04G05G10G13G29G16G07
  -3256860.30148  -2522463.32846
                  21547603.4614                                   21547597.8714
                                                                        50.0004
        39.5004
   4903954.21946   3823526.47744
                  24502758.9224                                   24502756.6994
                                                                        41.5004
        25.5004
 -19837653.67248 -15422372.66847
                  21143552.5084                                   21143549.2384
                                                                        51.7504
        42.2504
 -17800419.96148 -13836352.21546
                  20612700.2034                                   20612696.9884
                                                                        52.5004
        41.5004
  -4492848.48447  -3484820.28545
                  22105854.9614                                   22105851.0474
                                                                        47.5004
        31.0004
 -13248777.42248 -10279673.71146
                  22053544.4384                                   22053541.3014
                                                                        48.7504
        38.7504
  -8555104.87547  -6633255.56244
                  23660348.3674                                   23660344.0554
                                                                        43.0004
        25.7504
 -10262268.91447  -7984878.00445
                  23251409.9384                                   23251406.5164
                                                                        44.5004
        30.2504
 09 10 27  0 17 30.0000000  0  8G02G04G05G10G13G29G16G07
  -3265396.38348  -2529114.82446
                  21545978.8914                                   21545973.8634
                                                                        50.2504
        39.0004
   4934979.93046   3847702.33643
                  24508661.5634                                   24508661.2854
                                                                        40.2504
        23.0004
 -19979177.95348 -15532651.32447
                  21116621.5084                                   21116618.0944
                                                                        51.2504
        42.5004
 -17919822.25448 -13929392.96146
                  20589978.5314                                   20589975.1334
                                                                        52.0004
        41.5004
  -4506291.92647  -3495295.67645
                  22103296.9064                                   22103293.3324
                                                                        47.2504
        30.5004
 -13327821.67248 -10341266.63346
                  22038502.8524                                   22038499.7304
                                                                        49.2504
        39.0004
  -8661097.98446  -6715847.63343
                  23640178.4454                                   23640174.0124
                                                                        41.0004
        23.2504
 -10418804.70747  -8106854.36744
                  23221622.4534                                   23221618.9454
                                                                        43.7504
        29.5004
 09 10 27  0 18  0.0000000  0  8G02G04G05G10G13G29G16G07
  -3273451.27748  -2535391.37946
                  21544446.0084                                   21544440.6914
                                                                        50.2504
        38.2504
   4966136.93847   3871980.44943
                  24514591.6644                                   24514589.9264
                                                                        42.2504
        23.7504
 -20120205.11748 -15642542.62547
                  21089785.1724                                   21089781.3284
                                                                        50.7504
        42.0004
 -18038640.91048 -14021978.92246
                  20567368.2734                                   20567365.0004
                                                                        52.5004
        41.0004
  -4519208.41447  -3505360.46545
                  22100838.7814                                   22100834.8244
                                                                        46.7504
        30.5004
 -13406221.80948 -10402357.64546
                  22023583.7034                                   22023580.3014
                                                                        48.5004
        38.5004
  -8766457.58247  -6797946.02043
                  23620129.0394                                   23620124.6254
                                                                        42.5004
        22.5004
 -10574848.37947  -8228446.92244
                  23191928.5864                                   23191924.6994
                                                                        45.0004
        28.0004
 09 10 27  0 18 30.0000000  0  8G02G04G05G10G13G29G16G07
  -3281029.52348  -2541296.61746
                  21543004.0084                                   21542998.5434
                                                                        50.5004
        39.2504
   4997420.52047   3896357.22344
                  24520544.8754                                   24520542.4264
                                                                        43.2504
        24.5004
 -20260735.84448 -15752047.10947
                  21063042.7814                                   21063039.2034
                                                                        50.0004
        42.2504
 -18156877.31648 -14114111.19146
                  20544868.2194                                   20544864.8634
                                                                        52.0004
        41.5004
  -4531603.06647  -3515018.61745
                  22098479.7504                                   22098476.5744
                                                                        47.0004
        30.7504
 -13483979.76248 -10462948.26646
                  22008786.8134                                   22008783.6094
                                                                        48.0004
        38.5004
  -8871184.82047  -6879551.65643
                  23600199.3204                                   23600195.7704
                                                                        42.0004
        22.7504
 -10730400.85947  -8349656.87144
                  23162328.1484                                   23162324.3714
                                                                        44.5004
        29.2504
 09 10 27  0 19  0.0000000  0  8G02G04G05G10G13G29G16G07
  -3288130.67648  -2546829.87146
                  21541652.6954                                   21541647.6024
                                                                        50.5004
        39.2504
   5028830.91847   3920832.84443
                  24526522.4534                                   24526519.7584
                                                                        43.0004
        22.2504
 -20400767.70348 -15861162.84847
                  21036395.6254                                   21036392.1844
                                                                        51.7504
        42.7504
 -18274529.71148 -14205788.40246
                  20522480.0474                                   20522476.9534
                                                                        52.5004
        41.0004
  -4543476.75847  -3524270.83644
                  22096220.9304                                   22096217.2304
                                                                        46.5004
        29.7504
 -13561095.59848 -10523038.54346
                  21994112.2194                                   21994109.0164
                                                                        49.2504
        39.2504
  -8975278.55946  -6960663.69943
                  23580391.6174                                   23580387.6414
                                                                        41.7504
        22.5004
 -10885456.64847  -8470479.33244
                  23132822.0704                                   23132818.0124
                                                                        44.0004
        28.5004
 09 10 27  0 19 30.0000000  0  8G02G04G05G10G13G29G16G07
  -3294758.01248  -2551993.95746
                  21540391.6094                                   21540386.0004
                                                                        51.0004
        39.2504
   5060364.55146   3945404.36343
                  24532522.7274                                   24532520.0824
                                                                        41.0004
        20.5004
 -20540298.91048 -15969888.45347
                  21009843.8674                                   21009840.7974
                                                                        51.5004
        42.2504
 -18391597.10548 -14297009.76646
                  20500203.0474                                   20500200.0824
                                                                        52.5004
        41.0004
  -4554833.18047  -3533119.99245
                  22094059.1414                                   22094055.6844
                                                                        47.0004
        30.2504
 -13637568.21148 -10582627.60246
                  21979560.0394                                   21979556.7934
                                                                        48.7504
        38.5004
  -9078737.65647  -7041281.15643
                  23560704.1804                                   23560699.9304
                                                                        42.5004
        22.2504
 -11040015.36347  -8590914.37144
                  23103410.1254                                   23103406.6024
                                                                        43.2504
        29.2504
 09 10 27  0 20  0.0000000  0  8G02G04G05G10G13G29G16G07
  -3300913.66848  -2556791.33646
                  21539220.5944                                   21539215.6844
                                                                        50.5004
        39.5004
   5092021.88346   3970072.35943
                  24538546.1094                                   24538544.3404
                                                                        38.2504
        20.0004
 -20679327.60548 -16078222.50047
                  20983387.4454                                   20983383.9304
                                                                        52.0004
        42.2504
 -18508078.07048 -14387774.15646
                  20478037.2344                                   20478033.8914
                                                                        52.2504
        41.7504
  -4565672.81647  -3541566.46545
                  22091996.7974                                   22091993.4774
                                                                        47.2504
        31.2504
 -13713397.97348 -10641715.71546
                  21965130.1414                                   21965126.7154
                                                                        48.7504
        38.2504
  -9181560.50046  -7121402.91844
                  23541137.7734                                   23541133.5514
                                                                        40.7504
        24.5004
 -11194072.18747  -8710958.20344
                  23074093.9064                                   23074090.0594
                                                                        44.2504
        28.7504
 09 10 27  0 20 30.0000000  0  8G02G04G05G10G13G29G16G07
  -3306596.51648  -2561219.71146
                  21538139.7114                                   21538134.4264
                                                                        49.2504
        39.0004
   5123800.62946   3994834.81343
                  24544593.7424                                   24544592.3484
                                                                        39.2504
        21.7504
 -20817851.85548 -16186163.47747
                  20957027.2664                                   20957023.9264
                                                                        51.5004
        42.5004
 -18623971.25048 -14478080.52046
                  20455983.5394                                   20455980.5004
                                                                        52.2504
        41.7504
  -4575997.69147  -3549611.84845
                  22090032.3364                                   22090028.6174
                                                                        45.2504
        31.2504
 -13788584.69148 -10700302.76646
                  21950822.4534                                   21950819.1954
                                                                        49.7504
        39.0004
  -9283745.78547  -7201027.82444
                  23521692.4454                                   23521688.5744
                                                                        42.5004
        24.7504
 -11347625.59847  -8830610.24244
                  23044873.4224                                   23044870.0904
                                                                        44.2504
        29.2504
 09 10 27  0 21  0.0000000  0  8G02G04G05G10G13G29G16G07
  -3311813.15648  -2565284.38346
                  21537146.3204                                   21537141.3284
                                                                        49.5004
        39.0004
   5155695.08646   4019687.66443
                  24550663.6644                                   24550661.7584
                                                                        41.2504
        23.0004
 -20955874.12548 -16293713.30547
                  20930762.3444                                   20930758.7974
                                                                        51.5004
        43.0004
 -18739279.64848 -14567931.21547
                  20434041.3134                                   20434037.7894
                                                                        53.0004
        42.0004
  -4585814.88347  -3557261.61345
                  22088163.9534                                   22088160.1764
                                                                        46.2504
        30.7504
 -13863131.99248 -10758391.57446
                  21936636.5084                                   21936633.2974
                                                                        49.5004
        38.7504
  -9385296.85247  -7280158.53544
                  23502367.8754                                   23502363.8794
                                                                        42.2504
        25.0004
 -11500676.94547  -8949871.02345
                  23015749.0004                                   23015745.1604
                                                                        44.5004
        31.0004
 09 10 27  0 21 30.0000000  0  8G02G04G05G10G13G29G16G07
  -3316565.79348  -2568987.98046
                  21536241.9774                                   21536236.6914
                                                                        49.5004
        38.5004
   5187704.44547   4044630.00044
                  24556754.6024                                   24556753.0824
                                                                        42.5004
        26.0004
 -21093392.13748 -16400870.19547
                  20904593.5314                                   20904589.7734
                                                                        51.5004
        42.5004
 -18854001.75048 -14657325.09446
                  20412210.4224                                   20412206.8364
                                                                        53.0004
        41.7504
  -4595125.02047  -3564516.27345
                  22086392.5164                                   22086388.9574
                                                                        45.2504
        30.5004
 -13937040.01248 -10815982.25046
                  21922572.3284                                   21922569.2384
                                                                        48.7504
        39.0004
  -9486212.17647  -7358793.90644
                  23483165.2274                                   23483160.5594
                                                                        43.5004
        24.7504
 -11653221.31247  -9068736.67245
                  22986720.4064                                   22986716.7894
                                                                        42.7504
        31.5004
 09 10 27  0 22  0.0000000  0  8G02G04G05G10G13G29G16G07
  -3320855.30548  -2572330.82846
                  21535426.4384                                   21535421.1914
                                                                        49.7504
        39.0004
   5219826.78147   4069660.40244
                  24562868.0944                                   24562865.7894
                                                                        43.5004
        25.2504
 -21230404.06248 -16507632.73447
                  20878521.0704                                   20878517.9884
                                                                        52.2504
        42.7504
 -18968136.14848 -14746260.99646
                  20390491.0084                                   20390488.0044
                                                                        52.5004
        41.5004
  -4603931.29747  -3571378.35545
                  22084716.7974                                   22084712.8714
                                                                        45.2504
        30.2504
 -14010307.53948 -10873073.82046
                  21908629.8054                                   21908626.7854
                                                                        50.0004
        38.2504
  -9586490.46547  -7436932.86344
                  23464082.0944                                   23464078.0234
                                                                        42.0004
        24.5004
 -11805257.09047  -9187206.06645
                  22957788.7114                                   22957785.5664
                                                                        43.7504
        31.0004
 09 10 27  0 22 30.0000000  0  7G02G05G10G13G29G16G07
  -3324685.80148  -2575315.54346
                  21534697.2584                                   21534692.3404
                                                                        50.5004
        38.5004
 -21366912.38348 -16614003.13747
                  20852544.3674                                   20852541.1174
                                                                        51.2504
        43.0004
 -19081685.52748 -14834741.12146
                  20368883.3914                                   20368880.2114
                                                                        52.7504
        41.0004
  -4612238.06647  -3577851.19545
                  22083136.1954                                   22083132.0394
                                                                        47.2504
        30.0004
 -14082938.66048 -10929669.50046
                  21894808.5164                                   21894805.5824
                                                                        50.0004
        38.0004
  -9686134.35547  -7514577.44944
                  23445120.5474                                   23445116.7504
                                                                        43.0004
        25.5004
 -11956784.49247  -9305279.42645
                  22928954.7584                                   22928950.9534
                                                                        46.0004
        31.2504
 09 10 27  0 23  0.0000000  0  7G02G05G10G13G29G16G07
  -3328055.30548  -2577940.94946
                  21534056.1804                                   21534050.9454
                                                                        50.0004
        38.5004
 -21502909.94948 -16719975.33247
                  20826665.0234                                   20826661.8484
                                                                        52.0004
        42.5004
 -19194644.21948 -14922761.07846
                  20347388.2584                                   20347385.2384
                                                                        53.0004
        41.7504
  -4620043.71547  -3583933.61744
                  22081650.3524                                   22081646.7344
                                                                        45.5004
        29.7504
 -14154928.74248 -10985765.66446
                  21881109.4224                                   21881106.4064
                                                                        49.5004
        38.7504
  -9785138.32447  -7591723.42644
                  23426280.3834                                   23426277.1724
                                                                        42.5004
        24.5004
 -12107797.01647  -9422951.77045
                  22900217.7274                                   22900214.5704
                                                                        45.0004
        30.7504
 09 10 27  0 23 30.0000000  0  7G02G05G10G13G29G16G07
  -3330965.09848  -2580208.05146
                  21533501.8754                                   21533497.0434
                                                                        50.0004
        38.7504
 -21638395.19948 -16825548.28147
                  20800883.0004                                   20800879.5234
                                                                        52.2504
        42.5004
 -19307011.16448 -15010320.01646
                  20326005.6254                                   20326003.1374
                                                                        53.2504
        41.5004
  -4627350.12947  -3589627.14544
                  22080260.6564                                   22080256.4884
                                                                        45.5004
        29.7504
 -14226277.94548 -11041362.44946
                  21867531.9534                                   21867529.3204
                                                                        49.5004
        39.0004
  -9883501.21547  -7668369.83244
                  23407562.7274                                   23407559.1954
                                                                        42.5004
        25.5004
 -12258290.12547  -9540219.10945
                  22871579.7274                                   22871576.0354
                                                                        43.5004
        30.0004
 09 10 27  0 24  0.0000000  0  7G02G05G10G13G29G16G07
  -3333415.07048  -2582117.09046
                  21533035.6484                                   21533030.7734
                                                                        48.7504
        38.5004
 -21773365.43748 -16930720.54747
                  20775199.8984                                   20775196.3524
                                                                        52.2504
        43.0004
 -19418782.69548 -15097414.84846
                  20304736.4454                                   20304733.5664
                                                                        52.7504
        41.5004
  -4634156.60547  -3594930.78145
                  22078965.2344                                   22078961.6764
                                                                        45.7504
        30.0004
 -14296984.15248 -11096458.21146
                  21854077.1334                                   21854074.0084
                                                                        50.0004
        38.5004
  -9981220.20347  -7744514.48844
                  23388967.1254                                   23388963.9804
                                                                        42.2504
        24.5004
 -12408259.50447  -9657078.39545
                  22843041.3984                                   22843037.6884
                                                                        43.5004
        30.0004
 09 10 27  0 24 30.0000000  0  7G02G05G10G13G29G16G07
  -1759987.74648  -1356069.73846
                  21832449.1954                                   21832443.4144
                                                                        49.5004
        38.0004
 -20332393.29348 -15807885.32047
                  21049407.8914                                   21049404.6954
                                                                        52.5004
        42.5004
 -17954534.42648 -13956442.20747
                  20583374.1254                                   20583370.4614
                                                                        52.7504
        42.0004
  -3065046.65247  -2372247.74644
                  22377556.5474                                   22377552.9924
                                                                        45.7504
        29.2504
 -12791625.48848  -9923451.46946
                  22140537.5944                                   22140534.2274
                                                                        50.0004
        38.5004
  -8502872.02747  -6592554.92244
                  23670288.2424                                   23670284.4694
                                                                        42.2504
        26.2504
 -10982278.55147  -8545924.34444
                  23114396.6414                                   23114392.7384
                                                                        44.5004
        29.0004
 09 10 27  0 25  0.0000000  0  7G02G05G10G13G29G16G07
  -1761532.14548  -1357273.14146
                  21832155.0004                                   21832149.5434
                                                                        49.5004
        37.7504
 -20466333.69548 -15912254.18047
                  21023919.6804                                   21023916.5554
                                                                        52.2504
        43.0004
 -18065120.68748 -14042613.35947
                  20562330.0004                                   20562327.0864
                                                                        53.0004
        42.0004
  -3070870.78947  -2376786.48044
                  22376448.8364                                   22376445.2934
                                                                        44.2504
        29.2504
 -12861054.47748  -9977551.98446
                  22127325.4924                                   22127322.6334
                                                                        50.0004
        38.7504
  -8599309.43447  -6667700.94944
                  23651936.2274                                   23651932.7234
                                                                        42.0004
        25.0004
 -11131201.93747  -8661968.56644
                  23086058.0474                                   23086053.4344
                                                                        43.2504
        29.7504
 09 10 27  0 25 30.0000000  0  7G02G05G10G13G29G16G07
  -1762632.42248  -1358130.65646
                  21831945.7734                                   21831940.5394
                                                                        49.5004
        37.5004
 -20599763.82448 -16016225.52047
                  20998528.4924                                   20998525.5824
                                                                        52.5004
        42.7504
 -18175119.38348 -14128326.56246
                  20541397.7504                                   20541394.9494
                                                                        53.0004
        41.2504
  -3076211.73047  -2380948.12944
                  22375432.1644                                   22375428.8054
                                                                        46.0004
        29.5004
 -12929851.08648 -10031159.71946
                  22114234.0394                                   22114230.8914
                                                                        50.5004
        38.7504
  -8695110.74246  -6742351.34044
                  23633705.7974                                   23633702.2274
                                                                        41.2504
        24.2504
 -11279604.05947  -8777606.48444
                  23057818.1414                                   23057813.4304
                                                                        44.2504
        29.0004
 09 10 27  0 26  0.0000000  0  7G02G05G10G13G29G16G07
  -1763290.64148  -1358643.67246
                  21831821.0004                                   21831815.4964
                                                                        49.0004
        38.2504
 -20732682.82048 -16119798.75847
                  20973235.0704                                   20973231.5394
                                                                        52.0004
        42.5004
 -18284529.64848 -14213580.96146
                  20520577.3984                                   20520574.4384
                                                                        52.5004
        41.5004
  -3081073.45747  -2384736.48045
                  22374507.5864                                   22374503.9104
                                                                        43.7504
        30.7504
 -12998016.62948 -10084275.72746
                  22101262.3444                                   22101259.6524
                                                                        50.0004
        39.2504
  -8790275.99247  -6816506.06244
                  23615596.8204                                   23615592.9384
                                                                        42.0004
        25.7504
 -11427482.94547  -8892836.78145
                  23029676.8204                                   23029673.2114
                                                                        44.7504
        31.2504
 09 10 27  0 26 30.0000000  0  7G02G05G10G13G29G16G07
  -1763511.28948  -1358815.74246
                  21831779.2424                                   21831773.5204
                                                                        48.5004
        38.0004
 -20865091.07048 -16222973.87947
                  20948038.3984                                   20948035.1294
                                                                        52.5004
        42.5004
 -18393353.98848 -14298379.32046
                  20499868.9924                                   20499865.5004
                                                                        52.0004
        41.7504
  -3085461.19147  -2388155.93045
                  22373672.9304                                   22373669.3594
                                                                        44.0004
        30.2504
 -13065553.21948 -10136901.66846
                  22088410.5394                                   22088407.2584
                                                                        49.5004
        38.7504
  -8884806.77747  -6890166.40644
                  23597609.0084                                   23597604.3134
                                                                        43.0004
        26.2504
 -11574838.91847  -9007659.69945
                  23001636.2584                                   23001632.5664
                                                                        44.5004
        31.2504
 09 10 27  0 27  0.0000000  0  7G02G05G10G13G29G16G07
  -1763295.16048  -1358647.69946
                  21831820.0704                                   21831815.2814
                                                                        49.2504
        38.5004
 -20996986.60548 -16325749.58647
                  20922939.4304                                   20922936.1884
                                                                        51.5004
        43.0004
 -18501589.23048 -14382718.39846
                  20479272.6884                                   20479269.2074
                                                                        52.7504
        41.7504
  -3089373.78547  -2391204.32444
                  22372928.0314                                   22372924.0554
                                                                        44.2504
        29.7504
 -13132460.07448 -10189036.90646
                  22075678.5164                                   22075676.1994
                                                                        49.7504
        38.5004
  -8978701.19147  -6963330.88344
                  23579741.1414                                   23579736.9574
                                                                        43.7504
        25.0004
 -11721667.41047  -9122071.52345
                  22973695.7974                                   22973691.6804
                                                                        44.5004
        30.5004
 09 10 27  0 27 30.0000000  0  7G02G05G10G13G29G16G07
  -1762644.56248  -1358141.14146
                  21831944.1174                                   21831939.2234
                                                                        49.2504
        37.7504
 -21128368.28148 -16428124.92247
                  20897938.2584                                   20897934.9654
                                                                        53.0004
        43.0004
 -18609235.95748 -14466598.94546
                  20458788.1644                                   20458785.2934
                                                                        52.5004
        41.7504
  -3092816.67247  -2393887.04744
                  22372272.7504                                   22372269.3364
                                                                        45.0004
        29.2504
 -13198738.15248 -10240682.17646
                  22063066.7274                                   22063063.2344
                                                                        50.5004
        38.2504
  -9071959.46947  -7035999.65644
                  23561994.5944                                   23561990.4694
                                                                        42.7504
        25.0004
 -11867967.10247  -9236071.29345
                  22945855.8674                                   22945852.3634
                                                                        44.5004
        31.0004
 09 10 27  0 28  0.0000000  0  7G02G05G10G13G29G16G07
  -1761566.48848  -1357300.80946
                  21832149.2194                                   21832144.8164
                                                                        49.5004
        37.7504
 -21259241.49648 -16530104.10547
                  20873034.2664                                   20873030.4654
                                                                        52.5004
        43.2504
 -18716300.26648 -14550025.79746
                  20438414.3594                                   20438411.0864
                                                                        52.2504
        41.7504
  -3095798.78147  -2396211.15244
                  22371705.4454                                   22371701.4144
                                                                        45.0004
        28.5004
 -13264395.24248 -10291843.62946
                  22050572.7504                                   22050569.1914
                                                                        50.5004
        38.7504
  -9164587.90647  -7108177.66444
                  23544367.6174                                   23544363.7344
                                                                        42.5004
        26.2504
 -12013742.10547  -9349662.19545
                  22918115.8914                                   22918111.9774
                                                                        44.5004
        30.7504
 09 10 27  0 28 30.0000000  0  7G02G05G10G13G29G16G07
  -1760059.15248  -1356125.62146
                  21832436.0944                                   21832430.1724
                                                                        48.5004
        38.0004
 -21389600.46548 -16631682.77347
                  20848227.8914                                   20848224.3324
                                                                        52.7504
        43.0004
 -18822776.72348 -14632994.62146
                  20418152.9384                                   20418149.5704
                                                                        52.0004
        41.2504
  -3098315.79747  -2398172.10944
                  22371226.3054                                   22371222.2464
                                                                        43.7504
        28.2504
 -13329426.69148 -10342517.47346
                  22038197.3984                                   22038194.0044
                                                                        50.0004
        38.7504
  -9256581.44147  -7179860.92644
                  23526862.4384                                   23526857.4414
                                                                        42.5004
        25.7504
 -12158985.28947  -9462838.69145
                  22890477.2344                                   22890473.3404
                                                                        45.5004
        31.2504
 09 10 27  0 29  0.0000000  0  7G02G05G10G13G29G16G07
  -1758125.65648  -1354619.05146
                  21832803.3444                                   21832798.5554
                                                                        49.0004
        37.5004
 -21519441.85948 -16732857.98447
                  20823519.6884                                   20823516.3054
                                                                        52.7504
        42.7504
 -18928662.90248 -14715503.29746
                  20398003.1254                                   20398000.2034
                                                                        52.5004
        41.2504
  -3100370.94147  -2399773.39544
                  22370834.6564                                   22370831.2934
                                                                        44.2504
        28.7504
 -13393831.51248 -10392703.01646
                  22025941.1954                                   22025938.2774
                                                                        50.2504
        38.0004
  -9347938.19947  -7251047.94144
                  23509477.2344                                   23509473.0944
                                                                        43.0004
        25.2504
 -12303693.31247  -9575598.16445
                  22862939.8444                                   22862936.0594
                                                                        45.2504
        31.7504
 09 10 27  0 29 30.0000000  0  7G02G05G10G13G29G16G07
  -1755766.97348  -1352781.23846
                  21833252.3754                                   21833247.5314
                                                                        48.5004
        37.5004
 -21648765.80148 -16833630.05947
                  20798910.4454                                   20798906.5394
                                                                        52.2504
        42.5004
 -19033959.43048 -14797552.57847
                  20377965.9224                                   20377962.7034
                                                                        52.2504
        42.0004
  -3101966.71547  -2401016.79744
                  22370531.0314                                   22370527.8164
                                                                        45.0004
        28.0004
 -13457611.46948 -10442401.66846
                  22013804.8754                                   22013801.6254
                                                                        50.0004
        39.0004
  -9438658.43447  -7321739.00844
                  23492213.8364                                   23492209.7114
                                                                        42.0004
        25.2504
 -12447864.66847  -9687939.72745
                  22835505.0084                                   22835501.6214
                                                                        45.7504
        30.7504
 09 10 27  0 30  0.0000000  0  7G02G05G10G13G29G16G07
  -1752980.89148  -1350609.91846
                  21833782.4064                                   21833777.2234
                                                                        48.5004
        37.0004
 -21777568.37548 -16933996.29747
                  20774400.6954                                   20774397.5164
                                                                        53.5004
        42.5004
 -19138663.47348 -14879140.70346
                  20358041.9614                                   20358038.8554
                                                                        52.5004
        41.7504
  -3103102.75047  -2401902.02044
                  22370315.2584                                   22370311.1604
                                                                        45.0004
        28.5004
 -13520764.19548 -10491611.64846
                  22001786.9924                                   22001783.8324
                                                                        49.5004
        38.2504
  -9528739.05147  -7391931.69144
                  23475072.5004                                   23475068.2194
                                                                        42.5004
        25.0004
 -12591494.12947  -9799859.38745
                  22808173.9534                                   22808170.4804
                                                                        45.5004
        31.5004
 09 10 27  0 30 30.0000000  0  7G02G05G10G13G29G16G07
  -1749775.08648  -1348113.02746
                  21834393.2274                                   21834388.3324
                                                                        48.7504
        37.2504
 -21905846.16848 -17033952.17247
                  20749989.3364                                   20749986.0864
                                                                        53.0004
        43.0004
 -19242773.46148 -14960265.41046
                  20338230.4534                                   20338227.6564
                                                                        52.2504
        41.0004
  -3103782.91847  -2402432.00844
                  22370185.8914                                   22370182.5634
                                                                        43.7504
        29.2504
 -13583290.58248 -10540333.52346
                  21989888.8284                                   21989885.9494
                                                                        50.2504
        38.0004
  -9618180.62546  -7461626.38344
                  23458051.9384                                   23458047.8404
                                                                        41.7504
        26.0004
 -12734579.05947  -9911353.89145
                  22780945.7894                                   22780941.9264
                                                                        45.7504
        31.5004
 09 10 27  0 31  0.0000000  0  7G02G05G10G13G29G16G07
  -1746147.54348  -1345286.30946
                  21835083.5634                                   21835078.8094
                                                                        48.0004
        37.0004
 -22033602.91448 -17133502.35547
                  20725677.6644                                   20725674.4574
                                                                        52.7504
        42.7504
 -19346290.55548 -15040927.47746
                  20318531.2894                                   20318528.0354
                                                                        52.5004
        41.7504
  -3104010.64847  -2402609.27044
                  22370142.7344                                   22370138.6914
                                                                        45.2504
        28.7504
 -13645194.16848 -10588570.07846
                  21978108.4924                                   21978105.6294
                                                                        49.2504
        38.7504
  -9706984.78147  -7530824.42244
                  23441153.2504                                   23441148.8134
                                                                        42.0004
        25.0004
 -12877121.91447 -10022427.27745
                  22753821.7814                                   22753818.4064
                                                                        44.7504
        31.0004
 09 10 27  0 31 30.0000000  0  7G02G05G10G13G29G16G07
  -1742104.66048  -1342136.18046
                  21835853.0634                                   21835848.3364
                                                                        48.7504
        38.0004
 -22160839.00848 -17232647.27747
                  20701465.5164                                   20701461.8524
                                                                        52.5004
        42.5004
 -19449217.18048 -15121129.67246
                  20298945.0234                                   20298941.6954
                                                                        52.5004
        41.5004
  -3103790.86347  -2402437.89544
                  22370183.7034                                   22370180.0514
                                                                        44.5004
        29.0004
 -13706475.98448 -10636322.13346
                  21966447.1334                                   21966444.3244
                                                                        50.0004
        38.5004
  -9795152.34447  -7599526.41844
                  23424375.8834                                   23424371.1724
                                                                        43.0004
        25.2504
 -13019117.55547 -10133072.73445
                  22726800.0634                                   22726796.4924
                                                                        45.5004
        31.0004
 09 10 27  0 32  0.0000000  0  7G02G05G10G13G29G16G07
  -1737645.04348  -1338660.97346
                  21836701.3984                                   21836696.8834
                                                                        49.2504
        37.5004
 -22287550.50848 -17331383.57047
                  20677353.0164                                   20677349.8134
                                                                        52.5004
        42.7504
 -19551550.13348 -15200869.42246
                  20279471.2114                                   20279467.9224
                                                                        52.5004
        41.5004
  -3103122.93047  -2401917.41444
                  22370311.2734                                   22370307.4694
                                                                        44.5004
        29.5004
 -13767135.02048 -10683588.88346
                  21954904.3834                                   21954901.2154
                                                                        49.2504
        38.2504
  -9882681.02346  -7667730.56644
                  23407718.9614                                   23407715.2114
                                                                        41.5004
        27.5004
 -13160563.75447 -10243290.42245
                  22699883.6414                                   22699880.4144
                                                                        45.7504
        31.7504
 09 10 27  0 32 30.0000000  0  7G02G05G10G13G29G16G07
  -1732773.00048  -1334865.33246
                  21837629.2274                                   21837625.1844
                                                                        48.5004
        36.7504
 -22413735.86348 -17429709.91847
                  20653340.7664                                   20653337.6134
                                                                        52.7504
        43.0004
 -19653289.93048 -15280147.19946
                  20260111.1484                                   20260107.6524
                                                                        52.0004
        41.7504
  -3102010.12147  -2401050.25844
                  22370522.7504                                   22370519.0554
                                                                        44.0004
        28.5004
 -13827171.85248 -10730370.80146
                  21943479.4694                                   21943476.1844
                                                                        50.0004
        38.0004
  -9969570.51247  -7735436.63344
                  23391184.4144                                   23391180.3554
                                                                        42.2504
        26.0004
 -13301457.62947 -10353077.34845
                  22673072.1804                                   22673068.7074
                                                                        46.2504
        32.0004
 09 10 27  0 33  0.0000000  0  7G02G05G10G13G29G16G07
  -1727487.14148  -1330746.04746
                  21838634.8754                                   21838629.8954
                                                                        48.2504
        36.2504
 -22539394.21948 -17527625.70747
                  20629428.8754                                   20629426.0164
                                                                        52.5004
        43.0004
 -19754434.93448 -15358961.47746
                  20240863.7274                                   20240860.4024
                                                                        52.5004
        41.7504
  -3100454.61347  -2399838.40644
                  22370818.6334                                   22370815.6174
                                                                        43.0004
        27.7504
 -13886587.59048 -10776668.75046
                  21932173.0164                                   21932169.9264
                                                                        49.7504
        38.7504
 -10055820.79347  -7802644.61744
                  23374771.7584                                   23374767.3404
                                                                        42.0004
        26.0004
 -13441797.63747 -10462432.99645
                  22646366.4694                                   22646362.2664
                                                                        46.7504
        31.5004
 09 10 27  0 33 30.0000000  0  7G02G05G10G13G29G16G07
   -146370.05147    -98706.48046
                  22139510.9144                                   22139506.1484
                                                                        47.7504
        36.7504
 -21089097.61748 -16397524.51247
                  20905411.4534                                   20905408.0474
                                                                        53.0004
        43.5004
 -18279559.87548 -14209708.33647
                  20521523.1094                                   20521520.0394
                                                                        53.0004
        42.0004
  -1523037.13747  -1170681.81644
                  22670991.1334                                   22670987.9534
                                                                        42.7504
        27.5004
 -12369958.59448  -9594879.96946
                  22220778.1884                                   22220774.7624
                                                                        49.2504
        38.7504
  -8566006.86347  -6641750.61744
                  23658273.4384                                   23658269.7344
                                                                        42.5004
        26.0004
 -12006155.77347  -9343750.76645
                  22919559.2974                                   22919555.4144
                                                                        47.0004
        31.7504
 09 10 27  0 34  0.0000000  0  7G02G05G10G13G29G16G07
   -140263.83648    -93947.88346
                  22140672.4614                                   22140667.6134
                                                                        49.2504
        36.5004
 -21213694.39548 -16494612.86747
                  20881701.4694                                   20881698.0274
                                                                        52.2504
        43.5004
 -18379511.28148 -14287592.55546
                  20502503.3834                                   20502499.8984
                                                                        52.7504
        41.5004
  -1520600.80947  -1168783.25444
                  22671455.1174                                   22671451.1294
                                                                        44.2504
        27.7504
 -12428131.11748  -9640209.22746
                  22209708.0164                                   22209704.7384
                                                                        48.7504
        38.5004
  -8650975.42247  -6707959.78544
                  23642104.9454                                   23642100.3014
                                                                        43.5004
        25.5004
 -12145379.39847  -9452236.59445
                  22893066.1174                                   22893061.9654
                                                                        47.0004
        30.5004
 09 10 27  0 34 30.0000000  0  7G02G05G10G13G29G16G07
   -133751.74248    -88874.07046
                  22141912.3054                                   22141907.2584
                                                                        49.0004
        37.0004
 -21337759.79348 -16591287.97347
                  20858093.1024                                   20858090.1564
                                                                        52.7504
        43.5004
 -18478866.29748 -14365013.04747
                  20483596.9844                                   20483594.0084
                                                                        52.2504
        42.0004
  -1517726.88347  -1166543.68744
                  22672001.9774                                   22671997.4734
                                                                        44.0004
        27.7504
 -12485682.18048  -9685054.24646
                  22198756.3834                                   22198753.5664
                                                                        48.7504
        38.0004
  -8735301.64847  -6773668.48444
                  23626058.0234                                   23626053.9384
                                                                        42.5004
        26.7504
 -12284040.53147  -9560284.28545
                  22866680.0704                                   22866675.9264
                                                                        46.7504
        32.5004
 09 10 27  0 35  0.0000000  0  7G02G05G10G13G29G16G07
   -126832.18748    -83481.61746
                  22143228.6804                                   22143223.3674
                                                                        49.0004
        37.0004
 -21461292.02348 -16687548.10547
                  20834586.4614                                   20834583.5984
                                                                        52.2504
        43.5004
 -18577622.47348 -14441966.55146
                  20464804.9304                                   20464802.0594
                                                                        52.7504
        41.7504
  -1514418.91447  -1163965.98444
                  22672630.8984                                   22672627.4344
                                                                        45.2504
        27.2504
 -12542613.18448  -9729416.05146
                  22187923.0784                                   22187920.1134
                                                                        48.5004
        38.7504
  -8818986.52747  -6838877.44144
                  23610133.2114                                   23610128.7974
                                                                        43.0004
        26.7504
 -12422137.44947  -9667892.46945
                  22840400.5784                                   22840396.6564
                                                                        47.0004
        32.0004
 09 10 27  0 35 30.0000000  0  7G02G05G10G13G29G16G07
   -119511.30148    -77776.78946
                  22144621.8754                                   22144616.5984
                                                                        48.2504
        37.0004
 -21584286.72748 -16783387.24647
                  20811180.5784                                   20811178.0554
                                                                        52.2504
        43.2504
 -18675778.29748 -14518450.78946
                  20446126.0634                                   20446122.7234
                                                                        52.5004
        41.5004
  -1510680.50847  -1161052.89544
                  22673342.8284                                   22673338.2194
                                                                        44.5004
        27.7504
 -12598926.80548  -9773296.80146
                  22177206.7664                                   22177203.5634
                                                                        48.0004
        38.5004
  -8902031.18147  -6903587.50044
                  23594330.0944                                   23594326.5474
                                                                        42.2504
        26.5004
 -12559668.42247  -9775059.36745
                  22814229.3984                                   22814225.0704
                                                                        46.5004
        30.5004
 09 10 27  0 36  0.0000000  0  7G02G05G10G13G29G16G07
   -111794.27348    -71763.41446
                  22146089.6254                                   22146085.1684
                                                                        48.0004
        36.0004
 -21706750.83248 -16878813.42247
                  20787876.2664                                   20787873.1254
                                                                        52.2504
        43.5004
 -18773341.10948 -14594473.59446
                  20427560.2734                                   20427556.7624
                                                                        53.0004
        41.5004
  -1506517.90247  -1157809.28544
                  22674134.9924                                   22674130.7814
                                                                        44.2504
        27.5004
 -12654626.41848  -9816699.08246
                  22166607.3204                                   22166604.5044
                                                                        48.5004
        38.5004
  -8984438.90247  -6967801.33244
                  23578649.3054                                   23578644.9264
                                                                        44.5004
        27.0004
 -12696636.70747  -9881788.36745
                  22788165.3834                                   22788162.1564
                                                                        47.0004
        31.0004
 09 10 27  0 36 30.0000000  0  7G02G05G10G13G29G16G07
   -103675.25847    -65436.70746
                  22147634.7114                                   22147629.7584
                                                                        47.5004
        36.7504
 -21828675.67248 -16973819.70747
                  20764674.7424                                   20764671.5514
                                                                        52.0004
        43.5004
 -18870302.06248 -14670027.55547
                  20409109.2034                                   20409106.1054
                                                                        52.7504
        42.0004
  -1501925.50847  -1154230.79744
                  22675008.7664                                   22675004.6804
                                                                        43.2504
        27.5004
 -12709705.93048  -9859618.14846
                  22156126.2274                                   22156122.9534
                                                                        48.0004
        38.0004
  -9066202.05547  -7031512.85244
                  23563089.6884                                   23563085.8364
                                                                        43.0004
        27.0004
 -12833029.59847  -9988068.06645
                  22762210.3524                                   22762206.9494
                                                                        46.7504
        31.2504
 09 10 27  0 37  0.0000000  0  7G02G05G10G13G29G16G07
    -95156.88747    -58798.84046
                  22149255.5394                                   22149250.5634
                                                                        47.2504
        36.0004
 -21950058.83648 -17068403.43747
                  20741576.0784                                   20741572.5554
                                                                        52.5004
        43.5004
 -18966660.36748 -14745111.62946
                  20390772.6334                                   20390769.1844
                                                                        52.7504
        41.7504
  -1496906.50847  -1150319.91444
                  22675963.3364                                   22675959.6884
                                                                        43.7504
        28.0004
 -12764166.02048  -9902054.52346
                  22145762.7734                                   22145759.6134
                                                                        48.5004
        38.0004
  -9147320.46147  -7094721.94144
                  23547653.4304                                   23547649.4534
                                                                        43.0004
        25.7504
 -12968847.90247 -10093900.43445
                  22736365.2274                                   22736361.4264
                                                                        46.0004
        31.5004
 09 10 27  0 37 30.0000000  0  7G02G05G10G13G29G16G07
    -86244.44947    -51854.13746
                  22150951.9534                                   22150946.1134
                                                                        47.2504
        36.0004
 -22070904.03948 -17162568.62147
                  20718579.9304                                   20718576.6214
                                                                        52.5004
        43.2504
 -19062418.89848 -14819728.49246
                  20372550.4534                                   20372546.7854
                                                                        53.0004
        41.5004
  -1491466.00447  -1146080.53544
                  22676998.9454                                   22676995.0784
                                                                        45.0004
        27.5004
 -12818010.90247  -9944011.56646
                  22135516.6254                                   22135513.2304
                                                                        47.2504
        38.5004
  -9227797.71547  -7157431.45744
                  23532339.2114                                   23532335.5784
                                                                        42.2504
        26.7504
 -13104091.91847 -10199285.68445
                  22710629.4534                                   22710625.9064
                                                                        46.7504
        32.2504
 09 10 27  0 38  0.0000000  0  7G02G05G10G13G29G16G07
    -76940.31247    -44604.61346
                  22152722.3284                                   22152717.4454
                                                                        47.2504
        36.0004
 -22191208.27748 -17256311.96547
                  20695686.7504                                   20695683.2854
                                                                        52.2504
        43.2504
 -19157577.69548 -14893878.32446
                  20354442.3444                                   20354438.9224
                                                                        53.0004
        41.5004
  -1485606.69947  -1141514.89544
                  22678113.9224                                   22678109.8954
                                                                        44.5004
        27.0004
 -12871241.53147  -9985489.99246
                  22125387.2664                                   22125384.2544
                                                                        47.5004
        38.0004
  -9307633.43747  -7219641.05544
                  23517146.9924                                   23517143.1134
                                                                        43.5004
        27.2504
 -13238759.47747 -10304221.70345
                  22685003.1174                                   22684999.5514
                                                                        45.7504
        30.7504
 09 10 27  0 38 30.0000000  0  7G02G05G10G13G29G16G07
    -67242.97347    -37048.08646
                  22154567.8054                                   22154562.7664
                                                                        46.5004
        36.0004
 -22310970.56648 -17349633.75847
                  20672896.8444                                   20672893.9184
                                                                        52.0004
        43.0004
 -19252134.32448 -14967558.97746
                  20336448.7424                                   20336445.5394
                                                                        52.5004
        41.7504
  -1479329.41047  -1136623.47744
                  22679307.9534                                   22679304.6294
                                                                        42.2504
        25.7504
 -12923856.98447 -10026489.03946
                  22115374.6174                                   22115371.5554
                                                                        47.5004
        39.0004
  -9386826.24647  -7281349.69544
                  23502076.9064                                   23502072.6994
                                                                        42.0004
        27.0004
 -13372846.67647 -10408705.71145
                  22659487.5314                                   22659483.6564
                                                                        46.0004
        31.5004
 09 10 27  0 39  0.0000000  0  7G02G05G10G13G29G16G07
    -57157.06647    -29188.73446
                  22156487.0164                                   22156481.7624
                                                                        47.2504
        36.5004
 -22430188.82448 -17442530.65647
                  20650210.0474                                   20650206.9384
                                                                        52.5004
        43.2504
 -19346089.16448 -15040770.37146
                  20318569.5944                                   20318566.3054
                                                                        52.7504
        41.5004
  -1472638.21547  -1131409.55544
                  22680581.8834                                   22680578.0864
                                                                        43.7504
        26.0004
 -12975859.41047 -10067010.42246
                  22105478.7664                                   22105476.1094
                                                                        47.7504
        38.5004
  -9465377.20747  -7342558.23044
                  23487128.9534                                   23487125.0354
                                                                        42.7504
        26.5004
 -13506352.71147 -10512736.93045
                  22634082.9304                                   22634078.8874
                                                                        47.0004
        31.7504
 09 10 27  0 39 30.0000000  0  7G02G05G10G13G29G16G07
    -46684.72347    -21028.60246
                  22158479.6954                                   22158474.9304
                                                                        47.0004
        36.0004
 -22548862.30548 -17535003.19147
                  20627627.2734                                   20627623.7504
                                                                        52.2504
        43.7504
 -19439441.41848 -15113512.27746
                  20300805.3984                                   20300801.7774
                                                                        52.2504
        41.2504
  -1465534.97747  -1125874.59044
                  22681933.5944                                   22681929.6884
                                                                        42.5004
        27.5004
 -13027248.85248 -10107054.14546
                  22095700.1484                                   22095696.8484
                                                                        48.5004
        38.5004
  -9543285.53547  -7403265.97744
                  23472303.6254                                   23472299.1484
                                                                        42.7504
        27.2504
 -13639273.79347 -10616311.88345
                  22608788.5944                                   22608785.3714
                                                                        47.0004
        32.2504
 09 10 27  0 40  0.0000000  0  7G02G05G10G13G29G16G07
    -35826.02748    -12567.29746
                  22160546.2504                                   22160540.9454
                                                                        48.0004
        36.0004
 -22666990.56648 -17627051.30547
                  20605148.3594                                   20605144.6844
                                                                        52.5004
        43.2504
 -19532189.94948 -15185783.48846
                  20283155.4774                                   20283151.9774
                                                                        51.5004
        41.5004
  -1458023.87547  -1120023.09444
                  22683363.8914                                   22683360.2734
                                                                        43.7504
        27.0004
 -13078026.12148 -10146620.82046
                  22086037.2344                                   22086034.3244
                                                                        48.7504
        38.5004
  -9620551.09047  -7463472.87944
                  23457600.3674                                   23457596.5274
                                                                        42.5004
        27.0004
 -13771607.15647 -10719428.47345
                  22583606.3444                                   22583602.3324
                                                                        46.2504
        32.2504
 09 10 27  0 40 30.0000000  0  7G02G05G10G13G29G16G07
    -24589.79347     -3811.84045
                  22162684.6644                                   22162679.3524
                                                                        47.5004
        35.7504
 -22784576.08648 -17718676.08247
                  20582772.0004                                   20582768.4924
                                                                        52.0004
        43.0004
 -19624341.46148 -15257589.80146
                  20265619.7194                                   20265616.1414
                                                                        52.0004
        41.5004
  -1450109.15247  -1113856.43444
                  22684870.1564                                   22684866.0944
                                                                        44.2504
        25.5004
 -13128198.27048 -10185716.00446
                  22076490.0234                                   22076486.8834
                                                                        48.7504
        38.7504
  -9697179.57447  -7523183.37144
                  23443018.5004                                   23443014.2774
                                                                        43.5004
        25.0004
 -13903358.07047 -10822091.39145
                  22558534.8984                                   22558530.8364
                                                                        47.2504
        31.7504
 09 10 27  0 41  0.0000000  0  7G02G05G10G13G29G16G07
    -12975.23048      5238.55546
                  22164894.7504                                   22164889.3284
                                                                        48.2504
        36.0004
 -22901616.75848 -17809876.50447
                  20560500.1024                                   20560496.5864
                                                                        52.0004
        43.0004
 -19715892.36348 -15328928.16446
                  20248197.8204                                   20248194.5944
                                                                        52.5004
        41.5004
  -1441790.58247  -1107374.02044
                  22686453.4224                                   22686450.1484
                                                                        44.7504
        26.5004
 -13177763.10548 -10224337.96146
                  22067057.8914                                   22067055.0984
                                                                        48.7504
        38.2504
  -9773168.58246  -7582395.55944
                  23428558.0634                                   23428553.6564
                                                                        41.7504
        25.2504
 -14034520.94947 -10924295.72745
                  22533574.6484                                   22533571.1294
                                                                        47.0004
        31.5004
 09 10 27  0 41 30.0000000  0  7G02G05G10G13G29G16G07
      -983.40248     14582.80546
                  22167176.7734                                   22167171.7234
                                                                        48.5004
        36.5004
 -23018110.83248 -17900651.07047
                  20538332.0394                                   20538328.1684
                                                                        51.5004
        43.5004
 -19806841.60948 -15399797.71946
                  20230891.0554                                   20230887.5594
                                                                        52.5004
        41.5004
  -1433071.33247  -1100579.51644
                  22688112.3134                                   22688108.2384
                                                                        43.5004
        26.7504
 -13226721.26648 -10262487.17646
                  22057741.8364                                   22057738.4184
                                                                        49.2504
        38.5004
  -9848517.44947  -7641108.94944
                  23414219.9384                                   23414215.1844
                                                                        43.2504
        25.5004
 -14165093.96547 -11026040.72745
                  22508727.5634                                   22508723.6054
                                                                        47.2504
        31.5004
 09 10 27  0 42  0.0000000  0  7G02G05G10G13G29G16G07
     11381.15648     24217.54745
                  22169529.2114                                   22169523.7854
                                                                        48.5004
        35.2504
 -23134059.18448 -17991000.43047
                  20516267.5784                                   20516264.1684
                                                                        51.2504
        43.7504
 -19897191.30148 -15470200.08646
                  20213698.0314                                   20213694.7624
                                                                        52.2504
        41.7504
  -1423956.78547  -1093477.22744
                  22689846.0784                                   22689842.8554
                                                                        42.5004
        24.5004
 -13275075.94148 -10300166.15646
                  22048539.7974                                   22048537.0044
                                                                        49.5004
        39.0004
  -9923228.78947  -7699325.54744
                  23400002.4694                                   23399998.1094
                                                                        43.0004
        25.5004
 -14295077.60247 -11127326.82045
                  22483992.3524                                   22483988.1454
                                                                        47.0004
        31.0004
 09 10 27  0 42 30.0000000  0  7G02G05G10G13G29G16G07
     24114.29347     34139.23845
                  22171952.3364                                   22171947.4024
                                                                        47.5004
        35.2504
 -23249461.52748 -18080924.34847
                  20494307.3134                                   20494303.7304
                                                                        51.2504
        43.5004
 -19986942.54348 -15540136.21146
                  20196619.0164                                   20196615.4534
                                                                        51.7504
        41.0004
  -1414449.89847  -1086068.94544
                  22691654.8594                                   22691651.4454
                                                                        42.0004
        26.5004
 -13322828.96948 -10337376.33646
                  22039453.3284                                   22039450.0204
                                                                        49.0004
        38.2504
  -9997303.90647  -7757046.39844
                  23385906.6644                                   23385902.5634
                                                                        43.5004
        26.0004
 -14424470.40647 -11228152.36745
                  22459369.8834                                   22459366.2304
                                                                        46.2504
        31.5004
 09 10 27  0 43  0.0000000  0  7G02G05G10G13G29G16G07
   1612636.47348   1271948.39845
                  22474238.7114                                   22474233.7544
                                                                        49.0004
        35.0004
 -21788891.27348 -16942817.64147
                  20772244.7974                                   20772240.9454
                                                                        52.5004
        43.5004
 -18500670.77348 -14382003.00046
                  20479447.2034                                   20479444.0664
                                                                        52.2504
        41.5004
    170867.87547    149243.57444
                  22993331.6724                                   22993328.0234
                                                                        43.2504
        27.0004
 -11794558.70748  -9146516.39846
                  22330272.7114                                   22330269.9064
                                                                        48.7504
        38.5004
  -8495318.42247  -6586668.07444
                  23671724.5234                                   23671720.3954
                                                                        43.5004
        25.0004
 -12977843.48447 -10100910.56645
                  22734653.9064                                   22734649.9924
                                                                        46.2504
        31.2504
 09 10 27  0 43 30.0000000  0  7G02G05G10G13G29G16G07
   1626105.58248   1282443.93445
                  22476801.6414                                   22476796.4694
                                                                        48.7504
        35.5004
 -21903196.56648 -17031886.72747
                  20750492.8594                                   20750489.0554
                                                                        52.5004
        43.0004
 -18589219.64548 -14451001.62546
                  20462596.8204                                   20462593.4774
                                                                        52.0004
        41.2504
    181153.18047    157258.02044
                  22995288.5554                                   22995285.0864
                                                                        44.5004
        27.7504
 -11841110.19148  -9182790.28946
                  22321414.5554                                   22321411.5354
                                                                        49.2504
        37.7504
  -8568118.96147  -6643395.76244
                  23657871.3524                                   23657867.1524
                                                                        43.0004
        26.5004
 -13106045.71147 -10200808.22345
                  22710257.5164                                   22710253.7934
                                                                        46.0004
        31.5004
 09 10 27  0 44  0.0000000  0  7G02G05G10G13G29G16G07
   1639942.84047   1293226.03945
                  22479434.5394                                   22479429.3444
                                                                        47.5004
        34.7504
 -22016947.13748 -17120523.53147
                  20728846.9614                                   20728843.5204
                                                                        51.7504
        43.5004
 -18677165.25848 -14519531.18046
                  20445861.7424                                   20445858.5824
                                                                        52.2504
        41.7504
    191828.10947    165576.01644
                  22997320.1724                                   22997316.3364
                                                                        43.2504
        25.5004
 -11887057.55148  -9218593.42646
                  22312670.9534                                   22312667.2464
                                                                        49.2504
        37.5004
  -8640278.08647  -6699623.62944
                  23644140.2664                                   23644135.4734
                                                                        44.0004
        26.7504
 -13233646.00447 -10300236.89845
                  22685975.8284                                   22685972.3874
                                                                        46.7504
        32.7504
 09 10 27  0 44 30.0000000  0  7G02G05G10G13G29G16G07
   1654143.10947   1304291.26245
                  22482137.0474                                   22482131.4304
                                                                        47.0004
        34.5004
 -22130146.68048 -17208730.99247
                  20707305.7584                                   20707302.3324
                                                                        51.0004
        43.7504
 -18764507.65248 -14587136.62957
                  20429240.5314                                   20429237.1884
                                                                        52.0004
        42.5004
    202886.94146    174193.24244
                  22999424.3834                                   22999420.8324
                                                                        41.5004
        24.2504
 -11932407.03948  -9253930.68446
                  22304040.9844                                   22304037.9574
                                                                        49.2504
        37.7504
  -8711800.83647  -6755355.63744
                  23630530.0864                                   23630525.2774
                                                                        44.5004
        27.5004
 -13360646.76647 -10399198.56645
                  22661808.3984                                   22661804.5434
                                                                        46.2504
        31.7504
 09 10 27  0 45  0.0000000  0  7G02G05G10G13G29G16G07
   1668705.92647   1315638.98845
                  22484908.3444                                   22484902.9574
                                                                        47.5004
        35.0004
 -22242791.75448 -17296506.36347
                  20685870.1484                                   20685866.6214
                                                                        51.7504
        43.2504
 -18851247.43048 -14654725.98446
                  20412734.3364                                   20412731.2774
                                                                        52.0004
        41.5004
    214329.45347    183109.57843
                  23001601.5704                                   23001597.8094
                                                                        43.2504
        22.2504
 -11977156.94548  -9288800.75046
                  22295525.4844                                   22295522.3364
                                                                        49.0004
        37.5004
  -8782684.57047  -6810589.68744
                  23617041.0084                                   23617036.6954
                                                                        44.2504
        25.5004
 -13487043.43447 -10497689.51645
                  22637755.7974                                   22637752.1604
                                                                        47.5004
        31.0004
 09 10 27  0 45 30.0000000  0  7G02G05G10G13G29G16G07
   1683630.21947   1327268.29745
                  22487747.6954                                   22487743.1254
                                                                        46.5004
        34.7504
 -22354880.22748 -17383848.06647
                  20664540.6724                                   20664537.0944
                                                                        51.5004
        43.5004
 -18937382.33248 -14721844.08646
                  20396343.5084                                   20396340.4614
                                                                        52.2504
        41.7504
    226154.11346    192323.71544
                  23003851.9384                                   23003848.3324
                                                                        41.2504
        25.7504
 -12021307.68048  -9323203.92246
                  22287123.9614                                   22287120.8594
                                                                        49.0004
        38.5004
  -8852929.03547  -6865325.61344
                  23603673.4454                                   23603669.2384
                                                                        44.0004
        26.2504
 -13612832.46947 -10595706.88345
                  22613819.5004                                   22613815.5394
                                                                        47.0004
        32.7504
 09 10 27  0 46  0.0000000  0  7G02G05G10G13G29G16G07
   1698907.21147   1339172.49645
                  22490655.0864                                   22490650.3484
                                                                        47.5004
        34.7504
 -22466418.18448 -17470760.80947
                  20643315.7114                                   20643311.8284
                                                                        51.2504
        43.5004
 -19022919.65648 -14788496.80946
                  20380066.4534                                   20380063.4184
                                                                        52.0004
        41.5004
    238350.56647    201827.40244
                  23006173.2344                                   23006169.0664
                                                                        43.5004
        24.5004
 -12064867.37948  -9357146.55146
                  22278835.0084                                   22278831.8634
                                                                        49.0004
        37.5004
  -8922541.19547  -6919568.84444
                  23590427.1724                                   23590422.5864
                                                                        43.5004
        26.5004
 -13738019.49247 -10693255.03945
                  22589996.7814                                   22589992.9884
                                                                        47.2504
        32.7504
 09 10 27  0 46 30.0000000  0  7G02G05G10G13G29G16G07
   1714538.64847   1351352.90245
                  22493629.9924                                   22493624.7154
                                                                        47.5004
        35.7504
 -22577400.29348 -17557240.34447
                  20622196.3914                                   20622192.8874
                                                                        51.0004
        43.2504
 -19107854.69948 -14854680.15246
                  20363904.0864                                   20363901.0984
                                                                        51.7504
        41.5004
    250920.79347    211622.37144
                  23008565.2734                                   23008561.7424
                                                                        44.0004
        26.2504
 -12107832.94148  -9390626.21546
                  22270658.8524                                   22270655.7584
                                                                        48.5004
        37.5004
  -8991517.73447  -6973316.77744
                  23577301.6724                                   23577296.9304
                                                                        44.7504
        26.2504
 -13862599.31647 -10790330.14145
                  22566289.9144                                   22566286.0864
                                                                        46.7504
        32.7504
 09 10 27  0 47  0.0000000  0  7G02G05G10G13G29G16G07
   1730520.65247   1363806.43445
                  22496671.2814                                   22496666.2504
                                                                        46.5004
        35.0004
 -22687827.51248 -17643287.51247
                  20601182.6414                                   20601179.1454
                                                                        51.2504
        43.5004
 -19192189.63348 -14920396.09446
                  20347855.9384                                   20347852.9304
                                                                        52.0004
        41.7504
    263860.80547    221705.55944
                  23011027.6564                                   23011024.2234
                                                                        42.2504
        27.0004
 -12150207.11748  -9423645.03546
                  22262595.5394                                   22262591.8754
                                                                        48.7504
        37.2504
  -9059860.26647  -7026570.69144
                  23564296.1414                                   23564291.4104
                                                                        43.2504
        26.7504
 -13986571.68747 -10886932.08245
                  22542698.9534                                   22542695.1684
                                                                        47.2504
        33.2504
 09 10 27  0 47 30.0000000  0  8G02G21G05G10G13G29G16G07
   1746851.43447   1376531.75045
                  22499778.9844                                   22499774.1254
                                                                        47.0004
        34.7504
   7573631.96956   5945737.39553
                  24783389.4224                                   24783384.7464
                                                                        40.2504
        22.0004
 -22797698.77748 -17728901.54347
                  20580275.1954                                   20580271.2114
                                                                        51.5004
        43.5004
 -19275922.67248 -14985642.57046
                  20331922.1024                                   20331918.9304
                                                                        52.0004
        41.7504
    277168.08647    232074.74244
                  23013559.6024                                   23013556.6454
                                                                        42.0004
        26.5004
 -12191991.46548  -9456204.24246
                  22254643.5634                                   22254640.5864
                                                                        49.0004
        37.5004
  -9127569.25847  -7079330.93744
                  23551411.6644                                   23551406.9534
                                                                        45.2504
        26.5004
 -14109933.70347 -10983058.33245
                  22519223.7504                                   22519220.4734
                                                                        47.0004
        33.0004
 09 10 27  0 48  0.0000000  0  8G02G21G05G10G13G29G16G07
   1763527.08647   1389525.71545
                  22502951.6724                                   22502947.0044
                                                                        45.5004
        34.0004
   7384801.28146   5798596.62543
                  24747456.1884                                   24747452.1294
                                                                        40.5004
        22.2504
 -22907015.80548 -17814084.12147
                  20559473.0944                                   20559469.5984
                                                                        51.7504
        43.2504
 -19359056.77048 -15050422.48047
                  20316102.1564                                   20316098.8914
                                                                        52.0004
        42.0004
    290839.14546    242727.56644
                  23016161.1094                                   23016157.9344
                                                                        41.7504
        26.7504
 -12233188.58648  -9488305.87946
                  22246804.3914                                   22246800.9064
                                                                        49.2504
        38.0004
  -9194646.80147  -7131599.15644
                  23538647.3754                                   23538642.8284
                                                                        43.7504
        25.5004
 -14232685.58247 -11078709.05945
                  22495865.0314                                   22495861.2464
                                                                        47.7504
        33.0004
 09 10 27  0 48 30.0000000  0  8G02G21G05G10G13G29G16G07
   1780540.48047   1402782.82045
                  22506189.3914                                   22506184.7774
                                                                        45.7504
        34.0004
   7196109.32446   5651563.98043
                  24711548.5234                                   24711545.0744
                                                                        39.5004
        22.5004
 -23015780.74648 -17898836.12947
                  20538775.9224                                   20538772.5594
                                                                        51.2504
        43.5004
 -19441596.00848 -15114738.71147
                  20300395.6094                                   20300392.7424
                                                                        51.0004
        42.0004
    304865.24246    253656.61343
                  23018830.3134                                   23018826.6024
                                                                        41.5004
        22.7504
 -12273804.45748  -9519954.59446
                  22239075.3594                                   22239072.1134
                                                                        49.0004
        37.5004
  -9261098.04747  -7183379.34444
                  23526001.9144                                   23525997.0274
                                                                        45.0004
        27.0004
 -14354830.91847 -11173887.24245
                  22472621.6954                                   22472617.8554
                                                                        47.5004
        33.2504
 09 10 27  0 49  0.0000000  0  8G02G21G05G10G13G29G16G07
   1797888.64847   1416300.79745
                  22509490.7424                                   22509485.9024
                                                                        46.0004
        33.7504
   7007557.33646   5504640.49243
                  24675668.9454                                   24675665.3674
                                                                        39.0004
        22.7504
 -23123994.40248 -17983158.41847
                  20518183.3754                                   20518179.8554
                                                                        51.5004
        44.2504
 -19523540.92648 -15178591.59046
                  20284801.4454                                   20284798.3834
                                                                        50.5004
        41.0004
    319245.06346    264861.94143
                  23021566.8284                                   23021563.1094
                                                                        41.5004
        22.5004
 -12313841.83248  -9551152.57846
                  22231456.6174                                   22231453.4494
                                                                        49.7504
        37.7504
  -9326924.76647  -7234672.88344
                  23513475.8284                                   23513471.4654
                                                                        44.2504
        26.5004
 -14476369.02047 -11268592.36345
                  22449493.5314                                   22449489.5704
                                                                        47.0004
        32.5004
 09 10 27  0 49 30.0000000  0  8G02G21G05G10G13G29G16G07
   1815575.80947   1430082.97745
                  22512856.3524                                   22512851.3594
                                                                        46.2504
        33.2504
   6819153.52346   5357832.45743
                  24639816.6724                                   24639812.4964
                                                                        40.2504
        20.5004
 -23231649.78948 -18067045.66047
                  20497697.2664                                   20497693.7034
                                                                        50.7504
        43.5004
 -19604887.27748 -15241978.74646
                  20269322.4144                                   20269319.5084
                                                                        50.5004
        41.2504
    333981.10246    276344.95344
                  23024370.5394                                   23024367.0514
                                                                        41.0004
        24.2504
 -12353295.87548  -9581895.98846
                  22223948.9304                                   22223945.6024
                                                                        50.0004
        37.7504
  -9392121.45347  -7285475.49644
                  23501068.7734                                   23501064.2384
                                                                        44.7504
        24.5004
 -14597291.59447 -11362817.69545
                  22426482.8444                                   22426479.1724
                                                                        47.5004
        32.2504
 09 10 27  0 50  0.0000000  0  8G02G21G05G10G13G29G16G07
   1833603.16847   1444130.30145
                  22516287.4144                                   22516281.5554
                                                                        46.2504
        32.7504
   6630903.25046   5211143.98443
                  24603994.0234                                   24603989.5984
                                                                        41.5004
        21.2504
 -23338742.76248 -18150494.72347
                  20477318.1334                                   20477314.7464
                                                                        51.0004
        43.7504
 -19685629.03548 -15304894.13346
                  20253957.7814                                   20253954.2274
                                                                        50.5004
        41.2504
    349074.07847    288106.02344
                  23027242.8674                                   23027238.8634
                                                                        43.7504
        26.0004
 -12392164.62948  -9612183.38746
                  22216552.6644                                   22216549.4614
                                                                        48.5004
        38.2504
  -9456684.83247  -7335784.62144
                  23488782.7894                                   23488778.2734
                                                                        44.7504
        26.0004
 -14717593.26647 -11456559.15645
                  22403589.8754                                   22403586.5004
                                                                        47.5004
        33.5004
 09 10 27  0 50 30.0000000  0  8G02G21G05G10G13G29G16G07
   1851969.30947   1458441.59445
                  22519781.8444                                   22519776.7774
                                                                        46.5004
        32.5004
   6442810.91447   5064578.55543
                  24568200.6804                                   24568196.5394
                                                                        42.2504
        21.7504
 -23445272.78548 -18233505.64847
                  20457046.1804                                   20457043.1334
                                                                        51.2504
        43.5004
 -19765767.57448 -15367339.94146
                  20238707.8984                                   20238704.6804
                                                                        51.0004
        41.5004
    364522.16047    300143.73044
                  23030181.7424                                   23030179.0204
                                                                        42.7504
        26.0004
 -12430447.78948  -9642014.47346
                  22209267.4064                                   22209264.3874
                                                                        50.0004
        38.0004
  -9520614.57047  -7385599.98844
                  23476617.0314                                   23476613.0354
                                                                        44.2504
        27.0004
 -14837273.79747 -11549817.40645
                  22380816.1804                                   22380812.3484
                                                                        47.5004
        33.7504
 09 10 27  0 51  0.0000000  0  8G02G21G05G10G13G29G16G07
   1870671.73447   1473014.94145
                  22523340.8914                                   22523336.1024
                                                                        45.0004
        33.5004
   6254877.46947   4918136.94543
                  24532438.8524                                   24532433.4414
                                                                        43.5004
        22.7504
 -23551237.41048 -18316075.66047
                  20436882.4144                                   20436878.8364
                                                                        52.2504
        43.5004
 -19845302.08248 -15429314.82446
                  20223572.9064                                   20223569.8874
                                                                        52.0004
        41.0004
    380322.28546    312455.52043
                  23033188.2504                                   23033185.0704
                                                                        39.7504
        23.2504
 -12468147.31248  -9671390.79746
                  22202093.5474                                   22202090.4264
                                                                        48.7504
        38.2504
  -9583911.78147  -7434922.46944
                  23464572.4614                                   23464567.8794
                                                                        43.5004
        27.0004
 -14956329.60248 -11642588.45345
                  22358161.1024                                   22358157.4264
                                                                        48.0004
        33.0004
 09 10 27  0 51 30.0000000  0  8G02G21G05G10G13G29G16G07
   1889710.52047   1487850.33645
                  22526963.9304                                   22526958.9384
                                                                        46.2504
        34.2504
   6067107.27747   4771822.52343
                  24496706.6884                                   24496702.3554
                                                                        42.0004
        22.0004
 -23656634.00848 -18398202.73447
                  20416825.7194                                   20416822.5904
                                                                        51.7504
        43.7504
 -19924231.04348 -15490818.04746
                  20208553.2664                                   20208549.9884
                                                                        52.0004
        41.2504
    396474.50447    325041.67643
                  23036261.3674                                   23036258.6914
                                                                        42.2504
        23.0004
 -12505263.36348  -9700312.44546
                  22195030.4384                                   22195027.5704
                                                                        48.7504
        37.7504
  -9646575.30947  -7483751.19144
                  23452648.0234                                   23452643.4574
                                                                        43.5004
        25.5004
 -15074757.27048 -11734870.09845
                  22335624.9924                                   22335621.1524
                                                                        48.0004
        33.0004
 09 10 27  0 52  0.0000000  0  8G02G21G05G10G13G29G16G07
   1909083.27047   1502945.97345
                  22530650.5554                                   22530645.9454
                                                                        45.7504
        34.7504
   5879502.99246   4625637.47443
                  24461006.5474                                   24461002.2894
                                                                        39.5004
        20.5004
 -23761462.54348 -18479887.10947
                  20396877.4924                                   20396874.1804
                                                                        50.5004
        43.5004
 -20002553.86348 -15551848.74246
                  20193648.7194                                   20193645.7034
                                                                        50.7504
        41.0004
    412976.70346    337900.63744
                  23039402.3754                                   23039398.7584
                                                                        40.7504
        24.7504
 -12541796.71548  -9728779.97346
                  22188078.4454                                   22188075.6334
                                                                        49.0004
        38.0004
  -9708605.34447  -7532086.26644
                  23440844.1094                                   23440839.4344
                                                                        44.5004
        24.2504
 -15192555.00047 -11826660.49245
                  22313208.2504                                   22313204.5234
                                                                        47.0004
        33.2504
 09 10 27  0 52 30.0000000  0  8G02G21G05G10G13G29G16G07
   3504207.89847   2745900.24645
                  22834192.4774                                   22834187.6294
                                                                        44.7504
        34.0004
   7267493.66046   5707188.75043
                  24725131.5084                                   24725128.2504
                                                                        38.5004
        21.7504
 -22290297.26248 -17333524.21147
                  20676830.8054                                   20676827.1884
                                                                        51.5004
        44.0004
 -18504847.60248 -14384804.75846
                  20478652.5944                                   20478649.4104
                                                                        51.0004
        41.5004
   2005245.68447   1578629.72343
                  23342401.2974                                   23342396.8874
                                                                        42.2504
        22.5004
 -11002327.12548  -8529193.27746
                  22481029.6954                                   22481026.8524
                                                                        48.2504
        37.5004
  -8194580.22747  -6352326.43044
                  23728953.1254                                   23728948.6094
                                                                        43.5004
        25.2504
 -13734297.35248 -10690355.91445
                  22590705.9534                                   22590702.6564
                                                                        48.0004
        33.0004
 09 10 27  0 53  0.0000000  0  8G02G21G05G10G13G29G16G07
   3524243.14847   2761512.07445
                  22838005.4304                                   22838000.4844
                                                                        47.0004
        33.5004
   7080227.96146   5561267.53143
                  24689496.8984                                   24689492.7234
                                                                        41.0004
        22.7504
 -22393985.56248 -17414320.00047
                  20657099.2974                                   20657095.8634
                                                                        49.2504
        44.0004
 -18581959.45748 -14444892.45746
                  20463978.8594                                   20463976.1054
                                                                        49.7504
        41.5004
   2022440.80947   1592028.68844
                  23345673.7034                                   23345668.7934
                                                                        44.0004
        24.0004
 -11037699.48848  -8556756.16046
                  22474298.4534                                   22474295.8794
                                                                        48.5004
        37.5004
  -8255345.15247  -6399675.70744
                  23717390.0164                                   23717385.4224
                                                                        44.2504
        25.2504
 -13850829.99647 -10781160.31645
                  22568530.1254                                   22568527.0394
                                                                        47.5004
        32.5004
 09 10 27  0 53 30.0000000  0  8G02G21G05G10G13G29G16G07
   3544604.12947   2777377.68845
                  22841880.0944                                   22841874.2504
                                                                        47.0004
        32.7504
   6893133.74646   5415479.90644
                  24653895.0634                                   24653890.1644
                                                                        41.2504
        25.0004
 -22497105.27748 -17494672.90647
                  20637476.2424                                   20637472.7584
                                                                        51.0004
        43.7504
 -18658466.23448 -14504508.07046
                  20449420.1024                                   20449416.8204
                                                                        50.2504
        41.2504
   2039975.65246   1605692.24243
                  23349009.6174                                   23349005.7304
                                                                        40.5004
        22.7504
 -11072494.68048  -8583869.31646
                  22467677.4384                                   22467674.4804
                                                                        48.7504
        37.0004
  -8315479.74247  -6446533.82044
                  23705946.9454                                   23705942.5044
                                                                        44.2504
        25.5004
 -13966730.63347 -10871472.28145
                  22546474.9614                                   22546471.5634
                                                                        47.0004
        33.0004
 09 10 27  0 54  0.0000000  0  8G02G21G05G10G13G29G16G07
   3565290.99647   2793497.42645
                  22845816.7504                                   22845811.1294
                                                                        46.0004
        33.2504
   6706214.39846   5269828.54744
                  24618324.9614                                   24618321.2774
                                                                        41.5004
        25.2504
 -22599654.05948 -17574581.09447
                  20617961.7194                                   20617958.3954
                                                                        51.0004
        43.7504
 -18734366.91048 -14563651.12546
                  20434976.6644                                   20434973.7234
                                                                        52.0004
        41.2504
   2057850.34846   1619620.59443
                  23352411.1094                                   23352407.8284
                                                                        40.0004
        22.7504
 -11106713.38748  -8610533.27746
                  22461165.9144                                   22461162.5354
                                                                        48.5004
        37.2504
  -8374984.12947  -6492900.85544
                  23694623.2734                                   23694619.0594
                                                                        43.7504
        24.5004
 -14081995.33248 -10961288.72745
                  22524540.8204                                   22524536.7274
                                                                        48.0004
        31.5004
 09 10 27  0 54 30.0000000  0  8G02G21G05G10G13G29G16G07
   3586299.48447   2809867.78945
                  22849813.8674                                   22849808.8794
                                                                        45.2504
        32.7504
   6519470.84846   5124314.19144
                  24582788.4384                                   24582784.5594
                                                                        41.5004
        24.0004
 -22701632.17248 -17654044.43747
                  20598555.9304                                   20598552.2894
                                                                        50.7504
        43.7504
 -18809664.09448 -14622323.93046
                  20420647.8754                                   20420644.9304
                                                                        51.0004
        41.0004
   2076060.44947   1633810.34043
                  23355876.3524                                   23355872.2384
                                                                        42.5004
        22.0004
 -11140358.13848  -8636749.96046
                  22454763.2194                                   22454759.9774
                                                                        48.7504
        37.0004
  -8433860.24647  -6538778.34844
                  23683419.9844                                   23683415.1134
                                                                        43.7504
        24.5004
 -14196625.11347 -11050610.59445
                  22502727.4064                                   22502723.3914
                                                                        47.7504
        31.5004
 09 10 27  0 55  0.0000000  0  8G02G21G05G10G13G29G16G07
   3607628.04747   2826487.47745
                  22853872.6564                                   22853867.9454
                                                                        45.2504
        32.0004
   6332905.50047   4978938.64843
                  24547286.2034                                   24547281.5044
                                                                        42.0004
        22.5004
 -22803038.70348 -17733062.56647
                  20579258.8984                                   20579255.4614
                                                                        51.2504
        43.5004
 -18884357.60248 -14680526.46546
                  20406434.1024                                   20406430.9264
                                                                        51.0004
        41.0004
   2094604.25447   1648260.06643
                  23359404.7114                                   23359401.2934
                                                                        42.0004
        23.7504
 -11173430.57848  -8662520.64546
                  22448470.0314                                   22448466.5314
                                                                        49.0004
        37.5004
  -8492108.65247  -6584166.70344
                  23672335.0004                                   23672330.9064
                                                                        43.5004
        25.5004
 -14310617.10547 -11139435.30545
                  22481035.1414                                   22481031.2974
                                                                        47.2504
        32.7504
 09 10 27  0 55 30.0000000  0  8G02G21G05G10G13G29G16G07
   3629271.23447   2843352.30545
                  22857991.1564                                   22857986.1414
                                                                        45.5004
        32.5004
   6146518.01246   4833701.64543
                  24511817.8364                                   24511812.9144
                                                                        40.5004
        21.5004
 -22903876.10948 -17811637.31247
                  20560070.3364                                   20560066.5124
                                                                        51.0004
        43.7504
 -18958450.68748 -14738261.42246
                  20392334.4534                                   20392331.4064
                                                                        51.5004
        41.2504
   2113475.96946   1662965.30143
                  23362996.3444                                   23362992.9384
                                                                        41.2504
        23.0004
 -11205934.76248  -8687848.57846
                  22442284.7974                                   22442281.6294
                                                                        48.7504
        36.7504
  -8549732.71947  -6629068.57843
                  23661369.7274                                   23661365.5004
                                                                        43.0004
        22.7504
 -14423973.55147 -11227764.80545
                  22459464.4384                                   22459460.2194
                                                                        47.0004
        32.2504
 09 10 27  0 56  0.0000000  0  8G02G21G05G10G13G29G16G07
   3651229.43047   2860462.57045
                  22862169.8444                                   22862164.5084
                                                                        46.5004
        32.7504
   5960312.67246   4688606.59043
                  24476383.5944                                   24476378.7464
                                                                        39.0004
        20.2504
 -23004141.32048 -17889766.27047
                  20540990.6334                                   20540987.1994
                                                                        50.5004
        43.5004
 -19031941.26648 -14795527.09846
                  20378349.9694                                   20378346.7854
                                                                        51.2504
        41.5004
   2132676.53146   1677926.77044
                  23366650.5864                                   23366646.6484
                                                                        41.0004
        24.0004
 -11237870.51248  -8712733.55146
                  22436207.3984                                   22436204.2424
                                                                        48.7504
        36.7504
  -8606731.35547  -6673483.09844
                  23650523.5474                                   23650519.2504
                                                                        43.0004
        24.7504
 -14536690.07847 -11315595.66845
                  22438014.6414                                   22438010.7624
                                                                        47.5004
        33.7504
 09 10 27  0 56 30.0000000  0  8G02G21G05G10G13G29G16G07
   3673498.31647   2877814.93445
                  22866407.6884                                   22866402.5594
                                                                        45.7504
        32.7504
   5774290.02046   4543653.93443
                  24440984.4774                                   24440981.0634
                                                                        41.2504
        22.7504
 -23103834.37948 -17967449.02047
                  20522019.4304                                   20522015.6604
                                                                        49.5004
        43.7504
 -19104829.80548 -14852323.25846
                  20364479.7814                                   20364476.5314
                                                                        50.0004
        41.5004
   2152199.59446   1693139.59043
                  23370365.5474                                   23370361.3954
                                                                        40.0004
        23.7504
 -11269240.86348  -8737178.01646
                  22430238.0554                                   22430234.8984
                                                                        49.5004
        37.2504
  -8663106.86747  -6717412.06244
                  23639795.0084                                   23639791.1024
                                                                        42.5004
        25.2504
 -14648768.02747 -11402929.06645
                  22416687.0864                                   22416682.8404
                                                                        47.2504
        32.5004
 09 10 27  0 57  0.0000000  0  8G02G21G05G10G13G29G16G07
   3696077.78947   2895409.28945
                  22870704.2664                                   22870699.3484
                                                                        46.5004
        32.2504
   5588454.89547   4398847.34444
                  24405621.7734                                   24405617.8634
                                                                        42.5004
        25.7504
 -23202954.02748 -18044685.12547
                  20503157.5394                                   20503154.0824
                                                                        51.5004
        43.7504
 -19177115.64548 -14908649.66846
                  20350723.9924                                   20350721.0904
                                                                        51.5004
        41.2504
   2172045.75046   1708604.10243
                  23374141.6414                                   23374138.1684
                                                                        40.2504
        22.7504
 -11300045.55948  -8761181.68746
                  22424376.1414                                   22424372.8014
                                                                        48.7504
        38.0004
  -8718858.33647  -6760854.74644
                  23629186.0784                                   23629182.3134
                                                                        42.5004
        25.0004
 -14760204.28948 -11489762.52045
                  22395481.3754                                   22395477.1374
                                                                        48.0004
        33.2504
 09 10 27  0 57 30.0000000  0  8G02G21G05G10G13G29G16G07
   3718964.55847   2913243.03845
                  22875059.4534                                   22875054.5004
                                                                        44.2504
        30.5004
   5402807.25847   4254186.91044
                  24370294.3444                                   24370290.4574
                                                                        42.7504
        28.0004
 -23301501.44548 -18121475.59847
                  20484404.9454                                   20484401.6174
                                                                        51.0004
        43.7504
 -19248800.94148 -14964508.34446
                  20337083.0234                                   20337080.0314
                                                                        51.0004
        40.7504
   2192211.70346   1724317.82043
                  23377978.8204                                   23377975.1604
                                                                        39.0004
        21.5004
 -11330288.06248  -8784747.25046
                  22418620.9454                                   22418618.0164
                                                                        49.5004
        38.0004
  -8773988.77347  -6803813.52344
                  23618695.3134                                   23618691.0824
                                                                        43.7504
        25.2504
 -14870997.55947 -11576094.89845
                  22374398.1254                                   22374394.2734
                                                                        47.5004
        32.2504
 09 10 27  0 58  0.0000000  0  8G02G21G05G10G13G29G16G07
   3742157.08247   2931315.03545
                  22879472.8444                                   22879468.2304
                                                                        45.2504
        32.0004
   5217350.83647   4109675.44944
                  24335003.6254                                   24334999.4844
                                                                        43.5004
        27.0004
 -23399474.34048 -18197818.27047
                  20465761.4454                                   20465758.1174
                                                                        48.5004
        44.0004
 -19319885.18448 -15019899.01246
                  20323556.3524                                   20323553.4344
                                                                        48.2504
        41.0004
   2212695.14546   1740278.93043
                  23381877.5084                                   23381873.3444
                                                                        39.7504
        21.7504
 -11359968.71948  -8807874.99246
                  22412972.8054                                   22412969.7814
                                                                        48.5004
        37.0004
  -8828496.88347  -6846287.38344
                  23608323.0704                                   23608318.9654
                                                                        43.7504
        24.2504
 -14981146.34047 -11661925.03545
                  22353437.4224                                   22353433.7854
                                                                        47.0004
        33.0004
 09 10 27  0 58 30.0000000  0  8G02G21G05G10G13G29G16G07
   3765651.27347   2949622.09845
                  22883944.0784                                   22883938.7274
                                                                        46.5004
        33.0004
   5032087.73047   3965314.66444
                  24299749.0704                                   24299744.2854
                                                                        42.2504
        25.0004
 -23496872.71948 -18273713.01647
                  20447226.8364                                   20447223.7274
                                                                        50.5004
        44.0004
 -19390368.67648 -15074821.17246
                  20310143.6644                                   20310140.5204
                                                                        51.0004
        41.2504
   2233491.75846   1756484.05144
                  23385835.4064                                   23385830.9924
                                                                        39.5004
        24.2504
 -11389089.76648  -8830566.72346
                  22407431.0234                                   22407428.1564
                                                                        49.0004
        37.0004
  -8882385.17247  -6888278.27343
                  23598067.5474                                   23598064.3404
                                                                        43.0004
        23.2504
 -15090651.90247 -11747254.02045
                  22332599.0084                                   22332595.2854
                                                                        47.5004
        33.5004
 09 10 27  0 59  0.0000000  0  8G02G21G05G10G13G29G16G07
   3789446.92647   2968164.02345
                  22888472.4454                                   22888466.9614
                                                                        46.2504
        32.5004
   4847019.51646   3821105.70743
                  24264530.3834                                   24264526.2934
                                                                        40.7504
        23.0004
 -23593695.27348 -18349158.81647
                  20428802.0314                                   20428798.3954
                                                                        50.5004
        43.7504
 -19460251.42248 -15129275.21946
                  20296845.6954                                   20296842.4104
                                                                        50.7504
        41.2504
   2254600.59046   1772932.49643
                  23389852.0474                                   23389847.7504
                                                                        41.0004
        23.2504
 -11417653.31248  -8852823.99646
                  22401995.6484                                   22401992.7774
                                                                        49.2504
        37.2504
  -8935654.59847  -6929786.90644
                  23587930.3674                                   23587927.3364
                                                                        42.7504
        24.7504
 -15199510.27747 -11832078.81645
                  22311884.1094                                   22311880.4614
                                                                        47.2504
        32.7504
 09 10 27  0 59 30.0000000  0  8G02G21G05G10G13G29G16G07
   3813538.85947   2986936.74645
                  22893056.9774                                   22893051.5314
                                                                        46.0004
        31.7504
   4662147.33246   3677049.52743
                  24229351.0784                                   24229345.9694
                                                                        40.5004
        21.5004
 -23689944.88348 -18424158.53947
                  20410486.5084                                   20410483.0274
                                                                        50.5004
        43.5004
 -19529536.27048 -15183263.38746
                  20283661.2034                                   20283657.8554
                                                                        51.0004
        41.2504
   2276017.50046   1789621.00843
                  23393927.3364                                   23393923.2074
                                                                        40.7504
        22.7504
 -11445662.00848  -8874648.91046
                  22396665.9064                                   22396663.1564
                                                                        48.7504
        36.7504
  -8988307.54747  -6970815.18044
                  23577911.2734                                   23577907.5824
                                                                        43.0004
        25.0004
 -15307723.67648 -11916401.21145
                  22291292.3284                                   22291288.1174
                                                                        48.0004
        32.7504
 09 10 27  1  0  0.0000000  0  8G02G21G05G10G13G29G16G07
   3837923.87947   3005937.15645
                  22897697.5004                                   22897693.1684
                                                                        44.5004
        30.5004
   4477472.47746   3533147.11743
                  24194208.0474                                   24194203.7234
                                                                        41.0004
        22.0004
 -23785620.71548 -18498711.39847
                  20392280.0474                                   20392276.5274
                                                                        50.7504
        43.2504
 -19598223.08248 -15236785.37146
                  20270590.0474                                   20270587.0004
                                                                        49.7504
        41.5004
   2297738.84446   1806546.72743
                  23398060.4384                                   23398056.6644
                                                                        41.2504
        22.5004
 -11473119.05947  -8896044.01646
                  22391441.0004                                   22391438.2464
                                                                        47.2504
        37.5004
  -9040346.02047  -7011364.64544
                  23568009.1484                                   23568005.2154
                                                                        43.5004
        26.0004
 -15415291.26647 -12000221.01245
                  22270823.3984                                   22270820.0234
                                                                        47.5004
        33.7504
 09 10 27  1  0 30.0000000  0  8G02G21G05G10G13G29G16G07
   3862602.70347   3025167.41045
                  22902393.9534                                   22902389.8984
                                                                        43.5004
        31.5004
   4292998.60547   3389401.29743
                  24159104.3754                                   24159099.4384
                                                                        42.5004
        22.0004
 -23880721.16048 -18572815.57847
                  20374182.9614                                   20374180.1374
                                                                        50.5004
        44.0004
 -19666312.79348 -15289842.38746
                  20257633.2274                                   20257629.8914
                                                                        50.5004
        41.7504
   2319762.40246   1823707.91043
                  23402251.9144                                   23402247.6994
                                                                        39.5004
        22.0004
 -11500025.10248  -8917009.74646
                  22386320.9534                                   22386317.9654
                                                                        48.5004
        38.0004
  -9091769.87547  -7051435.19144
                  23558223.5634                                   23558219.4304
                                                                        43.7504
        26.0004
 -15522209.38747 -12083533.91445
                  22250477.3674                                   22250473.8674
                                                                        47.5004
        33.5004
 09 10 27  1  1  0.0000000  0  8G02G21G05G10G13G29G16G07
   3887571.09047   3044623.08645
                  22907145.6804                                   22907141.0274
                                                                        44.5004
        32.0004
   4108727.69547   3245813.61744
                  24124038.9384                                   24124033.9144
                                                                        43.2504
        24.0004
 -23975245.85948 -18646470.84047
                  20356195.2274                                   20356192.1764
                                                                        51.2504
        43.5004
 -19733804.97748 -15342433.65646
                  20244789.8364                                   20244787.0234
                                                                        50.5004
        41.7504
   2342086.54746   1841103.34043
                  23406499.8364                                   23406495.6564
                                                                        40.7504
        21.5004
 -11526382.02048  -8937547.61346
                  22381304.9614                                   22381302.1604
                                                                        48.5004
        37.7504
  -9142580.31247  -7091027.72744
                  23548554.9454                                   23548550.6214
                                                                        44.5004
        25.7504
 -15628476.69547 -12166338.65645
                  22230254.6094                                   22230251.4534
                                                                        47.5004
        33.5004
 09 10 27  1  1 30.0000000  0  8G02G21G05G10G13G29G16G07
   3912827.26147   3064303.20545
                  22911951.8754                                   22911947.0394
                                                                        44.7504
        32.5004
   3924661.40247   3102385.34044
                  24089012.6094                                   24089008.2074
                                                                        43.7504
        26.5004
 -24069195.66848 -18719678.42647
                  20338317.0634                                   20338313.7704
                                                                        49.7504
        43.7504
 -19800700.60248 -15394560.02046
                  20232059.8284                                   20232056.7114
                                                                        48.5004
        41.2504
   2364707.78546   1858730.26643
                  23410804.1024                                   23410800.5354
                                                                        40.7504
        22.0004
 -11552192.41448  -8957659.69146
                  22376393.7344                                   22376391.1134
                                                                        48.5004
        36.5004
  -9192779.37647  -7130143.89043
                  23539002.0474                                   23538998.0044
                                                                        44.0004
        23.7504
 -15734094.62947 -12248637.75045
                  22210156.0864                                   22210152.0744
                                                                        47.7504
        33.5004
 09 10 27  1  2  0.0000000  0  8G02G21G05G10G13G29G16G07
   5513791.59447   4311808.15645
                  23216604.8444                                   23216600.1684
                                                                        43.7504
        30.0004
   5316231.43847   4186725.63344
                  24353819.3524                                   24353815.2544
                                                                        44.0004
        27.0004
 -22587143.37948 -17564832.46547
                  20620342.5634                                   20620338.6804
                                                                        49.7504
        44.0004
 -18291574.57048 -14218617.42646
                  20519236.8524                                   20519233.4804
                                                                        49.5004
        41.2504
   3963046.32046   3104188.85543
                  23714958.2664                                   23714954.3794
                                                                        40.5004
        22.5004
 -10002033.91448  -7749744.00045
                  22671379.2114                                   22671376.3554
                                                                        48.2504
        35.7504
  -7666943.48447  -5941180.84444
                  23829359.1564                                   23829354.7894
                                                                        44.5004
        25.2504
 -14263635.93748 -11102825.63345
                  22489974.7034                                   22489970.8324
                                                                        48.2504
        33.5004
 09 10 27  1  2 30.0000000  0  9G02G21G05G10G13G15G29G16G07
   5539618.26647   4331933.06644
                  23221519.2814                                   23221514.3874
                                                                        43.2504
        29.7504
   5132583.59446   4043623.43444
                  24318872.1414                                   24318868.4144
                                                                        41.0004
        26.0004
 -22679939.18748 -17637141.05547
                  20602684.1644                                   20602680.4774
                                                                        51.2504
        43.7504
 -18357277.14148 -14269814.29746
                  20506734.3524                                   20506731.2894
                                                                        51.0004
        41.0004
   3986257.28146   3122275.36343
                  23719375.4774                                   23719370.8754
                                                                        41.7504
        21.5004
  10635760.08657   8302074.25054
                  24515058.5314                                   24515055.7384
                                                                        43.2504
        27.5004
 -10026754.39547  -7769006.94146
                  22666675.1884                                   22666671.9384
                                                                        47.5004
        36.7504
  -7715920.84047  -5979345.01644
                  23820039.5394                                   23820034.4454
                                                                        44.5004
        26.5004
 -14367949.91447 -11184109.14845
                  22470124.4064                                   22470120.2194
                                                                        47.5004
        33.5004
 09 10 27  1  3  0.0000000  0  9G02G21G05G10G13G15G29G16G07
   5565719.99247   4352272.16044
                  23226486.2814                                   23226481.4614
                                                                        43.5004
        29.0004
   4949141.56646   3900681.60244
                  24283963.8594                                   24283960.3594
                                                                        39.5004
        25.5004
 -22772163.86348 -17709004.59847
                  20585134.5784                                   20585130.9104
                                                                        50.7504
        43.7504
 -18422389.75048 -14320551.33646
                  20494343.5864                                   20494340.3094
                                                                        50.7504
        41.5004
   4009751.75446   3140582.75043
                  23723846.2424                                   23723841.7304
                                                                        40.7504
        22.2504
  10437175.85947   8147333.00044
                  24477269.5554                                   24477267.5434
                                                                        43.2504
        27.5004
 -10050938.11348  -7787851.15646
                  22662073.2034                                   22662069.9024
                                                                        48.5004
        36.5004
  -7764295.73447  -6017039.76244
                  23810833.2894                                   23810828.7774
                                                                        45.2504
        25.0004
 -14471616.26647 -11264888.04745
                  22450397.2034                                   22450393.3984
                                                                        47.5004
        33.0004
 09 10 27  1  3 30.0000000  0  9G02G21G05G10G13G15G29G16G07
   5592095.14547   4372824.36745
                  23231505.4304                                   23231500.1334
                                                                        43.5004
        31.0004
   4765908.73046   3757902.80544
                  24249095.8364                                   24249091.5824
                                                                        40.2504
        24.5004
 -22863815.89148 -17780421.69147
                  20567693.5474                                   20567689.9224
                                                                        50.2504
        43.7504
 -18486913.25848 -14370829.64546
                  20482065.1954                                   20482062.1024
                                                                        50.0004
        41.0004
   4033528.75846   3159110.28143
                  23728370.5084                                   23728366.8094
                                                                        40.0004
        20.7504
  10238744.09447   7992711.32444
                  24439508.7584                                   24439505.8954
                                                                        44.5004
        28.0004
 -10074587.91048  -7806279.60246
                  22657572.4924                                   22657569.7664
                                                                        48.0004
        36.2504
  -7812068.01647  -6054264.88344
                  23801743.0314                                   23801738.6334
                                                                        45.0004
        25.2504
 -14574633.76248 -11345161.35245
                  22430793.7114                                   22430790.0004
                                                                        48.0004
        33.5004
 09 10 27  1  4  0.0000000  0  9G02G21G05G10G13G15G29G16G07
   5618743.39147   4393588.60245
                  23236576.8204                                   23236571.9774
                                                                        44.2504
        31.0004
   4582891.56646   3615292.02343
                  24214269.0314                                   24214264.4654
                                                                        41.5004
        23.5004
 -22954892.32048 -17851390.50047
                  20550362.4844                                   20550358.5904
                                                                        49.2504
        44.0004
 -18550844.41448 -14420646.51247
                  20469899.7664                                   20469896.6094
                                                                        50.7504
        42.0004
   4057588.54346   3177858.16443
                  23732949.0314                                   23732945.1844
                                                                        39.7504
        22.7504
  10040468.56347   7838211.11344
                  24401778.4614                                   24401775.1414
                                                                        45.0004
        27.7504
 -10097700.92247  -7824289.66046
                  22653174.3834                                   22653171.1134
                                                                        47.5004
        36.2504
  -7859236.05147  -6091019.19544
                  23792767.2664                                   23792763.0394
                                                                        44.5004
        25.2504
 -14676998.13748 -11424925.82845
                  22411314.1334                                   22411310.4304
                                                                        48.2504
        33.5004
 09 10 27  1  4 30.0000000  0  9G02G21G05G10G13G15G29G16G07
   5645666.73447   4414567.61345
                  23241700.2424                                   23241695.3714
                                                                        44.2504
        30.0004
   4400093.47747   3472851.95744
                  24179483.7974                                   24179478.8014
                                                                        42.7504
        25.0004
 -23045389.75448 -17921907.95347
                  20533141.3204                                   20533138.0554
                                                                        49.7504
        43.5004
 -18614179.69948 -14469998.29746
                  20457847.3134                                   20457844.0744
                                                                        49.7504
        41.0004
   4081931.53546   3196826.72343
                  23737581.1564                                   23737578.0314
                                                                        40.5004
        22.5004
   9842353.82847   7683836.07044
                  24364077.4924                                   24364074.7464
                                                                        44.5004
        27.7504
 -10120277.88748  -7841882.07846
                  22648878.2974                                   22648875.2304
                                                                        48.0004
        36.5004
  -7905798.88747  -6127301.93044
                  23783906.4694                                   23783902.0784
                                                                        44.5004
        26.2504
 -14778705.84448 -11504178.58245
                  22391960.0634                                   22391955.9064
                                                                        48.0004
        34.0004
 09 10 27  1  5  0.0000000  0  9G02G21G05G10G13G15G29G16G07
   5672866.30947   4435762.46944
                  23246875.6024                                   23246870.6294
                                                                        44.0004
        29.5004
   4217518.35947   3330585.58144
                  24144741.1884                                   24144735.5314
                                                                        44.2504
        24.2504
 -23135306.21148 -17991972.75847
                  20516030.5394                                   20516027.3754
                                                                        48.7504
        43.5004
 -18676920.82448 -14518887.84846
                  20445908.4774                                   20445905.2584
                                                                        49.5004
        41.5004
   4106557.63746   3216015.88343
                  23742267.3134                                   23742263.8674
                                                                        39.7504
        21.7504
   9644404.61747   7529590.06644
                  24326409.4454                                   24326406.3444
                                                                        43.5004
        26.2504
 -10142319.02348  -7859056.99246
                  22644683.7814                                   22644680.3874
                                                                        48.0004
        36.5004
  -7951756.39147  -6163112.97744
                  23775160.9924                                   23775156.9574
                                                                        44.7504
        26.5004
 -14879753.49248 -11582917.09045
                  22372731.2034                                   22372727.3634
                                                                        48.2504
        33.2504
 09 10 27  1  5 30.0000000  0  9G02G21G05G10G13G15G29G16G07
   5700337.71547   4457169.23045
                  23252103.1724                                   23252098.3324
                                                                        44.5004
        32.0004
   4035170.64547   3188496.41444
                  24110041.6954                                   24110036.0004
                                                                        44.0004
        25.0004
 -23224640.94148 -18061584.05147
                  20499030.7194                                   20499027.0004
                                                                        49.0004
        43.7504
 -18739065.15248 -14567311.68746
                  20434082.5474                                   20434079.4734
                                                                        49.2504
        41.2504
   4131463.13746   3235422.72343
                  23747006.7664                                   23747002.8554
                                                                        40.5004
        20.5004
   9446624.06347   7375475.29744
                  24288772.8134                                   24288770.0474
                                                                        43.5004
        26.7504
 -10163824.21547  -7875814.25046
                  22640591.5634                                   22640588.5634
                                                                        47.7504
        36.2504
  -7997108.47747  -6198452.26244
                  23766530.5944                                   23766526.5314
                                                                        43.7504
        25.7504
 -14980141.37948 -11661141.55945
                  22353627.9694                                   22353624.1024
                                                                        48.0004
        33.5004
 09 10 27  1  6  0.0000000  0  9G02G21G05G10G13G15G29G16G07
   5728081.81647   4478788.05145
                  23257382.6884                                   23257377.7464
                                                                        44.5004
        30.0004
   3853055.70747   3046588.69944
                  24075386.3984                                   24075381.2894
                                                                        43.0004
        25.7504
 -23313389.99648 -18130739.00447
                  20482142.4924                                   20482139.0864
                                                                        50.2504
        44.0004
 -18800611.06248 -14615269.27046
                  20422370.5474                                   20422367.0944
                                                                        50.0004
        41.2504
   4156650.16846   3255049.03143
                  23751798.8054                                   23751795.9104
                                                                        39.7504
        20.7504
   9249016.96147   7221495.40644
                  24251169.7974                                   24251166.9264
                                                                        42.7504
        28.5004
 -10184793.51647  -7892153.93445
                  22636601.1484                                   22636597.9534
                                                                        47.5004
        35.7504
  -8041853.55147  -6233318.55944
                  23758015.9064                                   23758011.5824
                                                                        44.7504
        25.0004
 -15079864.34048 -11738847.88345
                  22334652.0944                                   22334648.0234
                                                                        48.5004
        34.0004
 09 10 27  1  6 30.0000000  0  9G02G21G05G10G13G15G29G16G07
   5756095.28947   4500616.30545
                  23262713.8524                                   23262708.7624
                                                                        44.0004
        30.5004
   3671173.31647   2904862.18444
                  24040774.5944                                   24040770.9574
                                                                        42.5004
        27.0004
 -23401554.45748 -18199438.42247
                  20465365.3284                                   20465361.4024
                                                                        49.2504
        44.0004
 -18861560.42248 -14662762.27346
                  20410772.0314                                   20410768.7854
                                                                        48.5004
        41.7504
   4182114.73446   3274891.53543
                  23756645.5944                                   23756641.3794
                                                                        41.5004
        20.0004
   9051586.15247   7067653.46544
                  24213599.6414                                   24213597.6134
                                                                        42.2504
        27.5004
 -10205230.33647  -7908078.73046
                  22632711.9144                                   22632708.7974
                                                                        47.5004
        36.7504
  -8085994.31647  -6267713.96944
                  23749616.4304                                   23749611.9844
                                                                        45.0004
        25.0004
 -15178922.30548 -11816035.92645
                  22315801.6024                                   22315798.1094
                                                                        48.5004
        33.7504
 09 10 27  1  7  0.0000000  0  9G02G21G05G10G13G15G29G16G07
   5784378.84847   4522655.83244
                  23268095.2424                                   23268090.8054
                                                                        43.5004
        29.2504
   3489527.49247   2763320.02744
                  24006208.4304                                   24006204.6374
                                                                        42.5004
        28.2504
 -23489133.25448 -18267681.48847
                  20448699.3444                                   20448695.6174
                                                                        51.5004
        44.0004
 -18921912.95748 -14709790.12146
                  20399287.3364                                   20399284.1914
                                                                        50.5004
        41.0004
   4207855.08246   3294948.96143
                  23761543.9064                                   23761539.7624
                                                                        41.5004
        21.0004
   8854332.33247   6913948.81644
                  24176063.6954                                   24176061.1804
                                                                        42.0004
        28.0004
 -10225134.89547  -7923588.78146
                  22628924.4224                                   22628921.1214
                                                                        47.7504
        36.5004
  -8129530.93047  -6301638.60944
                  23741331.8674                                   23741327.1884
                                                                        44.7504
        24.5004
 -15277313.75048 -11892704.59445
                  22297078.6414                                   22297074.5234
                                                                        48.5004
        33.7504
 09 10 27  1  7 30.0000000  0  9G02G21G05G10G13G15G29G16G07
   5812926.78547   4544901.10244
                  23273528.3284                                   23273523.2544
                                                                        44.0004
        29.5004
   3308119.12547   2621962.88744
                  23971688.1254                                   23971684.0084
                                                                        43.5004
        27.0004
 -23576128.17248 -18335469.64547
                  20432144.3674                                   20432140.8324
                                                                        51.0004
        44.0004
 -18981671.08648 -14756354.73046
                  20387915.6334                                   20387912.6844
                                                                        51.2504
        41.0004
   4233866.93446   3315217.97743
                  23766493.9304                                   23766489.1414
                                                                        41.0004
        19.7504
   8657258.57447   6760384.82844
                  24138562.8364                                   24138559.4884
                                                                        42.7504
        29.5004
 -10244511.35548  -7938687.31646
                  22625237.3054                                   22625234.3554
                                                                        48.2504
        36.5004
  -8172466.79347  -6335095.13344
                  23733161.1564                                   23733156.5474
                                                                        44.5004
        24.7504
 -15375039.30547 -11968854.12945
                  22278482.0164                                   22278477.6604
                                                                        47.7504
        33.7504
 09 10 27  1  8  0.0000000  0  9G02G21G05G10G13G15G29G16G07
   5841737.50847   4567351.03944
                  23279010.4534                                   23279004.9804
                                                                        44.2504
        29.2504
   3126951.56647   2480793.38744
                  23937213.2274                                   23937208.6134
                                                                        43.5004
        26.5004
 -23662537.81248 -18402801.84047
                  20415701.4844                                   20415697.6334
                                                                        51.2504
        43.5004
 -19040834.60248 -14802456.16046
                  20376656.9224                                   20376653.5274
                                                                        51.0004
        40.5004
   4260148.61746   3335697.19943
                  23771495.2424                                   23771491.0234
                                                                        40.0004
        21.5004
   8460368.25447   6606964.08245
                  24101095.0314                                   24101091.8244
                                                                        44.0004
        30.0004
 -10263360.38348  -7953374.84446
                  22621650.5314                                   22621647.6174
                                                                        49.0004
        36.7504
  -8214802.27047  -6368083.82444
                  23725104.5164                                   23725100.5084
                                                                        45.0004
        25.5004
 -15472098.49248 -12044484.52745
                  22260011.7974                                   22260007.7464
                                                                        49.0004
        33.7504
 09 10 27  1  8 30.0000000  0  9G02G21G05G10G13G15G29G16G07
   5870808.53147   4590003.73444
                  23284542.3984                                   23284537.3954
                                                                        43.2504
        28.5004
   2946026.48247   2339812.81144
                  23902783.9924                                   23902779.8634
                                                                        42.0004
        25.7504
 -23748362.16048 -18469677.93047
                  20399369.4304                                   20399366.0004
                                                                        51.2504
        43.5004
 -19099403.91048 -14848094.51646
                  20365511.6334                                   20365508.5704
                                                                        50.5004
        40.7504
   4286697.91046   3356384.93043
                  23776546.7664                                   23776543.3954
                                                                        37.5004
        19.7504
   8263661.51247   6453686.04744
                  24063662.9844                                   24063660.2464
                                                                        43.5004
        27.5004
 -10281684.49248  -7967653.37146
                  22618163.4304                                   22618160.5744
                                                                        48.0004
        37.0004
  -8256538.91047  -6400605.88343
                  23717162.4064                                   23717158.4384
                                                                        44.2504
        22.7504
 -15568490.04348 -12119594.69545
                  22241668.8914                                   22241665.1054
                                                                        49.0004
        34.7504
 09 10 27  1  9  0.0000000  0  9G02G21G05G10G13G15G29G16G07
   5900135.20347   4612855.47344
                  23290123.7894                                   23290118.0984
                                                                        42.5004
        28.5004
   2765343.38647   2199020.79844
                  23868400.8134                                   23868396.1724
                                                                        43.7504
        25.7504
 -23833603.36348 -18536099.61747
                  20383148.7114                                   20383145.1644
                                                                        50.0004
        43.5004
 -19157382.79748 -14893272.85546
                  20354478.8134                                   20354475.7074
                                                                        49.7504
        40.7504
   4313509.63346   3377277.14143
                  23781649.2344                                   23781645.3094
                                                                        39.0004
        19.2504
   8067139.51647   6300552.18844
                  24026265.9844                                   24026262.4024
                                                                        43.0004
        26.7504
 -10299488.69548  -7981526.75446
                  22614775.1724                                   22614772.0984
                                                                        48.5004
        36.7504
  -8297681.06547  -6432664.69944
                  23709333.7664                                   23709329.3364
                                                                        44.0004
        24.0004
 -15664215.75848 -12194186.05545
                  22223453.0474                                   22223448.9924
                                                                        48.2504
        33.5004
 09 10 27  1  9 30.0000000  0  9G02G21G05G10G13G15G29G16G07
   5929715.17647   4635904.70744
                  23295752.0004                                   23295747.2974
                                                                        44.0004
        29.0004
   2584904.37947   2058418.96944
                  23834065.3594                                   23834059.8054
                                                                        43.5004
        25.5004
 -23918262.16848 -18602067.50047
                  20367038.6024                                   20367034.8284
                                                                        49.5004
        43.7504
 -19214772.02748 -14937991.67646
                  20343557.6024                                   20343554.3444
                                                                        49.5004
        41.0004
   4340580.33646   3398371.17243
                  23786799.9384                                   23786796.8594
                                                                        40.2504
        21.2504
   7870804.02347   6147563.77344
                  23988904.0784                                   23988900.7584
                                                                        43.5004
        25.5004
 -10316775.47347  -7994996.96145
                  22611485.6804                                   22611482.6914
                                                                        47.2504
        35.7504
  -8338230.76647  -6464261.87944
                  23701617.7344                                   23701613.0474
                                                                        43.7504
        24.7504
 -15759276.35248 -12268259.23845
                  22205363.6094                                   22205359.5124
                                                                        48.0004
        33.5004
 09 10 27  1 10  0.0000000  0  9G02G21G05G10G13G15G29G16G07
   5959545.82847   4659149.39544
                  23301428.6414                                   23301424.1174
                                                                        44.2504
        27.5004
   2404712.17247   1918009.44944
                  23799775.7894                                   23799770.2584
                                                                        44.2504
        25.0004
 -24002338.02348 -18667581.10547
                  20351039.4694                                   20351035.7584
                                                                        50.5004
        43.7504
 -19271572.75848 -14982252.04346
                  20332748.8914                                   20332745.8794
                                                                        50.7504
        41.0004
   4367907.88746   3419665.34443
                  23792000.7274                                   23791997.0744
                                                                        40.5004
        21.7504
   7674656.73447   5994721.85944
                  23951578.6884                                   23951575.8794
                                                                        44.5004
        27.7504
 -10333546.56648  -8008065.33645
                  22608294.2344                                   22608290.6804
                                                                        48.2504
        35.5004
  -8378189.22347  -6495398.35944
                  23694013.5394                                   23694009.3094
                                                                        43.2504
        24.5004
 -15853670.43048 -12341813.04345
                  22187400.8914                                   22187397.0164
                                                                        48.0004
        33.2504
 09 10 27  1 10 30.0000000  0  9G02G21G05G10G13G15G29G16G07
   5989627.19547   4682589.35944
                  23307153.1884                                   23307148.5434
                                                                        44.0004
        28.7504
   2224770.73447   1777795.34844
                  23765533.6724                                   23765529.2734
                                                                        44.0004
        26.7504
 -24085828.54748 -18732638.64547
                  20335151.4774                                   20335148.0784
                                                                        51.5004
        43.7504
 -19327783.12948 -15026052.34046
                  20322052.9144                                   20322049.0204
                                                                        51.5004
        41.2504
   4395491.83246   3441159.36343
                  23797249.9534                                   23797246.3164
                                                                        41.5004
        19.0004
   7478702.09847   5842030.04744
                  23914289.6564                                   23914287.4414
                                                                        44.2504
        29.2504
 -10349802.50847  -8020732.32445
                  22605201.0004                                   22605197.5904
                                                                        47.7504
        35.0004
  -8417555.98847  -6526073.77744
                  23686522.0234                                   23686518.2504
                                                                        43.5004
        25.5004
 -15947394.97348 -12414845.12545
                  22169565.7974                                   22169561.7034
                                                                        48.0004
        33.7504
 09 10 27  1 11  0.0000000  0  9G02G21G05G10G13G15G29G16G07
   6019955.72747   4706221.93845
                  23312925.0164                                   23312919.6454
                                                                        44.5004
        30.5004
   2045081.97747   1637778.21944
                  23731339.2114                                   23731335.5664
                                                                        44.0004
        27.0004
 -24168734.70348 -18797240.82047
                  20319375.3364                                   20319371.6334
                                                                        50.5004
        43.5004
 -19383405.40648 -15069394.40646
                  20311468.2974                                   20311465.0744
                                                                        50.7504
        40.7504
   4423328.86746   3462850.62943
                  23802547.1174                                   23802542.6414
                                                                        40.0004
        19.5004
   7282941.96147   5689489.77045
                  23877037.8984                                   23877035.0904
                                                                        45.5004
        31.0004
 -10365545.79347  -8032999.83245
                  22602204.9534                                   22602201.6414
                                                                        47.0004
        35.2504
  -8456333.20347  -6556289.79744
                  23679142.9924                                   23679139.1134
                                                                        43.7504
        24.2504
 -16040451.14848 -12487356.42645
                  22151857.8914                                   22151853.0204
                                                                        48.0004
        33.5004
 09 10 27  1 11 30.0000000  0  9G02G21G05G10G13G15G29G16G07
   7625950.39147   5957646.36344
                  23618535.0864                                   23618529.7034
                                                                        44.7504
        28.0004
   3441075.85947   2725565.67244
                  23996988.9384                                   23996984.6134
                                                                        43.7504
        27.0004
 -22675631.80948 -17633784.02047
                  20603503.2814                                   20603499.7664
                                                                        50.2504
        43.5004
 -17863015.85548 -13884675.25046
                  20600788.8134                                   20600785.0204
                                                                        50.7504
        41.0004
   6026837.50046   4712337.85543
                  24107684.7274                                   24107680.6254
                                                                        39.0004
        18.2504
   8662807.18447   6764709.44945
                  24139617.7894                                   24139614.5824
                                                                        46.5004
        32.5004
  -8805356.37147  -6817267.81246
                  22899098.9924                                   22899095.7854
                                                                        47.7504
        36.0004
  -6919099.32047  -5358445.23844
                  23971669.0234                                   23971665.3674
                                                                        44.0004
        25.2504
 -14557412.83247 -11331742.16445
                  22434070.4144                                   22434066.7424
                                                                        47.5004
        33.0004
 09 10 27  1 12  0.0000000  0  9G02G21G05G10G13G15G29G16G07
   7656771.06647   5981662.45344
                  23624400.0314                                   23624395.2544
                                                                        44.0004
        27.0004
   3261903.11347   2585950.55144
                  23962893.4924                                   23962888.9144
                                                                        44.5004
        27.5004
 -22757364.70348 -17697471.99647
                  20587949.9384                                   20587946.4264
                                                                        50.0004
        43.5004
 -17917458.25048 -13927097.84446
                  20590428.3444                                   20590424.9884
                                                                        50.5004
        41.2504
   6055177.74246   4734421.12142
                  24113077.1094                                   24113074.0744
                                                                        38.0004
        17.7504
   8467447.57047   6612481.21145
                  24102441.6884                                   24102438.6994
                                                                        44.2504
        31.5004
  -8820076.87548  -6828738.34046
                  22896298.0394                                   22896295.1054
                                                                        48.0004
        36.0004
  -6956698.49247  -5387743.29744
                  23964514.5474                                   23964510.3634
                                                                        44.0004
        24.2504
 -14649125.64147 -11403206.70745
                  22416618.1804                                   22416614.0124
                                                                        47.5004
        33.2504
 09 10 27  1 12 30.0000000  0  9G02G21G05G10G13G15G29G16G07
   7687831.17247   6005864.90244
                  23630311.0634                                   23630305.8874
                                                                        43.7504
        26.7504
   3082989.23047   2446537.15644
                  23928847.0944                                   23928842.8014
                                                                        44.5004
        27.0004
 -22838513.39148 -17760704.74247
                  20572508.1414                                   20572504.5044
                                                                        48.2504
        44.0004
 -17971315.48448 -13969064.52346
                  20580179.9144                                   20580176.2504
                                                                        48.5004
        41.0004
   6083762.91446   4756695.21943
                  24118516.9384                                   24118513.3524
                                                                        39.7504
        18.5004
   8272288.79746   6460409.52044
                  24065303.9774                                   24065300.5514
                                                                        41.0004
        28.0004
  -8834291.93747  -6839815.02346
                  22893592.8674                                   22893590.0864
                                                                        47.7504
        36.0004
  -6993713.75447  -5416586.36743
                  23957470.5634                                   23957466.0514
                                                                        44.0004
        22.7504
 -14740168.53547 -11474149.24245
                  22399293.0704                                   22399289.2854
                                                                        46.5004
        33.2504
 09 10 27  1 13  0.0000000  0  9G02G21G05G10G13G15G29G16G07
   7719125.49247   6030250.00444
                  23636265.8914                                   23636261.3954
                                                                        43.2504
        27.2504
   2904333.60947   2307324.99644
                  23894850.3134                                   23894845.6334
                                                                        45.0004
        27.0004
 -22919081.39148 -17823485.02047
                  20557176.3984                                   20557172.9064
                                                                        50.0004
        43.7504
 -18024591.58248 -14010578.35546
                  20570041.8984                                   20570038.4024
                                                                        50.5004
        41.2504
   6112586.94146   4779155.48843
                  24124002.3594                                   24123998.5124
                                                                        40.0004
        21.0004
   8077329.64546   6308493.33644
                  24028203.6094                                   24028201.3404
                                                                        40.7504
        26.0004
  -8848007.15347  -6850502.21346
                  22890983.2664                                   22890979.9734
                                                                        47.7504
        36.2504
  -7030149.86747  -5444978.14843
                  23950536.4224                                   23950532.7344
                                                                        43.7504
        22.7504
 -14830544.71547 -11544572.23445
                  22382095.5084                                   22382090.8754
                                                                        47.5004
        33.0004
 09 10 27  1 13 30.0000000  0  9G02G21G05G10G13G15G29G16G07
   7750651.33647   6054815.39544
                  23642265.3754                                   23642260.9304
                                                                        44.0004
        29.2504
   2725937.45747   2168315.02044
                  23860902.4534                                   23860898.1294
                                                                        44.0004
        28.5004
 -22999068.62148 -17885812.73847
                  20541955.3284                                   20541951.7114
                                                                        48.7504
        43.5004
 -18077287.38748 -14051640.02746
                  20560014.1334                                   20560010.5634
                                                                        49.0004
        41.2504
   6141647.68846   4801800.18443
                  24129532.3054                                   24129528.5984
                                                                        41.0004
        22.0004
   7882572.11747   6156734.12144
                  23991143.7274                                   23991139.4614
                                                                        42.7504
        28.5004
  -8861225.17247  -6860801.98046
                  22888467.5394                                   22888464.8204
                                                                        47.0004
        36.0004
  -7066009.05947  -5472920.37543
                  23943713.0864                                   23943708.7074
                                                                        44.5004
        22.5004
 -14920253.65647 -11614475.27745
                  22365024.2114                                   22365019.9924
                                                                        47.7504
        33.5004
 09 10 27  1 14  0.0000000  0  9G02G21G05G10G13G15G29G16G07
   7782401.11347   6079555.39144
                  23648307.5314                                   23648302.8014
                                                                        45.0004
        29.5004
   2547799.07847   2029505.94544
                  23827003.4694                                   23826999.1564
                                                                        45.5004
        28.0004
 -23078480.54348 -17947692.18047
                  20526843.6094                                   20526840.2274
                                                                        50.7504
        43.2504
 -18129408.92248 -14092254.22346
                  20550095.3674                                   20550092.2234
                                                                        51.2504
        40.5004
   6170936.56646   4824622.65643
                  24135105.8754                                   24135102.2814
                                                                        41.2504
        22.0004
   7688013.36747   6005129.47745
                  23954121.0084                                   23954117.6094
                                                                        44.0004
        31.0004
  -8873952.78147  -6870719.59845
                  22886045.6884                                   22886042.9534
                                                                        46.7504
        35.5004
  -7101297.73847  -5500418.03544
                  23936998.6334                                   23936993.6334
                                                                        45.0004
        25.0004
 -15009300.35247 -11683862.27045
                  22348079.0474                                   22348074.6174
                                                                        47.7504
        33.2504
 09 10 27  1 14 30.0000000  0  9G02G21G05G10G13G15G29G16G07
   7814370.04347   6104466.19544
                  23654391.0704                                   23654386.1484
                                                                        45.0004
        29.5004
   2369916.98847   1890896.55944
                  23793153.8984                                   23793149.3914
                                                                        45.0004
        28.5004
 -23157319.92648 -18009125.45747
                  20511841.1094                                   20511837.3634
                                                                        50.0004
        43.5004
 -18180960.05948 -14132423.95346
                  20540285.8754                                   20540282.7424
                                                                        51.5004
        40.5004
   6200449.19546   4847619.50043
                  24140722.3754                                   24140717.6804
                                                                        40.7504
        19.0004
   7493653.93847   5853680.68445
                  23917135.0314                                   23917132.5554
                                                                        44.2504
        31.2504
  -8886195.89847  -6880259.68445
                  22883715.9614                                   22883712.8324
                                                                        47.0004
        35.2504
  -7136021.03147  -5527475.14144
                  23930390.7424                                   23930385.8164
                                                                        45.0004
        25.2504
 -15097687.23048 -11752735.10945
                  22331259.6954                                   22331255.2234
                                                                        48.0004
        33.0004
 09 10 27  1 15  0.0000000  0  9G02G21G05G10G13G15G29G16G07
   7846556.57447   6129546.73044
                  23660515.6884                                   23660510.7504
                                                                        42.5004
        27.2504
   2192293.16047   1752488.37544
                  23759353.4614                                   23759348.7384
                                                                        46.0004
        28.2504
 -23235586.27048 -18070112.21947
                  20496947.4694                                   20496944.1994
                                                                        50.5004
        43.5004
 -18231941.13348 -14172149.46946
                  20530584.5234                                   20530581.4184
                                                                        51.7504
        40.5004
   6230182.83646   4870788.57042
                  24146379.8134                                   24146376.8594
                                                                        37.5004
        16.7504
   7299496.06347   5702389.16445
                  23880187.9224                                   23880185.2704
                                                                        43.7504
        31.5004
  -8897956.64547  -6889423.89545
                  22881477.7424                                   22881474.7854
                                                                        46.5004
        35.0004
  -7170181.32047  -5554093.53944
                  23923890.0084                                   23923884.9104
                                                                        45.0004
        25.0004
 -15185413.48848 -11821093.20745
                  22314566.3204                                   22314561.8284
                                                                        48.0004
        33.0004
 09 10 27  1 15 30.0000000  0  9G02G21G05G10G13G15G29G16G07
   7878958.42247   6154794.85244
                  23666680.2194                                   23666676.8364
                                                                        42.2504
        24.5004
   2014934.54747   1614286.84044
                  23725603.3054                                   23725598.2234
                                                                        46.2504
        27.7504
 -23313277.73848 -18130651.06247
                  20482163.3134                                   20482159.8874
                                                                        50.0004
        43.5004
 -18282351.14148 -14211430.00846
                  20520991.5474                                   20520988.2154
                                                                        49.7504
        41.0004
   6260137.19546   4894129.57842
                  24152079.7664                                   24152077.1994
                                                                        37.5004
        16.2504
   7105543.46947   5551257.42645
                  23843279.9224                                   23843276.8674
                                                                        43.5004
        30.2504
  -8909233.93047  -6898211.39545
                  22879332.2424                                   22879329.1884
                                                                        46.0004
        34.2504
  -7203776.05147  -5580271.22344
                  23917497.1884                                   23917492.5594
                                                                        44.7504
        25.2504
 -15272477.29347 -11888935.12545
                  22297998.3054                                   22297993.9574
                                                                        47.5004
        33.5004
 09 10 27  1 16  0.0000000  0  9G02G21G05G10G13G15G29G16G07
   7911573.47347   6180209.22343
                  23672887.5394                                   23672882.3634
                                                                        42.7504
        22.7504
   1837839.55547   1476290.75844
                  23691902.6414                                   23691897.9104
                                                                        45.0004
        26.5004
 -23390395.75848 -18190743.03947
                  20467488.2814                                   20467484.5634
                                                                        50.0004
        43.2504
 -18332192.55148 -14250267.46946
                  20511507.2194                                   20511503.9264
                                                                        50.5004
        40.7504
   6290308.55546   4917639.63743
                  24157821.4454                                   24157818.7114
                                                                        39.5004
        18.2504
   6911796.91847   5400286.13344
                  23806410.8754                                   23806407.5704
                                                                        42.2504
        28.2504
  -8920033.05147  -6906626.28945
                  22877276.9694                                   22877273.8364
                                                                        47.7504
        35.0004
  -7236810.05547  -5606012.01644
                  23911210.9064                                   23911206.1764
                                                                        44.0004
        25.0004
 -15358879.16847 -11956261.24245
                  22281555.9774                                   22281551.9304
                                                                        47.5004
        34.0004
 09 10 27  1 16 30.0000000  0  9G02G21G05G10G13G15G29G16G07
   7944394.60547   6205784.37144
                  23679133.3754                                   23679128.5514
                                                                        43.0004
        26.7504
   1661008.04747   1338499.95344
                  23658253.4304                                   23658248.7584
                                                                        44.5004
        26.2504
 -23466944.64848 -18250391.55547
                  20452921.4534                                   20452918.0984
                                                                        50.5004
        43.5004
 -18381470.18748 -14288665.60946
                  20502129.9844                                   20502126.8874
                                                                        50.7504
        40.5004
   6320690.54746   4941313.90643
                  24163603.0944                                   24163599.3794
                                                                        40.0004
        19.0004
   6718255.05947   5249474.40644
                  23769580.7194                                   23769577.4494
                                                                        42.7504
        29.0004
  -8930359.31647  -6914672.71145
                  22875311.8914                                   22875308.6684
                                                                        46.5004
        34.7504
  -7269288.10947  -5631319.58644
                  23905030.9384                                   23905026.2384
                                                                        43.5004
        24.0004
 -15444623.55547 -12023075.07845
                  22265239.7114                                   22265235.6684
                                                                        47.7504
        33.5004
 09 10 27  1 17  0.0000000  0  9G02G21G05G10G13G15G29G16G07
   7977424.12147   6231521.77744
                  23685419.0474                                   23685414.2034
                                                                        44.7504
        29.0004
   1484444.64847   1200918.11344
                  23624653.6254                                   23624649.3284
                                                                        44.5004
        27.0004
 -23542920.13748 -18309593.26247
                  20438463.9224                                   20438460.2304
                                                                        49.0004
        43.2504
 -18430181.01648 -14326622.09046
                  20492860.6564                                   20492857.4924
                                                                        50.0004
        41.0004
   6351284.23046   4965153.16443
                  24169425.1484                                   24169421.4964
                                                                        40.7504
        20.0004
   6524924.72747   5098827.72345
                  23732791.4454                                   23732787.7624
                                                                        44.5004
        30.0004
  -8940211.91847  -6922350.05945
                  22873437.4694                                   22873433.7624
                                                                        47.7504
        35.2504
  -7301209.59847  -5656193.46944
                  23898955.7424                                   23898951.7584
                                                                        43.5004
        25.5004
 -15529705.63347 -12089372.78945
                  22249049.0474                                   22249044.7304
                                                                        47.5004
        33.0004
 09 10 27  1 17 30.0000000  0  9G02G21G05G10G13G15G29G16G07
   8010656.08647   6257416.84044
                  23691742.3914                                   23691737.6374
                                                                        44.2504
        29.2504
   1308150.43847   1063546.00044
                  23591106.2814                                   23591101.5354
                                                                        45.5004
        28.0004
 -23618325.67248 -18368350.84447
                  20424114.6334                                   20424110.7814
                                                                        51.0004
        43.0004
 -18478329.40648 -14364140.32046
                  20483698.1644                                   20483694.7974
                                                                        52.0004
        40.2504
   6382084.33646   4989153.21943
                  24175286.2194                                   24175282.5904
                                                                        40.5004
        19.2504
   6331804.36347   4948344.45745
                  23696041.4844                                   23696038.2854
                                                                        45.0004
        31.0004
  -8949595.34847  -6929661.78945
                  22871651.7814                                   22871648.8324
                                                                        46.5004
        35.5004
  -7332577.73847  -5680636.20744
                  23892986.9534                                   23892982.5394
                                                                        43.2504
        25.0004
 -15614128.45347 -12155156.81245
                  22232984.0864                                   22232979.8594
                                                                        47.5004
        33.2504
 09 10 27  1 18  0.0000000  0  8G02G21G05G10G15G29G16G07
   8044089.28547   6283468.68444
                  23698104.1024                                   23698099.9224
                                                                        43.2504
        28.0004
   1132127.72747    926385.45744
                  23557610.5394                                   23557605.8324
                                                                        46.0004
        29.0004
 -23693160.39848 -18426663.60547
                  20409874.1804                                   20409870.3054
                                                                        49.5004
        43.7504
 -18525914.85248 -14401219.87546
                  20474642.9224                                   20474639.8444
                                                                        50.7504
        40.2504
   6138897.11747   4798027.08645
                  23659332.1724                                   23659329.7894
                                                                        43.0004
        30.7504
  -8958511.43747  -6936609.40245
                  22869955.0554                                   22869951.6134
                                                                        46.2504
        34.2504
  -7363394.71147  -5704649.44143
                  23887122.6414                                   23887118.9534
                                                                        43.0004
        23.5004
 -15697890.84447 -12220426.19945
                  22217044.7664                                   22217040.5204
                                                                        47.5004
        33.5004
 09 10 27  1 18 30.0000000  0  8G02G21G05G10G15G29G16G07
   8077722.59446   6309676.38344
                  23704504.3524                                   23704500.6214
                                                                        41.2504
        26.2504
    956380.62947    789439.68844
                  23524167.0084                                   23524162.4104
                                                                        46.5004
        29.5004
 -23767422.49648 -18484530.16447
                  20395742.2114                                   20395738.9694
                                                                        50.5004
        43.0004
 -18572937.08648 -14437860.56246
                  20465694.8674                                   20465691.6724
                                                                        50.5004
        40.7504
   5946207.10547   4647878.93445
                  23622664.5634                                   23622661.5084
                                                                        44.0004
        30.5004
  -8966960.74647  -6943193.26645
                  22868347.0314                                   22868343.5204
                                                                        46.7504
        34.5004
  -7393659.78547  -5728232.62944
                  23881363.2814                                   23881359.2464
                                                                        43.0004
        26.2504
 -15780990.98048 -12285179.54745
                  22201231.4304                                   22201226.8674
                                                                        48.5004
        32.7504
 09 10 27  1 19  0.0000000  0  8G02G21G05G10G15G29G16G07
   8111556.64846   6336040.43044
                  23710943.6334                                   23710938.8754
                                                                        41.2504
        25.2504
    780913.89147    652712.33644
                  23490776.7274                                   23490772.3754
                                                                        46.5004
        29.7504
 -23841109.71148 -18541948.75047
                  20381720.3524                                   20381716.4144
                                                                        50.0004
        43.2504
 -18619394.61748 -14474061.19946
                  20456854.4454                                   20456851.3244
                                                                        49.7504
        40.2504
   5753739.70747   4497904.42645
                  23586040.0784                                   23586036.2464
                                                                        45.0004
        31.5004
  -8974943.51647  -6949413.61345
                  22866828.1094                                   22866824.6134
                                                                        47.0004
        35.5004
  -7423372.86347  -5751385.70344
                  23875708.9844                                   23875704.8364
                                                                        43.0004
        24.0004
 -15863426.22747 -12349414.80945
                  22185544.0084                                   22185539.7384
                                                                        47.7504
        33.2504
 09 10 27  1 19 30.0000000  0  8G02G21G05G10G15G29G16G07
   8145590.45347   6362560.18044
                  23717419.7734                                   23717414.5004
                                                                        44.0004
        25.7504
    605732.93847    516207.69944
                  23457441.1644                                   23457436.4614
                                                                        45.2504
        28.5004
 -23914220.19948 -18598917.95747
                  20367807.6804                                   20367803.8244
                                                                        50.0004
        43.0004
 -18665286.45348 -14509821.03946
                  20448121.5234                                   20448118.0164
                                                                        50.0004
        40.5004
   5561498.97347   4348106.46545
                  23549457.6804                                   23549453.9024
                                                                        45.2504
        31.5004
  -8982459.24247  -6955270.03145
                  22865397.5864                                   22865394.8284
                                                                        45.7504
        35.2504
  -7452533.22347  -5774108.05944
                  23870160.6174                                   23870155.5204
                                                                        43.2504
        24.0004
 -15945194.73448 -12413130.53545
                  22169984.2504                                   22169980.0084
                                                                        48.0004
        33.2504
 09 10 27  1 20  0.0000000  0  8G02G21G05G10G15G29G16G07
   8179822.57447   6389234.50044
                  23723934.0784                                   23723928.2544
                                                                        46.0004
        26.0004
    430838.78947    379926.55144
                  23424159.4384                                   23424155.0514
                                                                        45.0004
        27.7504
 -23986754.14548 -18655437.89147
                  20354005.1024                                   20354001.4384
                                                                        51.0004
        43.2504
 -18710613.10548 -14545140.50046
                  20439496.0864                                   20439492.5164
                                                                        50.5004
        41.0004
   5369486.94547   4198486.71145
                  23512918.5314                                   23512915.1334
                                                                        44.0004
        30.2504
  -8989511.32847  -6960765.17245
                  22864055.4224                                   22864052.8164
                                                                        46.2504
        35.0004
  -7481143.73447  -5796401.97343
                  23864715.5704                                   23864711.2774
                                                                        42.5004
        22.5004
 -16026295.87548 -12476326.21945
                  22154551.3444                                   22154547.0904
                                                                        48.2504
        33.5004
 09 10 27  1 20 30.0000000  0  8G02G21G05G10G15G29G16G07
   8214246.78547   6416058.58244
                  23730484.5784                                   23730479.4804
                                                                        44.2504
        25.7504
    256230.29747    243868.02044
                  23390932.3674                                   23390928.2584
                                                                        45.7504
        28.5004
 -24058715.84048 -18711511.93447
                  20340311.3674                                   20340307.6684
                                                                        51.0004
        43.2504
 -18755380.35548 -14580024.06646
                  20430977.5084                                   20430973.8674
                                                                        51.0004
        40.2504
   5177702.12147   4049043.93445
                  23476423.0944                                   23476419.6294
                                                                        44.5004
        30.7504
  -8996105.93047  -6965903.84445
                  22862800.4304                                   22862797.9844
                                                                        46.2504
        35.0004
  -7509209.71547  -5818271.58643
                  23859374.8204                                   23859370.4924
                                                                        44.0004
        22.7504
 -16106733.72748 -12539005.06645
                  22139244.9304                                   22139240.3054
                                                                        48.0004
        33.5004
 09 10 27  1 21  0.0000000  0  8G02G21G05G10G15G29G16G07
   9824275.66447   7670626.63744
                  24036862.8984                                   24036858.0514
                                                                        42.5004
        27.5004
   1657332.35947   1335635.90244
                  23657553.2194                                   23657548.9654
                                                                        46.0004
        28.5004
 -22554686.46948 -17539540.98447
                  20626518.2584                                   20626514.8984
                                                                        49.0004
        43.0004
 -17224170.93448 -13386873.86346
                  20722356.5704                                   20722353.3674
                                                                        49.0004
        40.7504
   6561569.94147   5127382.48445
                  23739764.6334                                   23739761.1454
                                                                        43.5004
        31.2504
  -7426828.02347  -5743089.90645
                  23161424.1644                                   23161421.4144
                                                                        45.7504
        34.0004
  -5961315.82847  -4612120.50043
                  24153929.3594                                   24153924.6564
                                                                        43.0004
        22.7504
 -14611089.97347 -11373568.37145
                  22423856.2034                                   22423851.5314
                                                                        47.2504
        33.2504
 09 10 27  1 21 30.0000000  0  8G02G21G05G10G15G29G16G07
   9859067.13347   7697736.93044
                  24043483.4224                                   24043478.8444
                                                                        42.2504
        26.2504
   1483293.91047   1200021.53944
                  23624435.0234                                   23624429.9694
                                                                        46.2504
        28.5004
 -22625513.14548 -17594730.59847
                  20613040.4384                                   20613036.6844
                                                                        51.5004
        43.2504
 -17267830.81648 -13420894.54746
                  20714048.2274                                   20714045.0164
                                                                        51.5004
        40.7504
   6370237.98447   4978292.75845
                  23703355.2424                                   23703352.1684
                                                                        46.5004
        32.0004
  -7432523.10547  -5747527.62145
                  23160340.6564                                   23160338.0944
                                                                        46.5004
        34.0004
  -5988307.42247  -4633152.91843
                  24148793.0784                                   24148788.1334
                                                                        42.5004
        23.0004
 -14690210.82447 -11435220.98845
                  22408799.7344                                   22408795.1804
                                                                        47.7504
        34.0004
 09 10 27  1 22  0.0000000  0  8G02G21G05G10G15G29G16G07
   9894038.97346   7724987.72744
                  24050137.8204                                   24050133.4144
                                                                        41.7504
        25.2504
   1309543.32047   1064631.50044
                  23591371.5314                                   23591366.2194
                                                                        46.5004
        29.0004
 -22695772.62548 -17649478.25847
                  20599670.6254                                   20599666.9264
                                                                        50.5004
        42.7504
 -17310938.58248 -13454485.02346
                  20705845.2274                                   20705841.6094
                                                                        50.2504
        41.0004
   6179135.71147   4829381.98445
                  23666989.5554                                   23666986.3244
                                                                        44.5004
        32.2504
  -7437772.55547  -5751618.09045
                  23159342.2584                                   23159338.6764
                                                                        46.2504
        34.2504
  -6014765.49247  -4653769.58644
                  24143758.0314                                   24143753.2194
                                                                        42.5004
        25.0004
 -14768673.02047 -11496360.33645
                  22393869.1884                                   22393864.4494
                                                                        47.7504
        33.0004
 09 10 27  1 22 30.0000000  0  8G02G21G05G10G15G29G16G07
   9929188.33647   7752376.83644
                  24056827.5634                                   24056822.1054
                                                                        43.2504
        27.2504
   1136083.14147    929467.72744
                  23558363.0474                                   23558357.6294
                                                                        47.0004
        29.2504
 -22765465.01648 -17703784.02347
                  20586408.5944                                   20586405.1644
                                                                        51.5004
        43.2504
 -17353496.03948 -13487646.70746
                  20697746.8754                                   20697743.4694
                                                                        50.2504
        40.7504
   5988264.77347   4680651.38345
                  23630668.2274                                   23630664.4774
                                                                        43.2504
        31.0004
  -7442578.58247  -5755363.02345
                  23158427.5634                                   23158423.7664
                                                                        47.2504
        34.0004
  -6040691.63347  -4673971.78143
                  24138824.2424                                   24138820.5164
                                                                        42.2504
        22.0004
 -14846476.61348 -11556986.50845
                  22379063.5164                                   22379058.7074
                                                                        48.7504
        33.5004
 09 10 27  1 23  0.0000000  0  8G02G21G05G10G15G29G16G07
   9964511.24247   7779901.16844
                  24063549.2974                                   24063544.3484
                                                                        44.5004
        28.0004
    962914.57047    794531.18444
                  23525410.2664                                   23525405.4264
                                                                        46.0004
        29.5004
 -22834592.46548 -17757649.57847
                  20573254.1644                                   20573250.0354
                                                                        50.0004
        43.2504
 -17395505.70348 -13520381.52746
                  20689752.7814                                   20689749.0234
                                                                        50.0004
        40.7504
   5797626.89547   4532102.50445
                  23594390.6954                                   23594387.2854
                                                                        45.2504
        31.0004
  -7446945.19947  -5758765.57845
                  23157596.1334                                   23157593.0004
                                                                        47.0004
        34.2504
  -6066088.85247  -4693761.83643
                  24133991.5864                                   24133987.1334
                                                                        42.2504
        22.5004
 -14923623.63348 -11617101.06645
                  22364382.7034                                   22364378.4924
                                                                        49.0004
        34.5004
 09 10 27  1 23 30.0000000  0  8G02G21G05G10G15G29G16G07
  10000007.94147   7807560.92644
                  24070303.5704                                   24070299.2034
                                                                        43.5004
        26.0004
    790040.68047    659824.25444
                  23492513.1564                                   23492509.0004
                                                                        47.0004
        29.5004
 -22903153.40248 -17811073.69147
                  20560207.6414                                   20560203.6454
                                                                        50.2504
        43.0004
 -17436966.04748 -13552688.26646
                  20681862.9694                                   20681859.9844
                                                                        49.7504
        40.2504
   5607225.83247   4383738.12145
                  23558158.6954                                   23558155.0944
                                                                        43.7504
        30.7504
  -7450873.32847  -5761826.46145
                  23156848.7734                                   23156845.2424
                                                                        47.5004
        33.5004
  -6090958.74247  -4713140.99643
                  24129259.1564                                   24129254.5274
                                                                        42.2504
        22.5004
 -15000111.62548 -11676702.09845
                  22349827.7114                                   22349823.5744
                                                                        48.0004
        33.0004
 09 10 27  1 24  0.0000000  0  8G02G21G05G10G15G29G16G07
  10035673.68447   7835352.41443
                  24077090.0004                                   24077085.3834
                                                                        42.0004
        23.7504
    617463.77047    525348.75444
                  23459672.6954                                   23459668.4844
                                                                        46.2504
        29.2504
 -22971149.73448 -17864057.84847
                  20547267.8594                                   20547264.4924
                                                                        51.0004
        43.5004
 -17477880.74648 -13584569.85246
                  20674077.1954                                   20674073.9884
                                                                        51.0004
        40.5004
   5417062.03147   4235558.62945
                  23521970.9534                                   23521968.2814
                                                                        45.0004
        32.2504
  -7454366.50047  -5764548.41845
                  23156183.9304                                   23156180.7464
                                                                        45.5004
        33.2504
  -6115303.80947  -4732111.19143
                  24124625.8754                                   24124622.0164
                                                                        42.2504
        22.7504
 -15075942.77047 -11735791.30545
                  22335397.2664                                   22335393.2734
                                                                        47.5004
        33.7504
 09 10 27  1 24 30.0000000  0  8G02G21G05G10G15G29G16G07
  10071504.43047   7863272.50044
                  24083909.2344                                   24083903.4534
                                                                        43.0004
        24.7504
    445182.99247    391103.99244
                  23426888.6094                                   23426884.1644
                                                                        46.2504
        29.7504
 -23038583.85248 -17916603.91047
                  20534435.7584                                   20534432.0824
                                                                        50.2504
        43.0004
 -17518252.85248 -13616028.62146
                  20666394.5474                                   20666391.1484
                                                                        51.5004
        39.7504
   5227135.79347   4087564.24645
                  23485830.0394                                   23485826.7974
                                                                        44.5004
        32.7504
  -7457430.10547  -5766935.67245
                  23155600.9224                                   23155598.0784
                                                                        46.2504
        33.5004
  -6139128.88746  -4750676.19143
                  24120092.4224                                   24120087.6914
                                                                        41.5004
        21.5004
 -15151119.16048 -11794370.31645
                  22321091.6174                                   22321087.6804
                                                                        48.5004
        33.7504
 09 10 27  1 25  0.0000000  0  8G02G21G05G10G15G29G16G07
  10107498.71947   7891319.97344
                  24090758.1564                                   24090753.7274
                                                                        42.5004
        27.0004
    273202.45347    257093.15644
                  23394161.8984                                   23394157.3954
                                                                        46.2504
        28.2504
 -23105455.00048 -17968711.29747
                  20521710.8594                                   20521706.8594
                                                                        50.2504
        43.0004
 -17558082.09848 -13647064.39546
                  20658815.5704                                   20658811.9024
                                                                        50.5004
        40.5004
   5037450.71547   3939757.74645
                  23449734.4304                                   23449730.2584
                                                                        45.5004
        32.5004
  -7460064.91847  -5768988.79745
                  23155099.5704                                   23155096.7584
                                                                        46.0004
        33.7504
  -6162434.42647  -4768836.35543
                  24115657.9694                                   24115653.1054
                                                                        42.0004
        22.5004
 -15225640.31248 -11852438.76245
                  22306910.4454                                   22306906.6684
                                                                        48.0004
        33.7504
 09 10 27  1 25 30.0000000  0  7G21G05G10G15G29G16G07
    101528.10247    123320.91844
                  23361493.8364                                   23361488.4804
                                                                        46.0004
        29.0004
 -23171758.70748 -18020376.51247
                  20509093.7734                                   20509089.9844
                                                                        49.0004
        43.0004
 -17597364.93448 -13677674.39846
                  20651340.1644                                   20651336.6684
                                                                        49.5004
        40.2504
   4848013.27047   3792144.18845
                  23413684.6954                                   23413681.2974
                                                                        45.2504
        31.7504
  -7462269.38747  -5770706.59445
                  23154680.6484                                   23154677.3954
                                                                        46.2504
        34.7504
  -6185218.55547  -4786590.23443
                  24111321.3914                                   24111318.3094
                                                                        42.2504
        22.7504
 -15299501.46547 -11909992.90645
                  22292855.7664                                   22292851.5824
                                                                        47.5004
        32.5004
 09 10 27  1 26  0.0000000  0  7G21G05G10G15G29G16G07
    -69837.68447    -10210.87145
                  23328883.8364                                   23328879.0634
                                                                        47.5004
        30.5004
 -23237496.94148 -18071601.12147
                  20496583.7894                                   20496580.1994
                                                                        51.2504
        42.7504
 -17636104.20348 -13707860.82446
                  20643968.3524                                   20643964.8134
                                                                        50.5004
        40.2504
   4658824.79747   3644724.55145
                  23377683.7194                                   23377679.7464
                                                                        45.2504
        32.0004
  -7464046.62947  -5772091.45345
                  23154342.6334                                   23154339.0554
                                                                        47.2504
        35.0004
  -6207483.53547  -4803939.59043
                  24107085.2114                                   24107080.9774
                                                                        43.2504
        23.5004
 -15372703.98448 -11967033.82845
                  22278925.6724                                   22278921.3484
                                                                        48.0004
        33.2504
 09 10 27  1 26 30.0000000  0  7G21G05G10G15G29G16G07
   -240890.39147   -143498.68744
                  23296334.0944                                   23296328.8914
                                                                        47.2504
        29.5004
 -23302666.68448 -18122382.75847
                  20484182.6884                                   20484179.0084
                                                                        50.0004
        43.5004
 -17674298.18048 -13737622.35946
                  20636700.0394                                   20636696.8244
                                                                        50.5004
        40.7504
   4469890.98047   3497503.42645
                  23341731.0314                                   23341726.9264
                                                                        47.0004
        32.7504
  -7465396.18447  -5773143.04345
                  23154085.3444                                   23154081.6174
                                                                        46.0004
        34.0004
  -6229229.57047  -4820884.57443
                  24102946.7734                                   24102942.9144
                                                                        42.0004
        23.2504
 -15445245.42647 -12023559.66045
                  22265121.5554                                   22265116.9384
                                                                        47.7504
        33.5004
 09 10 27  1 27  0.0000000  0  7G21G05G10G15G29G16G07
   -411624.81647   -276538.49645
                  23263843.8444                                   23263839.3484
                                                                        47.7504
        30.2504
 -23367265.85948 -18172719.80147
                  20471890.0784                                   20471885.9734
                                                                        48.2504
        43.5004
 -17711945.43448 -13766957.86346
                  20629536.4614                                   20629532.7734
                                                                        48.5004
        40.5004
   4281216.27347   3350484.14145
                  23305826.8524                                   23305823.8634
                                                                        44.2504
        32.2504
  -7466318.34847  -5773861.60545
                  23153910.2034                                   23153906.6374
                                                                        46.0004
        32.5004
  -6250456.05947  -4837424.72344
                  24098907.7894                                   24098904.0634
                                                                        43.2504
        26.7504
 -15517123.15247 -12079568.29345
                  22251443.8364                                   22251439.0554
                                                                        47.0004
        33.2504
