     2.11           OBSERVATION DATA    G (GPS)             RINEX VERSION / TYPE
teqc  2019Feb25                         20221121 12:28:53UTCPGM / RUN BY / DATE
OSX ker:10.11.6|Core i5|gcc 4.3 -m64|OSX ker:10.10+|=+      COMMENT
BIT 2 OF LLI FLAGS DATA COLLECTED UNDER A/S CONDITION       COMMENT
04713031                                                    MARKER NAME
3031                                                        MARKER NUMBER
-Unknown-           -Unknown-                               OBSERVER / AGENCY
0220400471          TRIMBLE R7          2.30                REC # / TYPE / VERS
-Unknown-           TRM39105.00     NONE                    ANT # / TYPE
  1449459.0550 -1709243.7763  5952443.4257                  APPROX POSITION XYZ
        0.0000        0.0000        0.0000                  ANTENNA: DELTA H/E/N
     1     1                                                WAVELENGTH FACT L1/2
    20    L1    L2    L5    L6    L7    L8    C1    P1    C2# / TYPES OF OBSERV
          P2    C5    C6    C7    C8    S1    S2    S5    S6# / TYPES OF OBSERV
          S7    S8                                          # / TYPES OF OBSERV
    30.0000                                                 INTERVAL
    15                                                      LEAP SECONDS
Forced Modulo Decimation to 30 seconds                      COMMENT
 SNR is mapped to RINEX snr flag value [0-9]                COMMENT
  L1 & L2: min(max(int(snr_dBHz/6), 0), 9)                  COMMENT
teqc edited: Beidou # 1 - 37 excluded                       COMMENT
  2009    10    30    23    14   30.0000000     GPS         TIME OF FIRST OBS
                                                            END OF HEADER
 09 10 30 23 14 30.0000000  0  7G02G04G05G10G13G23G29
    -94307.91458    -60132.52357
                  20539382.7504                                   20539376.3984
                                                                        51.7504
        42.5004
      -806.81657      -866.93455
                  22543090.7814                                   22543087.1844
                                                                        47.7504
        33.7504
   -254819.16858   -161199.70356
                  22388123.2344                                   22388118.7274
                                                                        48.7504
        37.0004
   -236063.47758   -150981.69956
                  21529418.6884                                   21529414.6884
                                                                        50.0004
        38.7504
   -108592.64558    -71266.39156
                  21236898.1804                                   21236893.4384
                                                                        50.5004
        36.5004
    -17381.74257    -11290.61354
                  23068691.4384                                   23068684.2424
                                                                        43.5004
        26.5004
   -195231.50858   -123398.18456
                  22359081.1724                                   22359077.3054
                                                                        48.0004
        36.0004
 09 10 30 23 15  0.0000000  0  7G02G04G05G10G13G23G29
   -166654.29748   -116506.34047
                  20525615.6804                                   20525608.9694
                                                                        52.2504
        42.5004
     -3032.35247     -2601.13345
                  22542667.0784                                   22542663.4694
                                                                        47.0004
        34.0004
   -447497.66848   -311338.80146
                  22351457.6414                                   22351453.3444
                                                                        48.7504
        37.5004
   -415404.93748   -290728.30946
                  21495291.2974                                   21495287.1294
                                                                        50.0004
        38.5004
   -191607.05948   -135952.94946
                  21221101.1804                                   21221096.0084
                                                                        50.5004
        36.0004
    -31962.00047    -22651.84444
                  23065917.0704                                   23065909.6214
                                                                        43.2504
        28.0004
   -343674.61747   -239068.13346
                  22330833.2584                                   22330829.4104
                                                                        47.5004
        36.0004
 09 10 30 23 15 30.0000000  0  7G02G04G05G10G13G23G29
   -238275.92248   -172315.41447
                  20511986.6954                                   20511980.2274
                                                                        52.2504
        42.2504
     -4814.77747     -3990.06245
                  22542328.2344                                   22542324.3364
                                                                        46.5004
        33.0004
   -639714.90648   -461118.47346
                  22314879.8674                                   22314875.4184
                                                                        48.7504
        37.5004
   -594171.18048   -430026.68046
                  21461273.1484                                   21461268.5904
                                                                        49.5004
        38.5004
   -273814.69548   -200010.86746
                  21205457.4694                                   21205452.5084
                                                                        51.0004
        36.5004
    -45992.75847    -33584.90244
                  23063247.3444                                   23063239.9614
                                                                        44.0004
        27.7504
   -491428.75047   -354201.22346
                  22302716.4614                                   22302712.4774
                                                                        47.5004
        37.0004
 09 10 30 23 16  0.0000000  0  7G02G04G05G10G13G23G29
   -308908.34048   -227353.66446
                  20498545.6254                                   20498538.9144
                                                                        52.5004
        41.7504
     -5890.89148     -4828.61345
                  22542123.2584                                   22542119.3284
                                                                        48.2504
        33.7504
   -831203.26248   -610330.18446
                  22278440.6724                                   22278436.5044
                                                                        48.2504
        37.5004
   -772094.98048   -568668.59446
                  21427415.1804                                   21427411.0634
                                                                        50.2504
        38.5004
   -354951.20348   -263234.13746
                  21190017.9924                                   21190013.0394
                                                                        50.5004
        37.0004
    -59211.65247    -43885.33644
                  23060731.9384                                   23060724.7034
                                                                        43.7504
        28.2504
   -638227.14547   -468589.59046
                  22274781.8984                                   22274777.7894
                                                                        47.5004
        36.5004
 09 10 30 23 16 30.0000000  0  7G02G04G05G10G13G23G29
   -378479.17248   -281564.71147
                  20485306.7584                                   20485300.5594
                                                                        52.0004
        42.0004
     -6190.08647     -5061.76245
                  22542066.0314                                   22542062.0984
                                                                        47.5004
        33.5004
  -1021888.45748   -758916.05946
                  22242154.7274                                   22242149.9614
                                                                        48.0004
        37.2504
   -949101.25848   -706595.56646
                  21393732.1484                                   21393728.0634
                                                                        50.2504
        38.5004
   -434944.29348   -325566.42246
                  21174795.9224                                   21174791.3134
                                                                        50.7504
        36.7504
    -71548.07047    -53498.13344
                  23058384.3674                                   23058377.1334
                                                                        43.2504
        27.5004
   -783994.74248   -582174.72746
                  22247043.3834                                   22247039.3204
                                                                        48.5004
        36.5004
 09 10 30 23 17  0.0000000  0  7G02G04G05G10G13G23G29
   -446969.89148   -334934.12547
                  20472273.5474                                   20472267.0044
                                                                        52.2504
        42.0004
     -5694.94548     -4675.96945
                  22542160.7664                                   22542156.4494
                                                                        48.0004
        34.0004
  -1211749.34447   -906859.59846
                  22206025.2504                                   22206021.0394
                                                                        47.5004
        37.5004
  -1125169.09448   -843791.28546
                  21360227.5554                                   21360223.5944
                                                                        50.0004
        38.5004
   -513775.64848   -386993.46146
                  21159794.8284                                   21159790.2584
                                                                        50.7504
        36.0004
    -82985.22747    -62410.21944
                  23056207.5234                                   23056200.8204
                                                                        43.5004
        27.7504
   -928710.98848   -694940.63745
                  22219504.7274                                   22219500.5274
                                                                        48.2504
        35.5004
 09 10 30 23 17 30.0000000  0  8G02G04G05G10G13G16G23G29
   -514386.47748   -387466.53947
                  20459444.1484                                   20459437.9184
                                                                        51.5004
        42.2504
     -4413.23448     -3677.26645
                  22542404.3364                                   22542400.8594
                                                                        48.2504
        33.7504
  -1400789.12147  -1054163.30146
                  22170051.9384                                   22170047.8634
                                                                        47.5004
        37.5004
  -1300302.06248   -980258.52746
                  21326901.2034                                   21326896.9184
                                                                        51.0004
        38.5004
   -591451.53548   -447520.13346
                  21145013.3834                                   21145008.6174
                                                                        50.7504
        37.0004
   -206363.60556   -126106.66853
                  24219094.7424                                   24219088.8164
                                                                        38.0004
        19.0004
    -93531.08247    -70627.80944
                  23054200.5784                                   23054194.0354
                                                                        43.5004
        27.7504
  -1072379.69148   -806890.28545
                  22192165.2974                                   22192161.3594
                                                                        48.2504
        35.0004
 09 10 30 23 18  0.0000000  0  8G02G04G05G10G13G16G23G29
   -580745.88348   -439175.18047
                  20446816.6254                                   20446810.2384
                                                                        51.5004
        42.0004
     -2363.04347     -2079.73045
                  22542794.3984                                   22542790.6914
                                                                        47.7504
        33.5004
  -1589022.22747  -1200838.40646
                  22134232.7504                                   22134228.6844
                                                                        47.7504
        38.0004
  -1474514.38348  -1116008.39846
                  21293749.3914                                   21293745.1484
                                                                        50.5004
        38.7504
   -667989.16448   -507159.83646
                  21130448.8594                                   21130443.5704
                                                                        51.0004
        36.5004
   -371708.23446   -254946.61343
                  24187629.7814                                   24187625.0664
                                                                        38.7504
        20.0004
   -103204.60947    -78165.63344
                  23052360.1024                                   23052353.1024
                                                                        44.0004
        26.5004
  -1215015.16048   -918034.80546
                  22165022.6804                                   22165018.8794
                                                                        48.2504
        36.0004
 09 10 30 23 18 30.0000000  0  8G02G04G05G10G13G16G23G29
    929349.04348    737522.14847
                  20734178.2974                                   20734171.6954
                                                                        51.5004
        42.5004
   1575849.17647   1227695.99245
                  22843118.3524                                   22843114.2774
                                                                        46.7504
        32.5004
   -201044.54748   -119297.35246
                  22398355.9694                                   22398351.7274
                                                                        48.5004
        38.0004
    -72402.72348    -23453.85546
                  21560562.3134                                   21560557.9614
                                                                        49.7504
        38.5004
    832008.96148    661669.86746
                  21415888.9614                                   21415884.1214
                                                                        50.7504
        36.2504
   1039293.85546    844535.53943
                  24456134.7274                                   24456129.6374
                                                                        39.7504
        21.2504
   1463387.55147   1142555.54344
                  23350472.3444                                   23350465.7544
                                                                        44.0004
        28.5004
    218784.50847    199211.67646
                  22437866.1024                                   22437861.7154
                                                                        47.0004
        36.0004
 09 10 30 23 19  0.0000000  0  8G02G04G05G10G13G16G23G29
    865033.46948    687406.10546
                  20721939.3204                                   20721932.6724
                                                                        51.5004
        41.7504
   1579361.41048   1230432.77745
                  22843786.7114                                   22843782.5664
                                                                        48.5004
        32.7504
   -387726.66448   -264763.91046
                  22362831.5784                                   22362826.8874
                                                                        48.0004
        38.5004
   -244836.75048   -157818.02746
                  21527749.4064                                   21527744.9614
                                                                        50.5004
        38.5004
    757676.76248    603748.65645
                  21401743.8134                                   21401739.1914
                                                                        50.7504
        35.7504
    875774.67246    717117.99643
                  24425018.2424                                   24425013.4414
                                                                        41.7504
        22.5004
   1455382.18447   1136317.59044
                  23348949.3914                                   23348942.6564
                                                                        44.5004
        27.7504
     78151.75047     89627.71145
                  22411104.2424                                   22411100.0084
                                                                        47.0004
        35.2504
 09 10 30 23 19 30.0000000  0  8G02G04G05G10G13G16G23G29
    801712.54748    638065.08646
                  20709889.7734                                   20709883.4064
                                                                        51.0004
        41.5004
   1583574.97348   1233716.07445
                  22844588.5864                                   22844584.4774
                                                                        48.0004
        32.2504
   -573657.19948   -409644.85246
                  22327450.1334                                   22327445.5354
                                                                        49.2504
        37.7504
   -416405.14548   -291507.68746
                  21495100.5314                                   21495096.4414
                                                                        50.7504
        38.7504
    684419.26648    546664.88746
                  21387803.3134                                   21387798.4224
                                                                        50.0004
        36.5004
    713145.35547    590393.84443
                  24394071.5234                                   24394065.8054
                                                                        42.5004
        23.5004
   1448181.17647   1130706.41844
                  23347579.1174                                   23347571.4534
                                                                        44.5004
        25.2504
    -61503.75847    -19194.77046
                  22384528.7274                                   22384524.2384
                                                                        47.7504
        36.0004
 09 10 30 23 20  0.0000000  0  8G02G04G05G10G13G16G23G29
    739366.64848    589483.85246
                  20698025.9304                                   20698019.2344
                                                                        51.5004
        41.5004
   1588469.31348   1237529.83245
                  22845519.9924                                   22845515.8134
                                                                        48.2504
        32.5004
   -758852.58248   -553952.93046
                  22292208.0704                                   22292204.2814
                                                                        48.0004
        37.0004
   -587124.78948   -424535.98446
                  21462613.7814                                   21462609.1884
                                                                        50.0004
        38.7504
    612217.16448    490403.51646
                  21374063.4384                                   21374059.3714
                                                                        50.7504
        36.5004
    551389.60247    464350.39544
                  24363290.0474                                   24363284.7664
                                                                        42.0004
        24.0004
   1441762.78947   1125705.08244
                  23346357.9224                                   23346350.5004
                                                                        44.2504
        26.5004
   -200198.62947   -127268.69146
                  22358135.7734                                   22358131.9104
                                                                        47.5004
        36.0004
 09 10 30 23 20 30.0000000  0  8G02G04G05G10G13G16G23G29
    677981.84448    541651.54747
                  20686344.7584                                   20686338.3714
                                                                        52.5004
        42.2504
   1594028.78948   1241861.91445
                  22846577.4454                                   22846574.0864
                                                                        48.2504
        32.7504
   -943324.32848   -697697.14146
                  22257104.7274                                   22257100.2774
                                                                        48.5004
        38.2504
   -757007.05548   -556911.77046
                  21430286.3984                                   21430282.7034
                                                                        50.5004
        39.7504
    541055.72748    434953.03946
                  21360522.5474                                   21360517.4304
                                                                        50.7504
        36.7504
    390496.53147    338979.15243
                  24332672.5474                                   24332667.9494
                                                                        42.0004
        22.2504
   1436111.01647   1121301.10244
                  23345282.0234                                   23345275.0044
                                                                        44.5004
        26.0004
   -337945.30148   -234603.76246
                  22331923.6804                                   22331919.7384
                                                                        48.0004
        36.0004
 09 10 30 23 21  0.0000000  0  8G02G04G05G10G13G16G23G29
    617539.85548    494553.87947
                  20674842.8834                                   20674836.2854
                                                                        53.0004
        42.0004
   1600233.99648   1246697.13345
                  22847758.6484                                   22847754.6214
                                                                        48.2504
        33.2504
  -1127087.84848   -840889.49646
                  22222135.7584                                   22222131.7344
                                                                        49.5004
        38.2504
   -926067.67248   -688647.30546
                  21398115.0864                                   21398110.9064
                                                                        50.0004
        38.7504
    470917.03148    380299.50846
                  21347175.3364                                   21347170.4774
                                                                        51.5004
        36.7504
    230451.00446    214268.35943
                  24302217.8524                                   24302212.3094
                                                                        40.2504
        21.7504
   1431206.18047   1117479.14144
                  23344348.8054                                   23344342.1054
                                                                        44.0004
        27.0004
   -474759.21147   -341211.98446
                  22305888.8284                                   22305884.7194
                                                                        47.5004
        36.0004
 09 10 30 23 21 30.0000000  0  8G02G04G05G10G13G16G23G29
    558021.59448    448175.97747
                  20663517.0704                                   20663510.6884
                                                                        52.2504
        42.2504
   1607064.48048   1252019.58245
                  22849058.7344                                   22849054.7304
                                                                        48.5004
        32.5004
  -1310159.60948   -983542.78546
                  22187298.2664                                   22187293.9694
                                                                        50.0004
        38.5004
  -1094323.28948   -819755.56646
                  21366097.0864                                   21366092.5394
                                                                        49.7504
        38.5004
    401781.27748    326427.49245
                  21334019.2194                                   21334014.3754
                                                                        51.0004
        35.7504
     71237.26646     90205.71943
                  24271919.4064                                   24271914.9304
                                                                        39.2504
        19.7504
   1427027.23047   1114222.80144
                  23343553.6254                                   23343546.6884
                                                                        43.7504
        27.2504
   -610657.32447   -447106.60546
                  22280028.1804                                   22280024.3444
                                                                        46.2504
        36.2504
 09 10 30 23 22  0.0000000  0  8G02G04G05G10G13G16G23G29
    499413.78548    402507.50447
                  20652364.5634                                   20652358.1024
                                                                        52.5004
        42.0004
   1614505.04747   1257817.39545
                  22850474.4224                                   22850470.2854
                                                                        47.2504
        32.5004
  -1492550.44948  -1125665.51246
                  22152590.2814                                   22152586.3284
                                                                        49.5004
        38.2504
  -1261784.84048   -950245.08246
                  21334230.2034                                   21334226.2344
                                                                        50.2504
        39.0004
    333634.78148    273326.32846
                  21321051.4694                                   21321046.3364
                                                                        50.7504
        36.2504
    -87155.70046    -33217.31143
                  24241778.6254                                   24241773.9574
                                                                        38.5004
        18.5004
   1423558.68047   1111520.02744
                  23342893.6484                                   23342886.5164
                                                                        45.0004
        27.0004
   -745651.09448   -552296.55546
                  22254339.7034                                   22254335.7934
                                                                        48.0004
        36.2504
 09 10 30 23 22 30.0000000  0  8G02G04G05G10G13G16G23G29
    441702.49248    357537.63347
                  20641382.0554                                   20641375.4574
                                                                        52.0004
        42.0004
   1622540.89148   1264079.05145
                  22852003.5784                                   22851999.4844
                                                                        48.2504
        32.5004
  -1674271.50448  -1267266.32846
                  22118010.1254                                   22118005.3954
                                                                        50.0004
        39.0004
  -1428463.18448  -1080124.32446
                  21302512.3364                                   21302507.9224
                                                                        51.0004
        39.5004
    266463.31348    220984.91445
                  21308269.3594                                   21308263.9024
                                                                        51.5004
        35.7504
   -244738.34046   -156008.99243
                  24211792.1174                                   24211786.2274
                                                                        40.2504
        18.5004
   1420785.07847   1109358.76644
                  23342365.4774                                   23342359.1374
                                                                        44.5004
        27.5004
   -879751.61748   -656790.45346
                  22228821.2034                                   22228817.1094
                                                                        48.2504
        36.5004
 09 10 30 23 23  0.0000000  0  9G02G04G05G10G13G16G23G29G07
    384868.64848    313251.56646
                  20630567.2504                                   20630560.6214
                                                                        52.7504
        41.7504
   1631151.89547   1270788.90245
                  22853642.4224                                   22853638.4774
                                                                        47.7504
        32.7504
  -1855339.26248  -1408358.09846
                  22083554.0554                                   22083549.5124
                                                                        49.5004
        38.5004
  -1594375.23048  -1209406.44946
                  21270940.2424                                   21270935.7774
                                                                        51.0004
        39.2504
    200247.64148    169388.29346
                  21295668.8984                                   21295663.5164
                                                                        50.7504
        36.5004
   -401526.57446   -278181.64143
                  24181956.1024                                   24181950.3094
                                                                        40.0004
        18.2504
   1418685.66447   1107722.86344
                  23341966.7584                                   23341959.7854
                                                                        44.7504
        27.2504
  -1012975.83648   -760601.52046
                  22203469.4774                                   22203465.7234
                                                                        48.7504
        36.5004
   1336728.27756   1079658.30953
                  24398025.5704                                   24398021.8204
                                                                        39.5004
        22.0004
 09 10 30 23 23 30.0000000  0  9G02G04G05G10G13G16G23G29G07
    328898.48048    269638.51646
                  20619916.1414                                   20619910.1294
                                                                        52.7504
        41.7504
   1640322.98047   1277935.19545
                  22855387.6254                                   22855383.7814
                                                                        47.5004
        33.2504
  -2035764.73048  -1548949.38746
                  22049220.5314                                   22049215.4774
                                                                        49.5004
        38.5004
  -1759531.65248  -1338099.77046
                  21239512.1724                                   21239507.9774
                                                                        51.0004
        39.5004
    134973.71548    118525.50045
                  21283247.6094                                   21283242.5274
                                                                        50.5004
        35.7504
   -557530.55946   -399743.24243
                  24152269.9534                                   24152263.4304
                                                                        40.5004
        19.5004
   1417244.68047   1106600.00844
                  23341691.9224                                   23341685.2544
                                                                        43.2504
        26.5004
  -1145335.02048   -863738.53546
                  22178282.1254                                   22178278.4844
                                                                        48.2504
        37.0004
   1144849.98846    930142.89143
                  24361512.3674                                   24361508.2624
                                                                        39.5004
        21.7504
 09 10 30 23 24  0.0000000  0  9G02G04G05G10G13G16G23G29G07
    273772.10948    226682.89147
                  20609426.2114                                   20609419.4454
                                                                        52.2504
        42.2504
   1650032.66048   1285501.07845
                  22857235.0554                                   22857231.5944
                                                                        48.0004
        32.5004
  -2215564.65648  -1689053.21146
                  22015005.4144                                   22015000.7194
                                                                        50.5004
        38.7504
  -1923949.57448  -1466217.59846
                  21208224.5234                                   21208220.4884
                                                                        50.5004
        39.5004
     70621.42648     68380.84845
                  21271001.4844                                   21270996.7934
                                                                        50.2504
        35.7504
   -712767.43746   -520707.05543
                  24122729.3834                                   24122723.6174
                                                                        40.5004
        18.5004
   1416440.60947   1105973.48044
                  23341538.3524                                   23341531.8714
                                                                        43.0004
        25.0004
  -1276846.67647   -966215.13346
                  22153256.9144                                   22153252.1954
                                                                        47.5004
        36.7504
    953503.57846    781041.87143
                  24325100.4924                                   24325096.6454
                                                                        40.5004
        23.2504
 09 10 30 23 24 30.0000000  0  9G02G04G05G10G13G16G23G29G07
    219481.07848    184378.16047
                  20599094.8594                                   20599088.3364
                                                                        53.0004
        42.0004
   1660271.64147   1293479.46945
                  22859183.5554                                   22859179.7464
                                                                        47.7504
        32.0004
  -2394744.90648  -1828674.13346
                  21980908.6334                                   21980903.5634
                                                                        50.5004
        38.5004
  -2087635.32848  -1593764.90646
                  21177076.2114                                   21177072.1174
                                                                        50.5004
        39.5004
      7181.87148     18947.43846
                  21258929.8134                                   21258924.8754
                                                                        50.0004
        36.0004
   -867242.64546   -641077.35243
                  24093333.5394                                   24093327.9104
                                                                        41.5004
        20.5004
   1416263.21547   1105835.23444
                  23341504.8444                                   23341497.9024
                                                                        42.5004
        24.7504
  -1407516.91848  -1068036.10246
                  22128390.6644                                   22128386.7194
                                                                        48.0004
        36.5004
    762684.35546    632351.48443
                  24288788.9454                                   24288785.0904
                                                                        40.5004
        23.5004
 09 10 30 23 25  0.0000000  0  9G02G04G05G10G13G16G23G29G07
    166016.00848    142717.05147
                  20588920.5164                                   20588914.0434
                                                                        52.0004
        42.2504
   1671029.10547   1301861.87545
                  22861230.6414                                   22861226.7624
                                                                        46.7504
        31.7504
  -2573312.18748  -1967817.43046
                  21946927.8914                                   21946923.7194
                                                                        49.5004
        39.0004
  -2250595.42648  -1720746.77046
                  21146065.4844                                   21146061.7154
                                                                        50.2504
        39.7504
    -55354.88348    -29782.48046
                  21247029.0554                                   21247024.1994
                                                                        49.7504
        36.0004
  -1020962.02046   -760858.70343
                  24064081.5634                                   24064075.9304
                                                                        41.5004
        22.2504
   1416701.40646   1106176.69144
                  23341589.0394                                   23341581.4774
                                                                        41.7504
        24.0004
  -1537353.10548  -1169207.15246
                  22103684.0554                                   22103679.5554
                                                                        48.7504
        36.0004
    572387.44947    484068.23444
                  24252577.3524                                   24252573.0004
                                                                        43.5004
        27.7504
 09 10 30 23 25 30.0000000  0  9G02G04G05G10G13G16G23G29G07
    113371.59848    101695.43847
                  20578902.8204                                   20578896.5944
                                                                        52.2504
        42.2504
   1682298.56647   1310643.17645
                  22863375.0864                                   22863371.5824
                                                                        46.7504
        31.5004
  -2751269.00448  -2106485.02746
                  21913064.0474                                   21913059.6054
                                                                        49.5004
        39.5004
  -2412832.40648  -1847165.18046
                  21115193.3674                                   21115189.4064
                                                                        49.7504
        39.2504
   -116994.20348    -77813.13745
                  21235299.9304                                   21235294.7464
                                                                        50.0004
        35.5004
  -1173928.14146   -880053.07443
                  24034973.2734                                   24034967.8874
                                                                        41.2504
        22.5004
   1417748.59447   1106992.68844
                  23341787.5864                                   23341780.8674
                                                                        43.0004
        25.7504
  -1666358.22747  -1269730.62146
                  22079134.6484                                   22079130.7894
                                                                        47.7504
        36.0004
    382611.09047    336190.59444
                  24216464.0784                                   24216459.6024
                                                                        43.5004
        27.2504
 09 10 30 23 26  0.0000000  0  9G02G04G05G10G13G16G23G29G07
     61538.53948     61306.03947
                  20569039.5164                                   20569032.6804
                                                                        52.0004
        42.5004
   1694069.31647   1319815.04345
                  22865615.2974                                   22865612.1134
                                                                        46.5004
        32.2504
  -2928621.89148  -2244682.09446
                  21879315.2894                                   21879310.7504
                                                                        49.5004
        39.0004
  -2574353.02748  -1973025.38746
                  21084456.8914                                   21084452.5354
                                                                        50.7504
        39.2504
   -177745.59448   -125151.89846
                  21223739.0474                                   21223734.2034
                                                                        49.2504
        36.0004
  -1326147.14547   -998665.27043
                  24006006.9694                                   24006001.7384
                                                                        42.0004
        22.5004
   1419393.14147   1108274.14844
                  23342101.3364                                   23342093.8054
                                                                        43.5004
        26.0004
  -1794539.43748  -1369612.08246
                  22054742.8754                                   22054738.6954
                                                                        48.5004
        36.2504
    193349.68047    188714.14144
                  24180448.1644                                   24180444.5434
                                                                        42.5004
        27.2504
 09 10 30 23 26 30.0000000  0  9G02G04G05G10G13G16G23G29G07
     10512.69548     21545.62947
                  20559329.7974                                   20559323.2894
                                                                        52.7504
        42.0004
   1706336.69547   1329373.97345
                  22867949.4694                                   22867946.0314
                                                                        46.7504
        31.7504
  -3105372.15248  -2382409.63346
                  21845680.5944                                   21845676.1644
                                                                        49.5004
        39.5004
  -2735158.79348  -2098328.60546
                  21053856.4614                                   21053851.8164
                                                                        50.5004
        40.0004
   -237613.28148   -171802.02745
                  21212346.5634                                   21212341.2344
                                                                        49.0004
        35.5004
  -1477619.84046  -1116695.94143
                  23977182.1884                                   23977176.9694
                                                                        40.5004
        21.5004
   1421629.67647   1110016.90244
                  23342526.5944                                   23342519.6334
                                                                        43.5004
        27.5004
  -1921898.26648  -1468852.75446
                  22030507.4774                                   22030502.9614
                                                                        48.7504
        36.0004
      4603.56346     41639.38744
                  24144531.1804                                   24144526.8984
                                                                        40.7504
        24.5004
 09 10 30 23 27  0.0000000  0  9G02G04G05G10G13G16G23G29G07
   1535700.87548   1210003.84046
                  20849563.2034                                   20849556.8554
                                                                        52.2504
        41.5004
   3294504.29347   2566907.12545
                  23170167.6564                                   23170164.1454
                                                                        45.5004
        30.7504
  -1706105.58648  -1292072.07846
                  22111952.2504                                   22111947.6134
                                                                        50.2504
        39.2504
  -1319836.13748   -995479.77746
                  21323183.2974                                   21323179.4774
                                                                        50.5004
        39.7504
   1278809.25448   1009825.90246
                  21500912.4224                                   21500907.4104
                                                                        50.0004
        36.0004
    -52932.71546     -6550.12543
                  24248291.0004                                   24248286.0044
                                                                        39.7504
        21.5004
   2999861.53947   2339807.94944
                  23642854.0864                                   23642847.1454
                                                                        42.5004
        27.2504
   -473022.74648   -339858.84846
                  22306219.1954                                   22306214.9774
                                                                        48.5004
        36.5004
   1391787.97346   1122562.43843
                  24408502.8674                                   24408499.5514
                                                                        40.0004
        23.7504
 09 10 30 23 27 30.0000000  0  9G02G04G05G10G13G16G23G29G07
   1486250.87148   1171471.32846
                  20840153.1564                                   20840146.9574
                                                                        51.7504
        41.5004
   3307722.13347   2577206.70745
                  23172683.2664                                   23172679.9064
                                                                        45.7504
        32.0004
  -1881680.43448  -1428883.66046
                  22078541.8364                                   22078536.9414
                                                                        50.0004
        39.0004
  -1479242.27748  -1119692.32046
                  21292849.2424                                   21292845.3054
                                                                        51.0004
        39.7504
   1220668.12948    964521.11745
                  21489848.2424                                   21489843.0514
                                                                        49.0004
        35.5004
   -202942.21946   -123440.64143
                  24219745.8914                                   24219740.5044
                                                                        38.7504
        21.0004
   3003237.93447   2342438.89844
                  23643496.0944                                   23643489.5314
                                                                        42.5004
        26.2504
   -598768.79748   -437842.83246
                  22282290.5554                                   22282286.5984
                                                                        48.2504
        36.7504
   1204044.59046    976268.81343
                  24372776.3594                                   24372772.1524
                                                                        38.2504
        22.5004
 09 10 30 23 28  0.0000000  0  9G02G04G05G10G13G16G23G29G07
   1437575.56648   1133542.54347
                  20830890.4304                                   20830884.4534
                                                                        51.5004
        42.0004
   3321400.06647   2587864.70345
                  23175286.3444                                   23175282.6024
                                                                        44.7504
        31.5004
  -2056676.62548  -1565244.32846
                  22045240.7194                                   22045236.1024
                                                                        49.2504
        39.2504
  -1637957.90648  -1243366.75446
                  21262646.7034                                   21262642.1764
                                                                        51.0004
        40.0004
   1163376.75448    919878.50845
                  21478945.8524                                   21478941.0394
                                                                        48.5004
        35.2504
   -352228.78946   -239767.84443
                  24191337.2504                                   24191332.2384
                                                                        39.0004
        22.0004
   3007168.47747   2345501.62943
                  23644243.9924                                   23644237.4844
                                                                        42.5004
        23.2504
   -723718.07048   -535205.91445
                  22258513.1644                                   22258509.4384
                                                                        48.0004
        35.5004
   1016795.27047    830359.98043
                  24337144.6644                                   24337139.5234
                                                                        42.2504
        22.7504
 09 10 30 23 28 30.0000000  0  9G02G04G05G10G13G16G23G29G07
   1389670.53948   1096213.94546
                  20821774.5394                                   20821768.2704
                                                                        51.5004
        41.7504
   3335532.62547   2598876.82845
                  23177975.6804                                   23177972.1564
                                                                        46.2504
        30.7504
  -2231095.45348  -1701155.04746
                  22012049.7194                                   22012045.6684
                                                                        49.2504
        38.7504
  -1795984.83248  -1366504.62146
                  21232575.3134                                   21232571.2384
                                                                        50.0004
        39.2504
   1106930.52048    875894.43845
                  21468204.4454                                   21468199.3794
                                                                        48.5004
        35.5004
   -500793.65246   -355532.68043
                  24163065.1254                                   24163061.0164
                                                                        39.0004
        22.0004
   3011647.51647   2348991.79743
                  23645096.2814                                   23645089.4574
                                                                        43.0004
        23.0004
   -847872.60547   -631949.68046
                  22234887.6954                                   22234883.6134
                                                                        47.2504
        36.5004
    830040.37147    684836.80144
                  24301606.9924                                   24301601.2664
                                                                        42.5004
        24.0004
 09 10 30 23 29  0.0000000  0  9G02G04G05G10G13G16G23G29G07
   1342523.56648   1059476.02746
                  20812802.8054                                   20812796.6454
                                                                        52.5004
        41.7504
   3350107.36347   2610233.82445
                  23180749.1564                                   23180745.4304
                                                                        45.7504
        30.5004
  -2404946.51248  -1836623.34446
                  21978967.1484                                   21978962.8244
                                                                        49.7504
        39.5004
  -1953332.59848  -1489113.25446
                  21202632.4924                                   21202628.5354
                                                                        50.0004
        39.7504
   1051316.82048    832559.11745
                  21457621.8204                                   21457616.7854
                                                                        49.7504
        35.2504
   -648645.34446   -470741.77043
                  24134930.6804                                   24134925.9654
                                                                        38.2504
        21.5004
   3016661.14847   2352898.50844
                  23646051.1414                                   23646043.7584
                                                                        43.2504
        25.2504
   -971242.49248   -728082.05546
                  22211410.7974                                   22211407.2734
                                                                        48.0004
        36.5004
    643771.02747    539691.81644
                  24266161.1094                                   24266155.8594
                                                                        42.0004
        24.7504
 09 10 30 23 29 30.0000000  0  9G02G04G05G10G13G16G23G29G07
   1296128.90648   1023324.29746
                  20803974.0394                                   20803967.9614
                                                                        52.2504
        41.7504
   3365116.71547   2621929.48445
                  23183605.4614                                   23183601.3594
                                                                        46.0004
        30.7504
  -2578232.91848  -1971651.72346
                  21945991.4614                                   21945987.3404
                                                                        50.0004
        39.5004
  -2110004.09448  -1611194.88346
                  21172819.0234                                   21172815.0944
                                                                        51.0004
        40.2504
    996529.04348    789867.37145
                  21447196.2344                                   21447191.0394
                                                                        50.0004
        35.7504
   -795786.79346   -585397.44143
                  24106930.8674                                   24106925.6174
                                                                        39.2504
        21.5004
   3022201.75447   2357215.84844
                  23647104.9844                                   23647097.8754
                                                                        43.7504
        24.2504
  -1093831.19147   -823605.70346
                  22188083.2664                                   22188079.5864
                                                                        47.5004
        36.7504
    457985.90647    394924.32044
                  24230806.7734                                   24230802.9064
                                                                        43.7504
        26.2504
 09 10 30 23 30  0.0000000  0  9G02G04G05G10G13G16G23G29G07
   1250479.68048    987753.47346
                  20795287.6094                                   20795281.2154
                                                                        52.7504
        41.5004
   3380552.62147   2633957.39845
                  23186542.4064                                   23186538.7854
                                                                        46.7504
        30.7504
  -2750958.32448  -2106242.97746
                  21913122.9774                                   21913118.6724
                                                                        50.2504
        39.0004
  -2266003.58248  -1732752.92246
                  21143133.6804                                   21143129.3404
                                                                        50.7504
        39.5004
    942560.29748    747813.81646
                  21436926.3444                                   21436921.0744
                                                                        50.2504
        36.0004
   -942221.75046   -699502.59043
                  24079065.5394                                   24079060.2274
                                                                        39.5004
        21.5004
   3028261.06647   2361937.43044
                  23648258.7344                                   23648250.9144
                                                                        44.5004
        25.0004
  -1215643.29347   -918524.21546
                  22164903.1174                                   22164899.2234
                                                                        47.5004
        37.2504
    272681.94147    250531.84044
                  24195544.6954                                   24195540.7034
                                                                        43.2504
        27.5004
 09 10 30 23 30 30.0000000  0  9G02G04G05G10G13G16G23G29G07
   1205568.02748    952757.38346
                  20786741.2974                                   20786734.9344
                                                                        52.0004
        41.5004
   3396406.47347   2646310.89845
                  23189560.2034                                   23189555.8834
                                                                        46.5004
        31.7504
  -2923127.64148  -2240400.90646
                  21880360.6484                                   21880356.4224
                                                                        50.5004
        39.2504
  -2421336.03948  -1853791.21146
                  21113575.0234                                   21113570.9304
                                                                        51.5004
        40.7504
    889402.60248    706392.26245
                  21426810.5004                                   21426805.7034
                                                                        50.0004
        35.5004
  -1087955.16846   -813061.10943
                  24051333.3834                                   24051328.2194
                                                                        40.2504
        22.0004
   3034829.48847   2367055.69544
                  23649508.4534                                   23649501.1524
                                                                        43.5004
        25.7504
  -1336684.30548  -1012841.88746
                  22141870.0864                                   22141866.2734
                                                                        48.5004
        36.7504
     87855.26247    106511.14544
                  24160372.9304                                   24160369.1844
                                                                        43.0004
        25.7504
 09 10 30 23 31  0.0000000  0  9G02G04G05G10G13G16G23G29G07
   1161389.06348    918332.19946
                  20778334.2194                                   20778327.6914
                                                                        53.0004
        41.5004
   3412672.21147   2658985.44945
                  23192654.7344                                   23192651.5044
                                                                        46.5004
        30.0004
  -3094743.03148  -2374127.19546
                  21847703.3754                                   21847699.1844
                                                                        50.7504
        40.0004
  -2576004.20348  -1974311.89546
                  21084142.4774                                   21084138.0164
                                                                        51.7504
        39.5004
    837050.09448    665598.12145
                  21416847.9774                                   21416843.1174
                                                                        50.0004
        35.0004
  -1232988.78546   -926074.31243
                  24023734.1954                                   24023728.5274
                                                                        41.0004
        22.0004
   3041900.71947   2372565.73844
                  23650853.6564                                   23650846.7704
                                                                        43.2504
        26.5004
  -1456957.34448  -1106561.12146
                  22118982.8054                                   22118979.0204
                                                                        49.0004
        37.2504
    -96495.43446    -37138.70744
                  24125291.6174                                   24125288.2194
                                                                        41.5004
        26.7504
 09 10 30 23 31 30.0000000  0  9G02G04G05G10G13G16G23G29G07
   1117929.02048    884467.21947
                  20770063.8754                                   20770057.5084
                                                                        52.7504
        42.0004
   3429335.60247   2671969.96145
                  23195826.5164                                   23195822.6884
                                                                        46.5004
        30.0004
  -3265815.24248  -2507430.21946
                  21815149.0474                                   21815144.8364
                                                                        51.0004
        39.7504
  -2730018.23048  -2094322.82846
                  21054834.2504                                   21054830.5044
                                                                        51.5004
        39.7504
    785489.06648    625420.70745
                  21407036.1884                                   21407031.0434
                                                                        50.5004
        35.2504
  -1377332.61746  -1038550.03943
                  23996266.1024                                   23996260.9224
                                                                        40.7504
        22.0004
   3049459.56646   2378455.71944
                  23652291.9924                                   23652285.5744
                                                                        41.2504
        25.0004
  -1576473.26248  -1199690.39846
                  22096239.3524                                   22096235.3244
                                                                        48.5004
        37.2504
   -280379.42647   -180424.87144
                  24090299.8984                                   24090296.0744
                                                                        42.5004
        25.5004
 09 10 30 23 32  0.0000000  0  9G02G04G05G10G13G16G23G29G07
   1075186.32848    851161.21946
                  20761930.4064                                   20761924.0204
                                                                        52.0004
        41.7504
   3446393.56647   2685261.93045
                  23199071.9534                                   23199068.5044
                                                                        47.0004
        30.7504
  -3436342.91848  -2640308.92646
                  21782699.0784                                   21782694.0274
                                                                        51.0004
        40.0004
  -2883377.18748  -2213823.29346
                  21025651.4774                                   21025646.8484
                                                                        52.0004
        39.7504
    734717.31348    585858.28945
                  21397374.9224                                   21397370.2154
                                                                        49.7504
        35.5004
  -1520985.57046  -1150487.43443
                  23968930.2194                                   23968924.7504
                                                                        40.2504
        19.7504
   3057502.78546   2384723.10543
                  23653822.2114                                   23653815.6724
                                                                        41.5004
        23.7504
  -1695231.07848  -1292228.94546
                  22073640.3284                                   22073636.6024
                                                                        48.5004
        37.2504
   -463794.26647   -323345.47744
                  24055396.9304                                   24055393.3554
                                                                        43.2504
        27.0004
 09 10 30 23 32 30.0000000  0  9G02G04G05G10G13G16G23G29G07
   1033155.97748    818410.30947
                  20753932.3834                                   20753926.0084
                                                                        52.0004
        42.0004
   3463839.96947   2698856.50844
                  23202391.9384                                   23202388.1454
                                                                        46.2504
        29.5004
  -3606328.07848  -2772764.89146
                  21750351.7504                                   21750347.6684
                                                                        50.5004
        39.5004
  -3036083.64848  -2332815.34846
                  20996592.1334                                   20996587.7424
                                                                        51.7504
        39.7504
    684729.54748    546906.77745
                  21387862.4534                                   21387857.5204
                                                                        50.0004
        35.5004
  -1663949.55546  -1261887.97343
                  23941725.1804                                   23941719.0634
                                                                        40.2504
        21.0004
   3066023.77347   2391362.82043
                  23655443.9844                                   23655437.4694
                                                                        42.0004
        23.7504
  -1813234.57848  -1384179.74246
                  22051185.6334                                   22051181.3714
                                                                        49.2504
        37.5004
   -646740.62947   -465901.06244
                  24020584.0944                                   24020579.3164
                                                                        44.0004
        25.2504
 09 10 30 23 33  0.0000000  0  9G02G04G05G10G13G16G23G29G07
    991831.16848    786209.15646
                  20746068.2664                                   20746062.2624
                                                                        52.0004
        41.7504
   3481667.57447   2712748.18045
                  23205784.5944                                   23205780.4924
                                                                        46.5004
        30.5004
  -3775774.13348  -2904800.76246
                  21718107.3834                                   21718102.8014
                                                                        50.0004
        39.5004
  -3188141.52048  -2451302.03146
                  20967656.6564                                   20967652.7504
                                                                        51.0004
        39.7504
    635518.57848    508560.55145
                  21378497.8444                                   21378492.9304
                                                                        49.7504
        35.2504
  -1806228.09046  -1372754.36343
                  23914650.3524                                   23914644.8094
                                                                        41.2504
        22.5004
   3075014.46947   2398368.58643
                  23657154.8204                                   23657147.6954
                                                                        42.2504
        23.2504
  -1930487.52748  -1475545.67246
                  22028872.8054                                   22028868.5004
                                                                        49.5004
        37.2504
   -829220.87947   -608093.27744
                  23985859.0164                                   23985854.5434
                                                                        44.5004
        25.2504
 09 10 30 23 33 30.0000000  0  9G02G04G05G10G13G16G23G29G07
    951205.34448    754552.67247
                  20738337.4694                                   20738330.6524
                                                                        52.2504
        42.0004
   3499868.60547   2726930.81345
                  23209247.8204                                   23209244.1724
                                                                        45.7504
        30.2504
  -3944685.45748  -3036419.95746
                  21685964.4454                                   21685959.7154
                                                                        50.5004
        39.7504
  -3339554.52748  -2569286.16046
                  20938843.3674                                   20938839.4654
                                                                        51.5004
        40.0004
    587077.30948    470814.11345
                  21369279.8284                                   21369275.1134
                                                                        49.7504
        34.7504
  -1947824.58646  -1483089.30943
                  23887705.2664                                   23887699.5554
                                                                        40.0004
        21.7504
   3084466.99647   2405734.17243
                  23658953.1334                                   23658946.6914
                                                                        43.0004
        22.5004
  -2046994.48048  -1566330.30146
                  22006702.2664                                   22006698.2034
                                                                        49.5004
        37.5004
  -1011237.96947   -749924.62144
                  23951221.7814                                   23951217.5904
                                                                        45.0004
        24.2504
 09 10 30 23 34  0.0000000  0  9G02G04G05G10G13G16G23G29G07
    911273.46948    723436.95347
                  20730738.8984                                   20730732.1374
                                                                        51.5004
        42.2504
   3518436.91847   2741399.60544
                  23212781.5004                                   23212777.9804
                                                                        44.5004
        29.2504
  -4113063.63348  -3167623.73046
                  21653923.3284                                   21653918.5664
                                                                        51.2504
        39.7504
  -3490324.94948  -2686769.60546
                  20910152.8444                                   20910148.7544
                                                                        51.5004
        39.7504
    539400.49248    433663.35945
                  21360207.3134                                   21360202.2194
                                                                        49.2504
        35.0004
  -2088740.98846  -1592894.30543
                  23860889.9224                                   23860884.5864
                                                                        40.7504
        22.0004
   3094374.58647   2413454.39843
                  23660839.2344                                   23660831.8834
                                                                        42.0004
        23.2504
  -2162758.28548  -1656535.85946
                  21984673.1334                                   21984669.3364
                                                                        50.2504
        37.0004
  -1192793.12547   -891396.11744
                  23916673.5704                                   23916668.3524
                                                                        44.2504
        25.5004
 09 10 30 23 34 30.0000000  0  9G02G04G05G10G13G16G23G29G07
    872031.77048    692859.00046
                  20723271.3914                                   20723264.7194
                                                                        51.7504
        41.5004
   3537368.05147   2756151.00045
                  23216383.5004                                   23216380.4844
                                                                        44.5004
        30.0004
  -4280909.43748  -3298412.65246
                  21621982.9614                                   21621978.6024
                                                                        50.0004
        39.7504
  -3640453.66448  -2803753.00846
                  20881584.6094                                   20881580.4614
                                                                        51.2504
        39.7504
    492483.93448    397105.00045
                  21351278.9144                                   21351274.4574
                                                                        49.2504
        34.7504
  -2228978.22346  -1702170.07043
                  23834203.2274                                   23834198.4264
                                                                        38.5004
        21.7504
   3104732.00447   2421525.12543
                  23662810.0784                                   23662802.6764
                                                                        43.2504
        22.5004
  -2277780.20348  -1746163.31246
                  21962785.1954                                   21962781.3204
                                                                        49.5004
        37.5004
  -1373885.52047  -1032507.07044
                  23882212.2424                                   23882207.9144
                                                                        42.7504
        25.2504
 09 10 30 23 35  0.0000000  0  9G02G04G05G10G13G16G23G29G07
    833474.84048    662814.64546
                  20715933.9774                                   20715927.9734
                                                                        52.2504
        41.0004
   3556655.77747   2771180.29744
                  23220053.9384                                   23220050.5044
                                                                        45.7504
        29.7504
  -4448225.03548  -3428788.40646
                  21590143.9534                                   21590139.7544
                                                                        50.7504
        40.0004
  -3789943.52048  -2920238.60546
                  20853137.5084                                   20853133.2304
                                                                        52.0004
        39.5004
    446321.69948    361134.43045
                  21342495.1564                                   21342489.7854
                                                                        50.0004
        35.5004
  -2368537.69146  -1810917.66043
                  23807645.6254                                   23807641.7384
                                                                        39.0004
        21.5004
   3115532.62946   2429941.23043
                  23664865.1334                                   23664858.4184
                                                                        40.7504
        22.7504
  -2392063.59448  -1835215.28946
                  21941037.5314                                   21941033.4614
                                                                        49.7504
        37.0004
  -1554516.69546  -1173258.58244
                  23847839.6174                                   23847835.5554
                                                                        41.0004
        26.0004
 09 10 30 23 35 30.0000000  0  9G02G04G05G10G13G16G23G29G07
   2371018.52048   1860900.62546
                  21008518.8444                                   21008512.1254
                                                                        51.5004
        41.7504
   5151712.59447   4014081.33644
                  23523583.3134                                   23523580.0004
                                                                        44.7504
        29.5004
  -3039587.77348  -2331148.95746
                  21858198.9064                                   21858194.5784
                                                                        50.0004
        40.2504
  -2363372.51648  -1808624.83646
                  21124604.8674                                   21124600.7624
                                                                        50.5004
        40.0004
   1976329.35248   1553348.19145
                  21633645.9694                                   21633640.8524
                                                                        48.5004
        34.7504
   -931997.34046   -691535.55143
                  24081010.7664                                   24081005.8364
                                                                        39.5004
        22.5004
   4702189.26246   3666296.99644
                  23966795.0554                                   23966789.7424
                                                                        40.7504
        24.0004
   -930187.75048   -696091.25846
                  22219223.1254                                   22219219.3484
                                                                        49.7504
        36.7504
   -159261.29747    -86046.40244
                  24113347.2894                                   24113343.3674
                                                                        42.0004
        26.0004
 09 10 30 23 36  0.0000000  0  9G02G04G05G10G13G16G23G29G07
   2333816.75848   1831912.23046
                  21001439.4774                                   21001433.6174
                                                                        51.7504
        41.7504
   5171696.59447   4029653.25044
                  23527386.4534                                   23527383.2894
                                                                        45.7504
        29.5004
  -3205849.03148  -2460703.17646
                  21826560.4224                                   21826556.0784
                                                                        49.7504
        40.2504
  -2511590.62148  -1924119.46946
                  21096400.0004                                   21096396.1054
                                                                        51.2504
        40.2504
   1931660.04748   1518540.94945
                  21625145.4144                                   21625140.5864
                                                                        49.0004
        35.0004
  -1070207.30546   -799231.62943
                  24054710.8134                                   24054705.5784
                                                                        40.7504
        22.7504
   4713857.49246   3675389.10244
                  23969015.8984                                   23969010.3484
                                                                        40.5004
        25.0004
  -1043001.55548   -783998.14546
                  22197755.6804                                   22197751.5004
                                                                        49.5004
        37.5004
   -338971.33246   -226080.15644
                  24079149.8054                                   24079145.3364
                                                                        41.5004
        28.0004
 09 10 30 23 36 30.0000000  0  9G02G04G05G10G13G16G23G29G07
   2297284.00848   1803445.15246
                  20994487.8284                                   20994481.4534
                                                                        51.7504
        41.0004
   5192019.08247   4045488.98844
                  23531253.7814                                   23531250.2854
                                                                        45.0004
        28.7504
  -3371587.28548  -2589849.87946
                  21795021.2974                                   21795017.0354
                                                                        49.5004
        40.5004
  -2659177.16048  -2039121.93046
                  21068314.9064                                   21068311.0354
                                                                        51.2504
        40.0004
   1887728.03548   1484308.22745
                  21616785.5394                                   21616780.3324
                                                                        48.5004
        35.5004
  -1207746.39146   -906404.93443
                  24028537.2974                                   24028532.7934
                                                                        41.5004
        22.5004
   4725948.77747   3684810.83644
                  23971317.4384                                   23971310.9774
                                                                        42.5004
        24.7504
  -1155086.06248   -871336.71146
                  22176427.0004                                   22176422.5784
                                                                        49.7504
        37.2504
   -518223.27347   -365757.00044
                  24045039.4844                                   24045034.8444
                                                                        44.0004
        26.7504
 09 10 30 23 37  0.0000000  0  9G02G04G05G10G13G16G23G29G07
   2261414.81348   1775495.11746
                  20987661.8594                                   20987655.9964
                                                                        51.5004
        41.2504
   5212673.57047   4061583.41044
                  23535183.6254                                   23535180.6214
                                                                        45.2504
        29.0004
  -3536804.47748  -2718590.52046
                  21763581.2734                                   21763577.1644
                                                                        49.5004
        40.0004
  -2806134.98048  -2153634.48046
                  21040349.7194                                   21040345.7344
                                                                        51.2504
        40.2504
   1844527.66848   1450645.59845
                  21608564.9304                                   21608559.8874
                                                                        48.0004
        35.7504
  -1344616.67247  -1013057.09444
                  24002492.3054                                   24002486.8594
                                                                        42.0004
        24.5004
   4738456.66047   3694557.22744
                  23973697.6254                                   23973690.8954
                                                                        43.0004
        26.5004
  -1266444.07848   -958109.19146
                  22155235.5554                                   22155232.1174
                                                                        49.7504
        37.5004
   -697017.89547   -505077.39544
                  24011016.6254                                   24011011.0314
                                                                        43.0004
        27.0004
 09 10 30 23 37 30.0000000  0  9G02G04G05G10G13G16G23G29G07
   2226209.09048   1748062.07046
                  20980962.7584                                   20980956.2464
                                                                        52.5004
        41.2504
   5233659.23447   4077935.89544
                  23539178.1254                                   23539174.4804
                                                                        45.0004
        28.5004
  -3701497.69548  -2846922.89546
                  21732241.3444                                   21732237.2274
                                                                        50.5004
        39.7504
  -2952461.16048  -2267654.88346
                  21012504.7664                                   21012500.7344
                                                                        51.0004
        40.2504
   1802058.32048   1417552.60245
                  21600482.9304                                   21600478.3794
                                                                        49.5004
        35.5004
  -1480815.25447  -1119185.87544
                  23976574.1094                                   23976569.0984
                                                                        42.5004
        25.5004
   4751379.45347   3704626.94143
                  23976156.7034                                   23976149.8444
                                                                        42.2504
        22.5004
  -1377073.34048  -1044313.81246
                  22134184.1484                                   22134179.7344
                                                                        49.7504
        37.7504
   -875351.23047   -644038.34044
                  23977080.0784                                   23977075.1954
                                                                        44.0004
        26.0004
 09 10 30 23 38  0.0000000  0  9G02G04G05G10G13G16G23G29G07
   2191660.55948   1721141.15246
                  20974388.2734                                   20974381.7624
                                                                        51.5004
        41.5004
   5254968.84047   4094540.80544
                  23543232.9924                                   23543229.2114
                                                                        45.2504
        28.5004
  -3865670.28548  -2974849.58246
                  21701000.2894                                   21700995.7894
                                                                        50.7504
        39.7504
  -3098159.37548  -2381185.95346
                  20984779.5474                                   20984775.4184
                                                                        51.0004
        40.5004
   1760312.88348   1385023.69145
                  21592538.8754                                   21592533.8874
                                                                        48.2504
        35.2504
  -1616345.60946  -1224793.93743
                  23950784.3204                                   23950778.4574
                                                                        41.0004
        22.2504
   4764709.37946   3715013.92643
                  23978693.4304                                   23978686.3554
                                                                        41.5004
        21.7504
  -1486978.58248  -1129954.27346
                  22113269.6024                                   22113265.8054
                                                                        49.2504
        37.5004
  -1053226.23847   -782642.17244
                  23943231.8054                                   23943226.7074
                                                                        43.0004
        26.7504
 09 10 30 23 38 30.0000000  0  9G02G04G05G10G13G16G23G29G07
   2157761.14148   1694726.02046
                  20967937.3674                                   20967931.0744
                                                                        52.5004
        41.2504
   5276593.68847   4111391.33644
                  23547347.8524                                   23547344.7304
                                                                        45.5004
        28.2504
  -4029327.27748  -3102374.49246
                  21669857.7424                                   21669853.0784
                                                                        50.5004
        40.2504
  -3243234.82848  -2494231.76646
                  20957172.5944                                   20957167.8134
                                                                        51.2504
        40.5004
   1719283.01248   1353052.36345
                  21584731.2114                                   21584726.5594
                                                                        48.0004
        34.5004
  -1751212.26247  -1329884.84843
                  23925119.2664                                   23925113.9344
                                                                        42.2504
        22.5004
   4778437.47746   3725711.13743
                  23981305.3834                                   23981297.8874
                                                                        40.0004
        19.7504
  -1596165.31648  -1215034.84446
                  22092491.9304                                   22092488.2504
                                                                        49.5004
        37.0004
  -1230645.87947   -920891.25444
                  23909470.0084                                   23909464.8164
                                                                        43.0004
        28.2504
 09 10 30 23 39  0.0000000  0  9G02G04G05G10G13G16G23G29G07
   2124507.03948   1668813.72746
                  20961609.4534                                   20961603.3054
                                                                        52.5004
        41.0004
   5298529.41447   4128484.19144
                  23551521.6804                                   23551518.6524
                                                                        45.0004
        28.2504
  -4192469.23448  -3229498.08646
                  21638812.7034                                   21638808.3714
                                                                        50.2504
        40.5004
  -3387688.35948  -2606792.96146
                  20929683.6024                                   20929679.5944
                                                                        51.2504
        41.0004
   1678964.50448   1321635.37945
                  21577058.4694                                   21577054.0474
                                                                        48.0004
        34.5004
  -1885416.14546  -1434459.30143
                  23899581.3204                                   23899575.5314
                                                                        41.2504
        22.7504
   4792558.48446   3736714.56643
                  23983991.7584                                   23983985.3204
                                                                        39.5004
        19.2504
  -1704635.12148  -1299556.77046
                  22071850.7664                                   22071846.8954
                                                                        49.0004
        36.7504
  -1407609.57447  -1058785.02344
                  23875794.3984                                   23875789.8164
                                                                        43.7504
        27.0004
 09 10 30 23 39 30.0000000  0  9G02G04G05G10G13G16G23G29G07
   2091896.93848   1643403.27746
                  20955404.0474                                   20955397.5164
                                                                        52.7504
        41.7504
   5320773.47347   4145817.16444
                  23555754.9694                                   23555751.1844
                                                                        45.5004
        28.0004
  -4355094.49248  -3356219.05546
                  21607865.6804                                   21607861.4694
                                                                        50.5004
        40.7504
  -3531518.65248  -2718868.49646
                  20902313.9924                                   20902309.9184
                                                                        51.2504
        41.0004
   1639355.73848   1290771.39845
                  21569521.2734                                   21569516.4344
                                                                        48.2504
        34.2504
  -2018955.19146  -1538515.70743
                  23874169.7274                                   23874163.6644
                                                                        41.2504
        21.0004
   4807069.70746   3748021.99243
                  23986753.8984                                   23986747.1954
                                                                        40.0004
        21.7504
  -1812387.10948  -1383519.35546
                  22051346.4144                                   22051342.0164
                                                                        49.7504
        37.5004
  -1584114.48847  -1196321.25844
                  23842206.2664                                   23842202.1294
                                                                        42.2504
        27.2504
 09 10 30 23 40  0.0000000  0  9G02G04G05G10G13G16G23G29G07
   2059926.43848   1618491.21146
                  20949320.1954                                   20949313.4964
                                                                        52.2504
        41.0004
   5343320.97347   4163386.59044
                  23560045.5394                                   23560041.5904
                                                                        45.0004
        28.2504
  -4517204.35248  -3482538.42246
                  21577017.5634                                   21577013.0664
                                                                        50.5004
        40.5004
  -3674727.50848  -2830459.79346
                  20875062.4144                                   20875058.2734
                                                                        51.0004
        40.5004
   1600452.10547   1260456.87945
                  21562118.4774                                   21562113.7074
                                                                        47.5004
        34.7504
  -2151830.98846  -1642055.32043
                  23848883.1024                                   23848878.1994
                                                                        41.0004
        21.5004
   4821965.59447   3759629.15644
                  23989588.8134                                   23989581.8834
                                                                        42.0004
        25.7504
  -1919423.43748  -1466924.27346
                  22030978.1644                                   22030974.1054
                                                                        49.2504
        37.5004
  -1760161.16847  -1333500.51644
                  23808706.2424                                   23808701.3054
                                                                        42.2504
        26.5004
 09 10 30 23 40 30.0000000  0  9G02G04G05G10G13G16G23G29G07
   2028590.52748   1594073.63346
                  20943356.6884                                   20943350.8244
                                                                        52.7504
        41.0004
   5366166.14547   4181187.94144
                  23564392.6024                                   23564389.4064
                                                                        45.5004
        28.5004
  -4678800.61348  -3608457.58246
                  21546266.7814                                   21546262.5084
                                                                        51.0004
        40.7504
  -3817316.86748  -2941568.37546
                  20847928.2584                                   20847924.2894
                                                                        52.0004
        40.5004
   1562247.51648   1230687.06345
                  21554848.7504                                   21554843.8244
                                                                        49.0004
        34.2504
  -2284045.36746  -1745079.52043
                  23823724.3984                                   23823718.7624
                                                                        41.5004
        19.5004
   4837239.70347   3771531.05944
                  23992495.2194                                   23992488.6764
                                                                        42.5004
        26.2504
  -2025747.01648  -1549773.80946
                  22010745.5084                                   22010741.9654
                                                                        49.5004
        37.0004
  -1935750.00047  -1470322.92644
                  23775292.5634                                   23775288.3444
                                                                        42.0004
        26.7504
 09 10 30 23 41  0.0000000  0  9G02G04G05G10G13G16G23G29G07
   1997886.05548   1570148.08246
                  20937514.1644                                   20937507.8134
                                                                        52.2504
        40.7504
   5389305.71147   4199218.75844
                  23568796.5084                                   23568792.9264
                                                                        45.2504
        27.7504
  -4839883.04748  -3733976.34046
                  21515613.6644                                   21515609.4614
                                                                        50.5004
        41.0004
  -3959286.59048  -3052194.12946
                  20820912.3834                                   20820908.3284
                                                                        51.2504
        40.7504
   1524738.91448   1201459.58245
                  21547710.4774                                   21547705.8914
                                                                        49.0004
        33.7504
  -2415598.32046  -1847588.34043
                  23798690.4304                                   23798684.9494
                                                                        40.5004
        20.7504
   4852888.11747   3783724.60244
                  23995473.3834                                   23995466.6684
                                                                        43.0004
        25.2504
  -2131358.55948  -1632068.52046
                  21990648.3444                                   21990644.3794
                                                                        49.2504
        37.5004
  -2110879.59447  -1606787.46144
                  23741966.9384                                   23741962.2384
                                                                        42.5004
        27.0004
 09 10 30 23 41 30.0000000  0  9G02G04G05G10G13G16G23G29G07
   1967810.35248   1546712.46946
                  20931790.8054                                   20931784.4574
                                                                        52.2504
        41.0004
   5412735.98047   4217476.13744
                  23573255.1804                                   23573251.6954
                                                                        45.5004
        27.7504
  -5000451.65248  -3859094.72346
                  21485058.6484                                   21485054.2344
                                                                        51.0004
        40.7504
  -4100636.85948  -3162337.18446
                  20794014.3594                                   20794010.2974
                                                                        51.7504
        40.5004
   1487923.00848   1172771.88745
                  21540704.7034                                   21540699.7424
                                                                        49.2504
        33.7504
  -2546489.10246  -1949581.15643
                  23773782.6804                                   23773777.3284
                                                                        41.0004
        21.5004
   4868906.71947   3796206.62143
                  23998521.2114                                   23998514.8524
                                                                        42.5004
        22.7504
  -2236258.87548  -1713809.02346
                  21970686.2274                                   21970682.4224
                                                                        48.5004
        38.0004
  -2285548.53147  -1742893.08244
                  23708728.5394                                   23708723.7504
                                                                        44.2504
        27.5004
 09 10 30 23 42  0.0000000  0  9G02G04G05G10G13G16G23G29G07
   1938359.36748   1523763.64546
                  20926186.3834                                   20926180.0784
                                                                        52.0004
        41.0004
   5436452.05947   4235956.25044
                  23577768.2274                                   23577764.3954
                                                                        45.7504
        28.5004
  -5160507.27748  -3983813.39546
                  21454601.1564                                   21454596.7894
                                                                        51.0004
        40.5004
  -4241369.33648  -3271998.83646
                  20767233.9774                                   20767229.6214
                                                                        51.5004
        40.0004
   1451794.92248   1144620.12545
                  21533830.2344                                   21533825.2074
                                                                        49.2504
        35.0004
  -2676719.13746  -2051059.10243
                  23749001.1484                                   23748996.0474
                                                                        41.0004
        22.0004
   4885289.85946   3808972.70343
                  24001639.1644                                   24001632.1804
                                                                        41.0004
        21.5004
  -2340449.77748  -1794996.74246
                  21950859.2424                                   21950855.1724
                                                                        49.5004
        37.7504
  -2459756.96147  -1878639.86344
                  23675577.7274                                   23675572.9144
                                                                        44.5004
        29.5004
 09 10 30 23 42 30.0000000  0  9G02G04G05G10G13G16G23G29G07
   1909527.97748   1501297.64546
                  20920700.1724                                   20920693.5164
                                                                        52.5004
        41.2504
   5460448.04347   4254654.31344
                  23582333.8984                                   23582330.7074
                                                                        43.5004
        27.0004
  -5320051.45348  -4108133.52346
                  21424240.7664                                   21424236.6564
                                                                        50.5004
        40.5004
  -4381486.03148  -3381180.67646
                  20740570.6414                                   20740566.5784
                                                                        51.5004
        41.0004
   1416349.55548   1117000.36345
                  21527085.1484                                   21527080.3984
                                                                        50.0004
        34.5004
  -2806290.01247  -2152023.41444
                  23724345.3914                                   23724339.5904
                                                                        42.2504
        24.0004
   4902031.73446   3822018.30943
                  24004824.4454                                   24004818.0984
                                                                        39.7504
        18.5004
  -2443934.27048  -1875634.00046
                  21931166.9534                                   21931162.8834
                                                                        50.0004
        37.0004
  -2633505.28147  -2014028.17244
                  23642514.2034                                   23642509.7304
                                                                        45.0004
        29.5004
 09 10 30 23 43  0.0000000  0  9G02G04G05G10G13G16G23G29G07
   1881314.89148   1479313.42646
                  20915331.6174                                   20915325.2034
                                                                        52.0004
        41.0004
   5484722.04347   4273568.94544
                  23586953.3754                                   23586950.8054
                                                                        43.0004
        27.7504
  -5479082.87548  -4232054.10946
                  21393978.1804                                   21393973.6764
                                                                        50.7504
        41.0004
  -4520985.43448  -3489881.51246
                  20714024.3364                                   20714020.4734
                                                                        52.0004
        40.7504
   1381584.64548   1089910.82845
                  21520469.2114                                   21520464.4964
                                                                        49.5004
        34.2504
  -2935200.73047  -2252473.31244
                  23699814.1724                                   23699808.8794
                                                                        42.0004
        24.0004
   4919129.36346   3835341.15243
                  24008078.5554                                   24008070.7584
                                                                        41.2504
        18.2504
  -2546711.93448  -1955720.48446
                  21911609.0944                                   21911605.2854
                                                                        49.2504
        37.7504
  -2806790.84447  -2149055.90644
                  23609539.0784                                   23609534.8954
                                                                        43.7504
        29.7504
 09 10 30 23 43 30.0000000  0  9G02G04G05G10G13G16G23G29G07
   1853715.41448   1457807.35246
                  20910079.2114                                   20910073.2304
                                                                        52.0004
        41.0004
   5509269.40247   4292696.73444
                  23591624.8364                                   23591621.0434
                                                                        43.0004
        28.2504
  -5637602.44948  -4355575.83246
                  21363813.1804                                   21363808.3834
                                                                        51.0004
        40.7504
  -4659869.11748  -3598102.55946
                  20687595.7504                                   20687591.4884
                                                                        52.5004
        40.5004
   1347495.44948   1063347.82445
                  21513982.7114                                   21513977.5904
                                                                        49.7504
        34.0004
  -3063452.09846  -2352409.42244
                  23675408.5314                                   23675403.5864
                                                                        41.7504
        25.0004
   4936577.39847   3848937.02743
                  24011399.1724                                   24011391.6604
                                                                        42.2504
        20.7504
  -2648784.57448  -2035257.59446
                  21892185.3674                                   21892180.9694
                                                                        49.2504
        37.5004
  -2979613.83247  -2283723.20744
                  23576652.1094                                   23576647.4844
                                                                        43.0004
        28.5004
 09 10 30 23 44  0.0000000  0  9G02G04G05G10G13G16G23G29G07
   1826726.10948   1436776.71946
                  20904943.3364                                   20904936.8754
                                                                        52.0004
        41.2504
   5534085.94147   4312034.35944
                  23596347.2504                                   23596343.6414
                                                                        44.2504
        26.5004
  -5795610.73848  -4478699.15246
                  21333744.5394                                   21333740.2854
                                                                        50.0004
        40.7504
  -4798137.78148  -3705844.36746
                  20661284.2894                                   20661279.9024
                                                                        51.7504
        41.0004
   1314078.20748   1037308.42245
                  21507623.2034                                   21507618.7894
                                                                        49.0004
        34.0004
  -3191044.64546  -2451832.19543
                  23651128.9064                                   23651123.5314
                                                                        41.2504
        23.7504
   4954371.23047   3862802.35244
                  24014785.1024                                   24014777.9574
                                                                        42.5004
        24.7504
  -2750153.45348  -2114246.33246
                  21872895.4144                                   21872891.2424
                                                                        49.2504
        37.7504
  -3151972.80947  -2418028.84444
                  23543852.6414                                   23543848.9804
                                                                        43.2504
        26.7504
 09 10 30 23 44 30.0000000  0  9G02G04G05G10G13G16G23G29G07
   1800348.94948   1416223.10546
                  20899924.2194                                   20899917.4304
                                                                        52.0004
        41.0004
   5559172.18847   4331582.05544
                  23601121.2894                                   23601116.9694
                                                                        44.5004
        26.5004
  -5953103.18748  -4601420.54746
                  21303775.2194                                   21303770.8954
                                                                        50.0004
        40.7504
  -4935787.62148  -3813103.97746
                  20635090.2814                                   20635086.2424
                                                                        51.2504
        41.0004
   1281333.46148   1011793.03145
                  21501392.1564                                   21501387.0594
                                                                        48.5004
        34.5004
  -3317973.68046  -2550737.92244
                  23626974.8674                                   23626969.9384
                                                                        40.5004
        25.5004
   4972511.28547   3876937.44944
                  24018236.7894                                   24018230.1954
                                                                        43.7504
        25.7504
  -2850815.14548  -2192684.01246
                  21853740.1484                                   21853735.7664
                                                                        48.7504
        37.5004
  -3323862.26647  -2551968.66444
                  23511143.4774                                   23511138.9964
                                                                        43.5004
        26.2504
 09 10 30 23 45  0.0000000  0  8G02G04G05G10G13G16G29G07
   3349996.64848   2623740.78146
                  21194812.4144                                   21194805.7704
                                                                        51.5004
        41.2504
   7159939.59047   5578933.33244
                  23905736.7664                                   23905732.5704
                                                                        44.0004
        26.7504
  -4534658.82048  -3496139.19546
                  21573695.9064                                   21573691.6134
                                                                        50.5004
        41.0004
  -3497398.30548  -2692281.12946
                  20908806.8284                                   20908802.8094
                                                                        52.0004
        40.7504
   2824674.74648   2214396.65645
                  21795080.4304                                   21795075.0004
                                                                        49.0004
        33.5004
  -1868819.73446  -1421527.05544
                  23902739.1884                                   23902734.6334
                                                                        41.7504
        25.0004
  -1375351.83648  -1042972.33646
                  22134511.6414                                   22134507.7114
                                                                        49.2504
        37.7504
  -1919859.57847  -1457940.55144
                  23778316.1644                                   23778311.3364
                                                                        44.2504
        27.7504
 09 10 30 23 45 30.0000000  0  8G02G04G05G10G13G16G29G07
   3324827.73848   2604128.64546
                  21190022.7664                                   21190016.4384
                                                                        51.7504
        41.2504
   7185549.30547   5598888.95344
                  23910609.4774                                   23910606.7034
                                                                        42.0004
        25.0004
  -4691124.64848  -3618060.59446
                  21543921.6024                                   21543917.2774
                                                                        50.5004
        41.5004
  -3633815.77748  -2798580.44146
                  20882847.3984                                   20882842.8364
                                                                        52.0004
        41.0004
   2793259.33648   2189917.09445
                  21789102.1334                                   21789097.0044
                                                                        49.5004
        34.0004
  -1994427.78547  -1519403.46144
                  23878837.6254                                   23878832.0234
                                                                        42.5004
        25.2504
  -1474607.85548  -1120314.68446
                  22115623.7664                                   22115619.5634
                                                                        48.2504
        38.0004
  -2090811.77747  -1591150.02744
                  23745785.2584                                   23745780.0004
                                                                        44.2504
        28.2504
 09 10 30 23 46  0.0000000  0  8G02G04G05G10G13G16G29G07
   3300259.86748   2584984.85246
                  21185347.7034                                   21185341.4844
                                                                        51.7504
        41.0004
   7211416.41046   5619045.06644
                  23915532.1644                                   23915529.1484
                                                                        41.0004
        26.0004
  -4847075.81648  -3739580.97346
                  21514244.9694                                   21514240.2664
                                                                        50.0004
        40.5004
  -3769616.38348  -2904399.09846
                  20857005.4694                                   20857001.3874
                                                                        52.0004
        41.2504
   2762504.48848   2165952.27745
                  21783249.7504                                   21783244.8014
                                                                        49.7504
        33.2504
  -2119374.06247  -1616764.18444
                  23855060.9224                                   23855055.3954
                                                                        42.5004
        24.2504
  -1573161.52748  -1197109.75446
                  22096869.5474                                   22096865.3524
                                                                        48.5004
        37.5004
  -2261292.45747  -1723992.15644
                  23713344.2504                                   23713338.9344
                                                                        44.5004
        27.7504
 09 10 30 23 46 30.0000000  0  8G02G04G05G10G13G16G29G07
   3276295.62148   2566311.41446
                  21180787.3054                                   21180781.0704
                                                                        51.2504
        41.0004
   7237543.50047   5639403.82444
                  23920503.9064                                   23920501.1684
                                                                        43.2504
        26.5004
  -5002506.12548  -3860695.49246
                  21484667.7034                                   21484662.9184
                                                                        51.7504
        41.0004
  -3904794.47748  -3009732.66446
                  20831281.5864                                   20831277.6804
                                                                        52.2504
        41.5004
   2732412.37948   2142503.87945
                  21777523.4384                                   21777518.3954
                                                                        49.0004
        33.5004
  -2243652.91446  -1713604.84843
                  23831410.9844                                   23831405.9774
                                                                        41.2504
        22.7504
  -1671007.68748  -1273353.51646
                  22078250.0554                                   22078245.9224
                                                                        49.2504
        37.2504
  -2431294.12947  -1856461.00045
                  23680993.8284                                   23680989.0744
                                                                        45.2504
        30.7504
 09 10 30 23 47  0.0000000  0  8G02G04G05G10G13G16G29G07
   3252933.82848   2548107.42246
                  21176341.8984                                   21176335.6454
                                                                        51.5004
        40.2504
   7263928.50047   5659963.57844
                  23925525.7344                                   23925522.5634
                                                                        44.2504
        28.5004
  -5157413.72748  -3981402.69946
                  21455189.6334                                   21455185.2304
                                                                        51.0004
        41.0004
  -4039348.36748  -3114579.82846
                  20805676.9844                                   20805673.0594
                                                                        52.5004
        41.0004
   2702981.28148   2119570.56645
                  21771922.7894                                   21771917.7074
                                                                        49.0004
        34.2504
  -2367262.41446  -1809923.93743
                  23807889.0944                                   23807883.7814
                                                                        41.5004
        22.5004
  -1768145.53948  -1349045.35246
                  22059765.1804                                   22059761.1644
                                                                        48.7504
        37.7504
  -2600813.64147  -1988554.07845
                  23648735.3914                                   23648730.7384
                                                                        46.2504
        30.2504
 09 10 30 23 47 30.0000000  0  8G02G04G05G10G13G16G29G07
   3230163.52048   2530364.32846
                  21172008.9064                                   21172002.3524
                                                                        50.7504
        40.0004
   7290559.75847   5680715.08644
                  23930593.6174                                   23930590.0664
                                                                        45.0004
        28.5004
  -5311806.02748  -4101708.36746
                  21425809.7194                                   21425805.2074
                                                                        49.7504
        41.0004
  -4173285.92248  -3218946.72746
                  20780189.4774                                   20780185.3484
                                                                        52.0004
        41.2504
   2674199.98448   2097143.58645
                  21766446.0554                                   21766441.0784
                                                                        48.2504
        33.7504
  -2490210.40247  -1905727.55143
                  23784492.6954                                   23784487.5944
                                                                        42.0004
        23.5004
  -1864583.71548  -1424191.96946
                  22041413.7194                                   22041409.5394
                                                                        48.7504
        38.0004
  -2769857.56247  -2120276.61744
                  23616567.0554                                   23616562.6914
                                                                        44.5004
        29.2504
 09 10 30 23 48  0.0000000  0  8G02G04G05G10G13G16G29G07
   3207979.41848   2513078.07046
                  21167787.2504                                   21167780.7734
                                                                        50.7504
        41.0004
   7317431.36347   5701653.82844
                  23935707.1564                                   23935703.5634
                                                                        43.7504
        26.5004
  -5465685.78548  -4221614.66046
                  21396527.4224                                   21396523.2384
                                                                        51.5004
        41.2504
  -4306610.75448  -3322836.21146
                  20754818.7114                                   20754814.4614
                                                                        52.2504
        41.0004
   2646062.03548   2075217.91445
                  21761091.7734                                   21761087.0004
                                                                        49.0004
        33.5004
  -2612499.87947  -2001018.06643
                  23761222.1484                                   23761216.4454
                                                                        42.0004
        23.5004
  -1960326.00848  -1498796.34846
                  22023194.6414                                   22023190.5904
                                                                        48.0004
        37.7504
  -2938426.98047  -2251629.34844
                  23584489.1644                                   23584484.8714
                                                                        43.2504
        28.5004
 09 10 30 23 48 30.0000000  0  8G02G04G05G10G13G16G29G07
   3186374.43848   2496243.04346
                  21163676.1094                                   21163669.5554
                                                                        51.0004
        41.0004
   7344536.75847   5722774.96544
                  23940864.1884                                   23940861.1214
                                                                        43.0004
        24.0004
  -5619056.41848  -4341124.21146
                  21367341.8134                                   21367337.6024
                                                                        51.0004
        41.5004
  -4439326.26648  -3426250.88346
                  20729563.5784                                   20729559.2934
                                                                        52.5004
        41.2504
   2618560.50848   2053788.15245
                  21755857.9224                                   21755853.0664
                                                                        49.0004
        33.5004
  -2734134.18046  -2095798.05943
                  23738075.4534                                   23738070.0124
                                                                        40.5004
        22.7504
  -2055377.12948  -1572862.16446
                  22005107.1564                                   22005102.7894
                                                                        48.7504
        37.7504
  -3106524.24647  -2382614.13344
                  23552501.2664                                   23552496.9694
                                                                        43.0004
        29.5004
 09 10 30 23 49  0.0000000  0  8G02G04G05G10G13G16G29G07
   3165346.25448   2479857.43446
                  21159674.5314                                   21159668.2234
                                                                        51.0004
        40.5004
   7371872.66447   5744075.73043
                  23946065.8204                                   23946062.6174
                                                                        42.5004
        22.5004
  -5771917.30948  -4460236.55946
                  21338253.6724                                   21338249.1174
                                                                        51.0004
        41.5004
  -4571432.12948  -3529190.50446
                  20704424.9304                                   20704420.4734
                                                                        52.2504
        40.7504
   2591692.35248   2032851.91845
                  21750745.2034                                   21750740.2234
                                                                        49.7504
        33.7504
  -2855112.87146  -2190067.18043
                  23715054.0784                                   23715048.2194
                                                                        41.0004
        22.0004
  -2149737.46148  -1646389.69546
                  21987150.7194                                   21987146.8874
                                                                        49.0004
        37.5004
  -3274147.79747  -2513229.84444
                  23520603.2344                                   23520599.1334
                                                                        42.5004
        29.0004
 09 10 30 23 49 30.0000000  0  8G02G04G05G10G13G16G29G07
   3144889.46948   2463917.06646
                  21155781.8134                                   21155775.0864
                                                                        51.2504
        40.5004
   7399433.78147   5765551.91044
                  23951311.0004                                   23951307.5164
                                                                        43.2504
        25.0004
  -5924269.78948  -4578952.77046
                  21309261.6094                                   21309257.3364
                                                                        50.7504
        40.7504
  -4702930.10248  -3631656.44146
                  20679401.7274                                   20679397.4184
                                                                        52.2504
        41.0004
   2565452.34448   2012405.14145
                  21745752.0234                                   21745747.1844
                                                                        49.0004
        32.5004
  -2975437.54346  -2283826.65643
                  23692156.5234                                   23692150.9734
                                                                        39.0004
        21.5004
  -2243409.64548  -1719381.00446
                  21969325.7584                                   21969321.4734
                                                                        49.0004
        37.5004
  -3441298.02347  -2643476.73444
                  23488796.4614                                   23488791.1884
                                                                        43.0004
        29.0004
 09 10 30 23 50  0.0000000  0  8G02G04G05G10G13G16G29G07
   3125002.28948   2448420.52746
                  21151997.2584                                   21151990.7704
                                                                        50.7504
        40.5004
   7427216.93447   5787201.07444
                  23956598.5554                                   23956595.1604
                                                                        44.7504
        26.5004
  -6076113.14148  -4697272.23846
                  21280367.0314                                   21280362.2384
                                                                        50.5004
        41.0004
  -4833820.37948  -3733648.85246
                  20654494.0554                                   20654489.9384
                                                                        52.2504
        41.0004
   2539837.37148   1992445.40245
                  21740877.6174                                   21740872.6414
                                                                        49.5004
        33.0004
  -3095107.91046  -2377076.29743
                  23669383.9384                                   23669378.8554
                                                                        40.5004
        21.5004
  -2336394.23448  -1791836.52746
                  21951631.0164                                   21951627.2704
                                                                        48.5004
        37.7504
  -3607972.73447  -2773353.11744
                  23457079.2274                                   23457074.4144
                                                                        44.2504
        29.0004
 09 10 30 23 50 30.0000000  0  8G02G04G05G10G13G16G29G07
   3105681.07048   2433365.05146
                  21148320.4614                                   21148314.0164
                                                                        51.5004
        40.0004
   7455218.50447   5809020.41844
                  23961926.8594                                   23961923.9734
                                                                        44.2504
        26.0004
  -6227447.64848  -4815195.21946
                  21251569.1174                                   21251564.4454
                                                                        50.7504
        41.2504
  -4964103.43748  -3835168.12946
                  20629701.9144                                   20629697.7304
                                                                        52.0004
        41.0004
   2514843.27748   1972969.47745
                  21736121.6644                                   21736116.8244
                                                                        48.7504
        34.0004
  -3214124.83246  -2469816.77743
                  23646736.0234                                   23646730.1884
                                                                        40.2504
        22.0004
  -2428692.93448  -1863757.59446
                  21934067.1644                                   21934063.2384
                                                                        49.0004
        37.5004
  -3774170.91447  -2902858.18444
                  23425452.6484                                   23425447.4414
                                                                        45.0004
        28.5004
 09 10 30 23 51  0.0000000  0  8G02G04G05G10G13G16G29G07
   3086921.67648   2418747.31646
                  21144750.5704                                   21144744.3554
                                                                        51.5004
        40.2504
   7483434.05147   5831006.47744
                  23967296.0634                                   23967293.0634
                                                                        44.2504
        27.0004
  -6378274.03148  -4932722.25046
                  21222867.3204                                   21222862.9734
                                                                        51.2504
        41.0004
  -5093780.23848  -3936214.96546
                  20605025.2194                                   20605021.1174
                                                                        52.0004
        41.2504
   2490465.85548   1953974.07845
                  21731482.4534                                   21731477.3134
                                                                        49.2504
        32.0004
  -3332488.80146  -2562048.44543
                  23624212.1884                                   23624206.4534
                                                                        40.7504
        22.0004
  -2520307.43448  -1935145.51246
                  21916633.5004                                   21916629.3094
                                                                        49.5004
        37.2504
  -3939892.21547  -3031991.68044
                  23393917.4384                                   23393911.6684
                                                                        44.5004
        28.5004
 09 10 30 23 51 30.0000000  0  8G02G04G05G10G13G16G29G07
   3068722.85248   2404566.39546
                  21141287.4694                                   21141281.0704
                                                                        51.5004
        40.7504
   7511861.98447   5853157.99244
                  23972706.2274                                   23972702.8674
                                                                        43.7504
        28.0004
  -6528590.43448  -5049851.89846
                  21194263.1254                                   21194258.6524
                                                                        50.5004
        41.0004
  -5222849.00448  -4036788.02346
                  20580464.2114                                   20580460.0824
                                                                        52.2504
        41.5004
   2466703.14148   1935457.67645
                  21726960.7274                                   21726955.7814
                                                                        48.5004
        33.5004
  -3450198.43446  -2653770.23443
                  23601812.4614                                   23601807.4534
                                                                        40.2504
        22.5004
  -2611237.19948  -2005999.86746
                  21899330.0234                                   21899325.8984
                                                                        48.7504
        37.7504
  -4105133.76247  -3160751.35244
                  23362472.6484                                   23362467.3094
                                                                        44.5004
        28.7504
 09 10 30 23 52  0.0000000  0  8G02G04G05G10G13G16G29G07
   3051081.00848   2390819.50846
                  21137930.5554                                   21137924.2384
                                                                        51.2504
        40.7504
   7540498.16847   5875471.82044
                  23978155.4454                                   23978152.4734
                                                                        42.0004
        26.5004
  -6678397.25448  -5166584.48046
                  21165755.9614                                   21165751.9144
                                                                        51.5004
        40.7504
  -5351311.02748  -4136888.30146
                  20556018.4534                                   20556014.3444
                                                                        52.0004
        41.0004
   2443550.98448   1917417.02345
                  21722554.5474                                   21722550.1024
                                                                        49.2504
        32.7504
  -3567254.19547  -2744982.52743
                  23579538.4924                                   23579532.2704
                                                                        42.0004
        22.5004
  -2701483.78148  -2076321.88346
                  21882156.8444                                   21882152.9344
                                                                        49.2504
        37.5004
  -4269894.47747  -3289136.28544
                  23331119.2274                                   23331114.6054
                                                                        42.2504
        28.7504
 09 10 30 23 52 30.0000000  0  8G02G04G05G10G13G16G29G07
   3033990.53148   2377502.26646
                  21134678.1254                                   21134672.1214
                                                                        51.2504
        40.7504
   7569336.85546   5897943.47744
                  23983642.7664                                   23983639.8794
                                                                        41.0004
        25.5004
  -6827696.28548  -5282921.38346
                  21137345.4384                                   21137341.1054
                                                                        52.2504
        41.5004
  -5479169.28548  -4236518.09846
                  20531688.0084                                   20531683.8874
                                                                        52.2504
        40.7504
   2421003.18048   1899847.27045
                  21718264.3204                                   21718259.5164
                                                                        48.7504
        32.7504
  -3683659.23346  -2835687.74743
                  23557387.0004                                   23557381.2114
                                                                        41.7504
        22.5004
  -2791051.17648  -2146114.64846
                  21865112.8364                                   21865108.6684
                                                                        49.7504
        38.0004
  -4434175.74647  -3417147.63344
                  23299857.0394                                   23299853.0354
                                                                        43.0004
        29.7504
 09 10 30 23 53  0.0000000  0  8G02G04G05G10G13G16G29G07
   3017451.31648   2364614.55146
                  21131530.8054                                   21131524.5234
                                                                        51.0004
        40.0004
   7598377.94946   5920572.94543
                  23989168.8754                                   23989165.1914
                                                                        40.0004
        22.7504
  -6976484.95748  -5398860.60946
                  21109032.1414                                   21109027.5904
                                                                        51.5004
        41.5004
  -5606420.37948  -4335674.78946
                  20507473.1884                                   20507468.9104
                                                                        52.0004
        41.2504
   2399059.62948   1882748.37545
                  21714088.3204                                   21714083.5944
                                                                        49.0004
        32.5004
  -3799410.12546  -2925883.26243
                  23535360.0864                                   23535354.8054
                                                                        41.5004
        22.7504
  -2879937.09048  -2215376.39546
                  21848198.3444                                   21848194.3484
                                                                        49.5004
        37.7504
  -4597972.84447  -3544781.71545
                  23268688.0474                                   23268683.6024
                                                                        43.5004
        30.0004
 09 10 30 23 53 30.0000000  0  8G02G04G05G10G13G16G29G07
   3001458.63348   2352152.69946
                  21128487.4924                                   21128481.2424
                                                                        51.0004
        40.0004
   7627615.84846   5943355.69143
                  23994732.3914                                   23994729.1684
                                                                        39.7504
        22.2504
  -7124764.56648  -5514403.16446
                  21080815.1254                                   21080810.9104
                                                                        51.0004
        41.5004
  -5733066.49248  -4434360.07446
                  20483373.0864                                   20483368.7854
                                                                        51.7504
        41.0004
   2377714.81648   1866116.04745
                  21710026.6884                                   21710021.7854
                                                                        48.0004
        32.5004
  -3914508.66046  -3015570.44544
                  23513457.6564                                   23513452.3404
                                                                        40.7504
        24.5004
  -2968144.28148  -2284109.27746
                  21831413.1414                                   21831409.0204
                                                                        49.7504
        37.7504
  -4761286.21547  -3672038.81645
                  23237610.6804                                   23237606.4694
                                                                        43.5004
        30.0004
 09 10 30 23 54  0.0000000  0  8G02G04G05G10G13G16G29G07
   4561430.95748   3567715.57046
                  21425340.3834                                   21425334.1564
                                                                        50.7504
        40.0004
   9232467.53147   7193889.42643
                  24300126.5634                                   24300122.9774
                                                                        42.0004
        23.7504
  -5697109.00448  -4401944.29746
                  21352488.9304                                   21352484.7114
                                                                        51.5004
        41.5004
  -4283683.21548  -3304970.51646
                  20759181.5554                                   20759177.4964
                                                                        52.5004
        40.7504
   3932386.70748   3077548.68045
                  22005870.6024                                   22005866.3364
                                                                        48.0004
        32.0004
  -2453530.41446  -1877145.81644
                  23791472.8524                                   23791467.0514
                                                                        41.2504
        24.0004
  -1480250.12548  -1124711.22346
                  22114549.9614                                   22114546.3634
                                                                        49.7504
        38.2504
  -3348688.12547  -2571312.98445
                  23506419.0314                                   23506414.4304
                                                                        43.0004
        30.0004
 09 10 30 23 54 30.0000000  0  8G02G04G05G10G13G16G29G07
   4546526.91848   3556102.03146
                  21422504.5864                                   21422498.0234
                                                                        51.2504
        40.2504
   9262094.17247   7216975.06644
                  24305764.4924                                   24305761.1454
                                                                        44.0004
        26.7504
  -5844364.87548  -4516689.12146
                  21324466.9064                                   21324462.5634
                                                                        50.7504
        41.5004
  -4409116.11748  -3402710.43046
                  20735312.7034                                   20735308.6994
                                                                        51.5004
        40.5004
   3912233.18048   3061844.62145
                  22002035.7424                                   22002030.9304
                                                                        48.5004
        31.7504
  -2567320.35246  -1965813.29344
                  23769819.4224                                   23769814.3834
                                                                        40.0004
        24.2504
  -1567098.75448  -1192385.48046
                  22098023.1804                                   22098019.4144
                                                                        50.0004
        37.7504
  -3511025.41847  -2697809.58245
                  23475527.0634                                   23475523.1764
                                                                        42.2504
        30.5004
 09 10 30 23 55  0.0000000  0  8G02G04G05G10G13G16G29G07
   4532162.68448   3544909.12546
                  21419770.8594                                   21419764.6844
                                                                        51.2504
        40.2504
   9291910.11347   7240208.16844
                  24311437.9144                                   24311434.9804
                                                                        43.7504
        28.5004
  -5991108.41048  -4631034.72347
                  21296542.6804                                   21296538.2704
                                                                        50.7504
        42.0004
  -4533942.46948  -3499977.72746
                  20711558.8364                                   20711554.7774
                                                                        51.7504
        41.5004
   3892670.20748   3046600.75045
                  21998313.0004                                   21998308.3914
                                                                        48.2504
        31.7504
  -2680456.55946  -2053971.36744
                  23748290.0864                                   23748285.4774
                                                                        41.5004
        25.2504
  -1653269.97348  -1259531.88746
                  22081625.3054                                   22081621.4344
                                                                        49.5004
        37.7504
  -3672872.56647  -2823924.21945
                  23444729.2034                                   23444724.0314
                                                                        44.5004
        30.7504
 09 10 30 23 55 30.0000000  0  8G02G04G05G10G13G16G29G07
   4518336.53548   3534135.50046
                  21417140.0784                                   21417133.4304
                                                                        51.5004
        39.7504
   9321913.67247   7263587.52744
                  24317148.1484                                   24317145.0204
                                                                        43.5004
        27.5004
  -6137337.88348  -4744979.75847
                  21268715.9844                                   21268711.8324
                                                                        52.0004
        42.0004
  -4658161.21148  -3596771.55546
                  20687920.7114                                   20687916.7304
                                                                        52.0004
        41.0004
   3873695.50048   3031815.26645
                  21994702.4924                                   21994697.3754
                                                                        49.0004
        32.2504
  -2792937.46946  -2141618.83644
                  23726885.7274                                   23726880.6884
                                                                        41.2504
        26.0004
  -1738763.25048  -1326150.01246
                  22065356.6094                                   22065352.6294
                                                                        50.0004
        37.7504
  -3834226.35947  -2949654.42645
                  23414023.9304                                   23414019.1454
                                                                        42.7504
        30.0004
 09 10 30 23 56  0.0000000  0  8G02G04G05G10G13G16G29G07
   4505046.21148   3523779.41046
                  21414610.8444                                   21414604.4264
                                                                        51.0004
        40.0004
   9352102.16846   7287110.95344
                  24322891.6094                                   24322889.5394
                                                                        40.5004
        24.5004
  -6283053.45348  -4858524.35246
                  21240987.1414                                   21240983.1764
                                                                        51.5004
        41.5004
  -4781771.89548  -3693091.56646
                  20664398.2814                                   20664394.0634
                                                                        52.0004
        41.0004
   3855306.02048   3017485.78945
                  21991203.2274                                   21991198.3444
                                                                        48.5004
        32.5004
  -2904762.64546  -2228755.32444
                  23705606.1724                                   23705601.0944
                                                                        41.2504
        25.2504
  -1823579.22348  -1392240.36746
                  22049216.4144                                   22049212.9104
                                                                        48.7504
        38.7504
  -3995084.93747  -3074998.72345
                  23383413.6254                                   23383408.6484
                                                                        44.2504
        30.0004
 09 10 30 23 56 30.0000000  0  8G02G04G05G10G13G16G29G07
   4492286.58648   3513836.83246
                  21412182.7344                                   21412176.5084
                                                                        51.7504
        40.2504
   9382470.46946   7310774.49243
                  24328670.4534                                   24328667.9414
                                                                        40.5004
        22.5004
  -6428257.79348  -4971670.58646
                  21213355.9454                                   21213351.5204
                                                                        51.0004
        41.5004
  -4904776.30948  -3788939.16446
                  20640991.2974                                   20640987.3984
                                                                        52.2504
        41.2504
   3837496.41048   3003608.15245
                  21987813.9144                                   21987808.8914
                                                                        48.5004
        32.5004
  -3015934.03546  -2315382.37144
                  23684450.8054                                   23684445.9184
                                                                        41.2504
        25.7504
  -1907720.90648  -1457805.31646
                  22033204.9384                                   22033200.7584
                                                                        48.7504
        38.5004
  -4155449.09847  -3199957.80144
                  23352897.3284                                   23352892.2774
                                                                        45.0004
        29.7504
 09 10 30 23 57  0.0000000  0  8G02G04G05G10G13G16G29G07
   4480055.23048   3504305.90246
                  21409855.1334                                   21409849.0164
                                                                        51.0004
        40.0004
   9413015.70747   7334575.91043
                  24334483.9694                                   24334480.4064
                                                                        43.5004
        23.7504
  -6572942.83648  -5084412.17646
                  21185823.2894                                   21185819.1644
                                                                        52.0004
        41.5004
  -5027174.48048  -3884314.36346
                  20617699.9224                                   20617695.7114
                                                                        52.0004
        41.0004
   3820263.52048   2990179.91445
                  21984534.7814                                   21984530.3164
                                                                        48.0004
        32.0004
  -3126451.46947  -2401499.84444
                  23663419.9614                                   23663415.3954
                                                                        42.0004
        25.7504
  -1991189.31248  -1522845.62946
                  22017321.3754                                   22017317.6024
                                                                        49.7504
        38.2504
  -4315316.66447  -3324529.91445
                  23322475.6644                                   23322470.4574
                                                                        44.5004
        30.0004
 09 10 30 23 57 30.0000000  0  8G02G04G05G10G13G16G29G07
   4468350.34848   3495185.21546
                  21407627.9064                                   21407621.5474
                                                                        52.0004
        39.5004
   9443736.09047   7358513.91444
                  24340329.8594                                   24340326.2584
                                                                        43.5004
        24.0004
  -6717112.63748  -5196752.26646
                  21158388.7894                                   21158384.1994
                                                                        51.0004
        41.5004
  -5148965.45348  -3979216.41446
                  20594523.6644                                   20594519.5744
                                                                        51.2504
        41.0004
   3803605.55548   2977199.68845
                  21981364.6724                                   21981359.8984
                                                                        48.7504
        31.5004
  -3236313.82046  -2487106.88344
                  23642514.2344                                   23642509.0084
                                                                        41.7504
        26.0004
  -2073983.72748  -1587360.76646
                  22001566.1724                                   22001562.2464
                                                                        49.0004
        38.2504
  -4474684.72347  -3448712.79344
                  23292148.6024                                   23292144.2584
                                                                        43.7504
        29.5004
 09 10 30 23 58  0.0000000  0  8G02G04G05G10G13G16G29G07
   4457172.70348   3486475.37546
                  21405500.6174                                   21405494.0594
                                                                        51.7504
        39.7504
   9474632.09847   7382588.81643
                  24346208.9694                                   24346205.5044
                                                                        44.0004
        22.5004
  -6860765.36348  -5308689.44546
                  21131052.5234                                   21131048.1524
                                                                        51.0004
        41.5004
  -5270145.55148  -4073642.44146
                  20571464.1174                                   20571459.9614
                                                                        51.7504
        41.7504
   3787522.42247   2964667.38345
                  21978304.2664                                   21978299.4494
                                                                        47.7504
        31.5004
  -3345517.66447  -2572200.78144
                  23621732.9064                                   23621728.0824
                                                                        42.0004
        26.5004
  -2156101.87948  -1651348.95346
                  21985939.7424                                   21985935.8674
                                                                        49.5004
        38.2504
  -4633548.47746  -3572502.69544
                  23261917.6884                                   23261913.3284
                                                                        41.2504
        28.7504
 09 10 30 23 58 30.0000000  0  8G02G04G05G10G13G16G29G07
   4446515.18848   3478170.81646
                  21403472.6804                                   21403466.7544
                                                                        51.5004
        39.7504
   9505696.48047   7406794.82844
                  24352120.2194                                   24352116.6884
                                                                        42.5004
        24.0004
  -7003903.02348  -5420225.27347
                  21103814.4694                                   21103809.6914
                                                                        52.0004
        42.0004
  -5390719.64548  -4167596.30146
                  20548519.5474                                   20548515.5434
                                                                        52.0004
        41.2504
   3772006.37148   2952576.94945
                  21975351.4304                                   21975346.6174
                                                                        48.0004
        32.0004
  -3454067.35547  -2656784.93744
                  23601076.5864                                   23601072.1374
                                                                        42.7504
        26.0004
  -2237549.03148  -1714814.25846
                  21970440.7974                                   21970436.4734
                                                                        49.7504
        38.0004
  -4791910.47347  -3695901.64544
                  23231782.5864                                   23231778.0904
                                                                        43.0004
        28.7504
 09 10 30 23 59  0.0000000  0  8G02G04G05G10G13G16G29G07
   4436373.47348   3470268.17646
                  21401542.8134                                   21401536.6954
                                                                        51.5004
        39.5004
   9536924.95747   7431128.72744
                  24358062.6174                                   24358059.5434
                                                                        43.2504
        24.2504
  -7146525.12548  -5531359.39847
                  21076674.4454                                   21076669.4734
                                                                        51.5004
        42.0004
  -5510688.60248  -4261078.61346
                  20525690.1334                                   20525685.9344
                                                                        52.5004
        41.5004
   3757052.94548   2940924.95345
                  21972506.1174                                   21972500.8594
                                                                        48.0004
        32.2504
  -3561964.15247  -2740860.37544
                  23580545.2734                                   23580539.6414
                                                                        43.2504
        25.2504
  -2318327.71148  -1777758.66846
                  21955069.1644                                   21955064.6214
                                                                        48.7504
        38.0004
  -4949770.42647  -3818909.38345
                  23201743.2734                                   23201738.1914
                                                                        44.0004
        30.5004
 09 10 30 23 59 30.0000000  0  8G02G04G05G10G13G16G29G07
   4426747.10248   3462767.10246
                  21399711.0164                                   21399704.5554
                                                                        51.0004
        39.7504
   9568316.30947   7455589.51644
                  24364036.3134                                   24364033.3404
                                                                        43.0004
        26.2504
  -7288629.87948  -5642090.38346
                  21049632.3674                                   21049627.9534
                                                                        51.7504
        41.7504
  -5630050.41848  -4354087.82446
                  20502976.2974                                   20502971.9534
                                                                        52.0004
        41.5004
   3742660.71948   2929710.24645
                  21969767.8134                                   21969762.6094
                                                                        48.0004
        32.0004
  -3669205.78946  -2824425.28944
                  23560137.7814                                   23560132.2234
                                                                        41.2504
        24.5004
  -2398436.57848  -1840181.16046
                  21939824.9774                                   21939820.7344
                                                                        48.5004
        38.0004
  -5107124.61347  -3941523.00845
                  23171799.5634                                   23171795.1254
                                                                        43.2504
        31.5004
