     2.11           OBSERVATION DATA    G (GPS)             RINEX VERSION / TYPE
teqc  2019Feb25                         20221121 12:28:09UTCPGM / RUN BY / DATE
OSX ker:10.11.6|Core i5|gcc 4.3 -m64|OSX ker:10.10+|=+      COMMENT
BIT 2 OF LLI FLAGS DATA COLLECTED UNDER A/S CONDITION       COMMENT
04712820                                                    MARKER NAME
2820                                                        MARKER NUMBER
-Unknown-           -Unknown-                               OBSERVER / AGENCY
0220400471          TRIMBLE R7          2.30                REC # / TYPE / VERS
-Unknown-           TRM39105.00     NONE                    ANT # / TYPE
  1449459.6639 -1709239.9863  5952441.1157                  APPROX POSITION XYZ
        0.0000        0.0000        0.0000                  ANTENNA: DELTA H/E/N
     1     1                                                WAVELENGTH FACT L1/2
    20    L1    L2    L5    L6    L7    L8    C1    P1    C2# / TYPES OF OBSERV
          P2    C5    C6    C7    C8    S1    S2    S5    S6# / TYPES OF OBSERV
          S7    S8                                          # / TYPES OF OBSERV
    30.0000                                                 INTERVAL
    15                                                      LEAP SECONDS
Forced Modulo Decimation to 30 seconds                      COMMENT
 SNR is mapped to RINEX snr flag value [0-9]                COMMENT
  L1 & L2: min(max(int(snr_dBHz/6), 0), 9)                  COMMENT
teqc edited: Beidou # 1 - 37 excluded                       COMMENT
  2009    10     9     0     0    0.0000000     GPS         TIME OF FIRST OBS
                                                            END OF HEADER
 09 10  9  0  0  0.0000000  0  9G02G04G05G13G31G29G23G30G10
 -14586407.99648 -11325135.54347
                  20478721.6334                                   20478716.3984
                                                                        53.0004
        43.5004
  -6129786.17648  -4755555.10546
                  21069240.9844                                   21069237.8834
                                                                        52.2504
        40.5004
   -721812.18047   -517713.71944
                  24223324.9454                                   24223321.5784
                                                                        45.2504
        28.5004
 -16807883.47748 -13048206.04746
                  21433990.3204                                   21433986.9924
                                                                        52.0004
        36.5004
  -4495505.17246  -3498651.74644
                  24191698.0944                                   24191695.3204
                                                                        40.0004
        28.2504
  -8153823.04747  -6314651.04345
                  23587656.7034                                   23587654.6914
                                                                        43.5004
        30.0004
  -8521527.48048  -6610952.78945
                  21991711.8364                                   21991706.0784
                                                                        49.5004
        34.0004
  -5444188.06247  -4223284.16844
                  23187800.0234                                   23187797.7774
                                                                        42.2504
        28.2504
  -6851769.94547  -5322386.66045
                  23388766.3134                                   23388764.3594
                                                                        42.5004
        30.2504
 09 10  9  0  0 30.0000000  0  9G02G04G05G13G31G29G23G30G10
 -14705433.66848 -11417882.82047
                  20456071.9064                                   20456066.2384
                                                                        52.5004
        43.2504
  -6165227.99248  -4783172.09446
                  21062496.7424                                   21062493.8484
                                                                        53.2504
        41.0004
   -931390.72747   -681021.62544
                  24183443.1094                                   24183440.0744
                                                                        43.7504
        28.5004
 -16946589.31648 -13156288.47746
                  21407595.5864                                   21407591.8794
                                                                        51.0004
        36.7504
  -4529507.11347  -3525146.75044
                  24185228.5474                                   24185224.4304
                                                                        42.7504
        27.5004
  -8339512.65247  -6459344.17645
                  23552321.7974                                   23552319.5664
                                                                        44.7504
        30.5004
  -8575423.69948  -6652949.83245
                  21981455.6024                                   21981449.8984
                                                                        49.2504
        34.5004
  -5469272.16847  -4242830.21144
                  23183026.9614                                   23183024.3164
                                                                        43.2504
        26.7504
  -7059873.85547  -5484545.53144
                  23349165.1564                                   23349162.8094
                                                                        43.0004
        29.5004
 09 10  9  0  1  0.0000000  0  9G02G04G05G13G31G29G23G30G10
 -14823906.55148 -11510199.34047
                  20433527.1564                                   20433521.9264
                                                                        52.7504
        43.7504
  -6200199.57048  -4810422.66446
                  21055841.6884                                   21055838.6374
                                                                        53.7504
        41.7504
  -1140845.00047   -844232.71944
                  24143585.3524                                   24143582.1884
                                                                        42.0004
        27.7504
 -17084675.88348 -13263888.36346
                  21381318.4844                                   21381314.9614
                                                                        51.2504
        37.0004
  -4563038.17647  -3551274.81644
                  24178847.3444                                   24178843.3674
                                                                        43.0004
        27.2504
  -8524871.18447  -6603779.37145
                  23517048.9224                                   23517046.4574
                                                                        45.5004
        30.5004
  -8628740.04348  -6694495.01245
                  21971310.0704                                   21971304.4184
                                                                        49.5004
        34.0004
  -5493848.22747  -4261980.38744
                  23178350.1174                                   23178347.3634
                                                                        44.0004
        26.7504
  -7267771.68747  -5646543.85544
                  23309604.2894                                   23309601.1954
                                                                        45.2504
        29.7504
 09 10  9  0  1 30.0000000  0  9G02G04G05G13G31G29G23G30G10
 -14941829.26648 -11602087.16447
                  20411086.9064                                   20411081.6254
                                                                        53.5004
        43.7504
  -6234705.56648  -4837310.44946
                  21049275.3284                                   21049272.6884
                                                                        52.7504
        41.0004
  -1350176.35246  -1007348.01244
                  24103750.2274                                   24103747.7704
                                                                        40.5004
        26.7504
 -17222144.10548 -13371006.44546
                  21355159.5084                                   21355155.5084
                                                                        51.2504
        36.0004
  -4596102.96546  -3577039.57044
                  24172555.3134                                   24172552.0004
                                                                        40.7504
        26.5004
  -8709898.65647  -6747956.60545
                  23481839.6024                                   23481836.6604
                                                                        45.7504
        30.5004
  -8681480.69948  -6735591.62945
                  21961274.0004                                   21961268.0004
                                                                        49.5004
        33.7504
  -5517922.18047  -4280739.32044
                  23173769.2034                                   23173766.3054
                                                                        44.5004
        26.0004
  -7475464.84447  -5808382.72745
                  23270082.3754                                   23270078.5904
                                                                        46.0004
        30.5004
 09 10  9  0  2  0.0000000  0  9G02G04G05G13G31G29G23G30G10
 -15059195.78148 -11693541.59047
                  20388753.0784                                   20388747.8244
                                                                        53.0004
        43.2504
  -6268743.28948  -4863833.35246
                  21042798.2034                                   21042795.6094
                                                                        52.5004
        41.0004
  -1559377.96546  -1170362.13744
                  24063940.8444                                   24063938.9414
                                                                        41.2504
        29.2504
 -17358988.28948 -13477638.23846
                  21329118.6414                                   21329114.6994
                                                                        51.2504
        36.0004
  -4628699.02346  -3602439.08644
                  24166352.0864                                   24166348.8094
                                                                        40.0004
        27.0004
  -8894588.13747  -6891870.47344
                  23446694.1414                                   23446690.9844
                                                                        45.2504
        29.2504
  -8733642.84448  -6776237.43445
                  21951347.3984                                   21951341.6254
                                                                        50.0004
        34.0004
  -5541492.00847  -4299105.41844
                  23169284.1884                                   23169281.5474
                                                                        43.7504
        27.5004
  -7682946.10947  -5970056.48845
                  23230598.8594                                   23230595.9774
                                                                        47.0004
        30.0004
 09 10  9  0  2 30.0000000  0  9G02G04G05G13G31G29G23G30G10
 -15176004.90648 -11784561.68447
                  20366525.1334                                   20366519.9574
                                                                        52.7504
        43.2504
  -6302313.53148  -4889991.98046
                  21036410.1564                                   21036406.8204
                                                                        53.0004
        40.5004
  -1768447.87947  -1333273.69145
                  24024156.3524                                   24024153.8714
                                                                        43.5004
        31.5004
 -17495206.54748 -13583782.32846
                  21303197.1564                                   21303193.4734
                                                                        51.0004
        36.7504
  -4660828.45746  -3627475.05144
                  24160237.3444                                   24160234.7194
                                                                        41.0004
        24.5004
  -9078936.99247  -7035518.93044
                  23411613.6484                                   23411610.5274
                                                                        44.0004
        28.0004
  -8785227.43048  -6816433.21545
                  21941531.2194                                   21941526.0314
                                                                        49.7504
        34.5004
  -5564560.44547  -4317080.79744
                  23164894.6174                                   23164891.8954
                                                                        45.0004
        29.5004
  -7890212.94547  -6131563.16044
                  23191156.8754                                   23191154.6024
                                                                        45.0004
        29.5004
 09 10  9  0  3  0.0000000  0  9G02G04G05G13G31G29G23G30G10
 -13716825.43048 -10647538.64847
                  20644197.6174                                   20644192.4694
                                                                        52.5004
        43.5004
  -4759990.53548  -3688181.84046
                  21329904.3284                                   21329901.5434
                                                                        52.7504
        40.2504
   -401950.39147   -268470.39545
                  24284192.4454                                   24284189.1294
                                                                        43.7504
        31.0004
 -16055366.45748 -12461828.99646
                  21577189.5004                                   21577185.7544
                                                                        51.7504
        37.0004
  -3117065.98446  -2424543.27044
                  24454006.5004                                   24454002.9064
                                                                        41.7504
        25.0004
  -7687509.91047  -5951290.03144
                  23676393.8524                                   23676390.5314
                                                                        44.7504
        29.7504
  -7260808.01248  -5628573.92645
                  22231618.7034                                   22231612.6644
                                                                        49.2504
        33.7504
  -4011702.97747  -3107062.01644
                  23460393.7034                                   23460391.1914
                                                                        45.0004
        29.0004
  -6521829.77347  -5065290.55544
                  23451551.8834                                   23451549.6644
                                                                        43.5004
        29.2504
 09 10  9  0  3 30.0000000  0  9G02G04G05G13G31G29G23G30G10
 -13832509.91448 -10737682.37947
                  20622183.6884                                   20622178.2234
                                                                        52.5004
        43.5004
  -4792623.92248  -3713610.46146
                  21323694.3284                                   21323691.4614
                                                                        51.5004
        40.5004
   -610743.35247   -431166.16845
                  24244460.6094                                   24244457.0634
                                                                        43.7504
        30.7504
 -16190321.02748 -12566988.38346
                  21551508.5164                                   21551504.9454
                                                                        51.0004
        36.7504
  -3148261.44547  -2448851.42244
                  24448070.5004                                   24448066.9264
                                                                        42.0004
        26.0004
  -7871162.34447  -6094395.80545
                  23641445.6334                                   23641443.0314
                                                                        44.2504
        31.0004
  -7311235.33648  -5667867.93045
                  22222022.8204                                   22222016.7814
                                                                        48.7504
        33.2504
  -4033769.57447  -3124256.77744
                  23456194.6884                                   23456191.9024
                                                                        44.0004
        29.0004
  -6728653.71547  -5226452.05145
                  23412194.9454                                   23412192.5084
                                                                        45.0004
        30.5004
 09 10  9  0  4  0.0000000  0  9G02G04G05G13G31G29G23G30G10
 -13947626.75448 -10827383.78947
                  20600277.3444                                   20600271.8914
                                                                        51.7504
        43.5004
  -4824787.67248  -3738673.12146
                  21317573.9304                                   21317571.0634
                                                                        52.7504
        40.5004
   -819391.32847   -593749.00044
                  24204755.5554                                   24204752.6524
                                                                        42.5004
        29.0004
 -16324638.12148 -12671651.01246
                  21525948.8524                                   21525945.1524
                                                                        51.5004
        37.0004
  -3178989.22347  -2472795.10944
                  24442223.1024                                   24442218.9384
                                                                        43.2504
        25.2504
  -8054459.05147  -6237224.38345
                  23606565.3204                                   23606563.4844
                                                                        44.7504
        31.0004
  -7361082.60948  -5706709.94945
                  22212537.0864                                   22212531.0354
                                                                        49.2504
        33.5004
  -4055335.45747  -3141061.39544
                  23452090.6024                                   23452087.8794
                                                                        44.7504
        28.5004
  -6935249.41447  -5387435.74645
                  23372880.9454                                   23372878.4454
                                                                        45.0004
        31.2504
 09 10  9  0  4 30.0000000  0  9G02G04G05G13G31G29G23G30G10
 -14062175.79748 -10916642.77047
                  20578479.5864                                   20578473.8364
                                                                        52.0004
        43.7504
  -4856483.59448  -3763371.25046
                  21311542.3984                                   21311539.4064
                                                                        52.2504
        40.7504
  -1027892.46946   -756217.41844
                  24165078.7504                                   24165075.3134
                                                                        40.2504
        26.0004
 -16458316.64848 -12775816.05946
                  21500510.3754                                   21500506.9884
                                                                        51.2504
        36.7504
  -3209252.15247  -2496376.55943
                  24436464.6334                                   24436458.9844
                                                                        43.2504
        22.2504
  -8237397.94547  -6379774.12545
                  23571753.3134                                   23571750.7344
                                                                        44.0004
        30.7504
  -7410351.95348  -5745101.62945
                  22203161.5474                                   22203155.7624
                                                                        49.2504
        33.5004
  -4076403.82847  -3157478.32044
                  23448081.2424                                   23448078.8054
                                                                        42.5004
        27.5004
  -7141615.05147  -5548240.15645
                  23333611.1884                                   23333608.3484
                                                                        43.5004
        30.0004
 09 10  9  0  5  0.0000000  0  9G02G04G05G13G31G29G23G30G10
 -14176157.41048 -11005459.59047
                  20556789.6564                                   20556784.3984
                                                                        52.2504
        43.7504
  -4887714.59048  -3787707.10546
                  21305599.3594                                   21305596.3954
                                                                        52.0004
        40.0004
  -1236245.95746   -918570.75444
                  24125429.9924                                   24125427.8874
                                                                        41.2504
        27.2504
 -16591356.64548 -12879483.55146
                  21475194.0164                                   21475189.8874
                                                                        51.7504
        37.0004
  -3239053.97747  -2519598.70744
                  24430793.0634                                   24430787.6414
                                                                        43.5004
        25.2504
  -8419977.93047  -6522044.23045
                  23537009.5784                                   23537006.9224
                                                                        44.0004
        30.5004
  -7459046.07448  -5783045.09045
                  22193895.2974                                   22193889.9534
                                                                        48.5004
        33.5004
  -4096978.77046  -3173510.76244
                  23444165.6174                                   23444163.4804
                                                                        41.2504
        27.2504
  -7347749.42247  -5708864.42245
                  23294384.9774                                   23294382.3324
                                                                        44.2504
        30.7504
 09 10  9  0  5 30.0000000  0  9G02G04G05G13G31G29G23G30G10
 -14289573.87948 -11093836.06247
                  20535207.3134                                   20535201.5944
                                                                        52.7504
        43.5004
  -4918485.51248  -3811684.44546
                  21299743.4224                                   21299740.4654
                                                                        51.5004
        40.5004
  -1444453.09847  -1080810.10245
                  24085810.1884                                   24085807.3794
                                                                        43.7504
        30.5004
 -16723759.80548 -12982654.82846
                  21449998.5634                                   21449994.8094
                                                                        51.5004
        36.5004
  -3268399.80547  -2542465.56644
                  24425209.0784                                   24425204.6214
                                                                        43.5004
        24.0004
  -8602199.52347  -6664035.06645
                  23502333.8524                                   23502331.0164
                                                                        43.5004
        30.0004
  -7507170.14848  -5820544.34045
                  22184737.8134                                   22184731.1954
                                                                        48.5004
        34.0004
  -4117066.41046  -3189163.46544
                  23440342.9304                                   23440340.5314
                                                                        41.2504
        26.2504
  -7553653.90647  -5869309.53144
                  23255202.2974                                   23255199.9774
                                                                        44.0004
        29.5004
 09 10  9  0  6  0.0000000  0  9G02G04G05G13G31G29G23G30G10
 -14402424.08248 -11181771.29347
                  20513732.7034                                   20513727.1054
                                                                        53.0004
        43.7504
  -4948797.97348  -3835304.54746
                  21293975.4064                                   21293972.6524
                                                                        51.5004
        40.2504
  -1652512.40247  -1242934.27045
                  24046218.3444                                   24046215.3014
                                                                        43.0004
        31.5004
 -16855524.68748 -13085328.73446
                  21424924.3834                                   21424920.9654
                                                                        51.7504
        36.5004
  -3297291.70747  -2564978.73444
                  24419710.4924                                   24419707.0744
                                                                        42.2504
        25.7504
  -8784059.74647  -6805744.32845
                  23467727.0394                                   23467724.1994
                                                                        43.7504
        31.2504
  -7554725.32848  -5857600.30145
                  22175688.2664                                   22175682.2504
                                                                        49.0004
        33.5004
  -4136669.32447  -3204438.46544
                  23436613.0784                                   23436610.6134
                                                                        43.2504
        27.0004
  -7759325.64847  -6029573.21945
                  23216064.6334                                   23216061.9384
                                                                        43.2504
        30.2504
 09 10  9  0  6 30.0000000  0  9G02G04G05G13G31G29G23G30G10
 -14514702.72348 -11269261.13347
                  20492366.5474                                   20492361.1414
                                                                        52.7504
        43.7504
  -4978648.75848  -3858564.90246
                  21288295.1024                                   21288292.0164
                                                                        52.0004
        41.0004
  -1860416.67247  -1404937.63345
                  24006655.4384                                   24006652.6334
                                                                        44.2504
        32.5004
 -16986645.10948 -13187500.47346
                  21399973.0004                                   21399968.9844
                                                                        51.5004
        37.0004
  -3325727.37547  -2587136.40244
                  24414300.2424                                   24414296.2344
                                                                        42.0004
        26.0004
  -8965551.87947  -6947166.77044
                  23433189.6954                                   23433187.2464
                                                                        43.0004
        29.7504
  -7601708.63748  -5894210.67645
                  22166747.1644                                   22166741.6024
                                                                        50.0004
        33.2504
  -4155785.73047  -3219334.37544
                  23432975.4064                                   23432972.7584
                                                                        43.2504
        27.7504
  -7964758.02747  -6189650.39845
                  23176972.2584                                   23176969.7424
                                                                        44.0004
        31.0004
 09 10  9  0  7  0.0000000  0  9G02G04G05G13G31G29G23G30G10
 -14626411.22348 -11356306.71147
                  20471109.1254                                   20471103.6374
                                                                        52.5004
        43.5004
  -5008042.11748  -3881468.82446
                  21282701.3914                                   21282698.8714
                                                                        51.5004
        40.5004
  -2068166.18047  -1566820.43445
                  23967122.1564                                   23967118.7194
                                                                        43.2504
        31.7504
 -17117122.44148 -13289171.11746
                  21375143.7584                                   21375140.1214
                                                                        51.5004
        37.2504
  -3353711.39146  -2608942.16844
                  24408974.5634                                   24408971.2074
                                                                        41.7504
        26.7504
  -9146675.64847  -7088302.15245
                  23398723.4304                                   23398720.5234
                                                                        42.7504
        31.2504
  -7648124.38348  -5930378.78145
                  22157915.0004                                   22157909.2074
                                                                        49.5004
        33.0004
  -4174420.66847  -3233855.12144
                  23429429.7034                                   23429426.6994
                                                                        43.2504
        27.5004
  -8169950.87547  -6349540.92245
                  23137925.1644                                   23137922.6994
                                                                        44.5004
        31.5004
 09 10  9  0  7 30.0000000  0  9G02G04G05G13G31G29G23G30G10
 -14737541.71548 -11442901.87147
                  20449961.4304                                   20449956.2504
                                                                        52.2504
        44.0004
  -5036972.81648  -3904012.23446
                  21277196.2664                                   21277193.4534
                                                                        52.2504
        41.0004
  -2275752.18447  -1728575.79344
                  23927619.4144                                   23927616.8054
                                                                        44.0004
        29.5004
 -17246948.50848 -13390334.29346
                  21350438.8594                                   21350435.0514
                                                                        51.5004
        37.2504
  -3381239.30946  -2630392.53944
                  24403736.4384                                   24403732.7854
                                                                        41.5004
        28.2504
  -9327421.82847  -7229143.28945
                  23364328.5554                                   23364326.0394
                                                                        43.7504
        31.0004
  -7693967.22748  -5966100.46945
                  22149191.3054                                   22149185.5204
                                                                        49.5004
        34.0004
  -4192570.37547  -3247997.74244
                  23425975.2894                                   23425973.2274
                                                                        43.0004
        27.2504
  -8374895.44547  -6509237.96945
                  23098925.7274                                   23098923.4104
                                                                        45.0004
        31.5004
 09 10  9  0  8  0.0000000  0  9G02G04G05G13G31G29G23G30G10
 -14848098.09048 -11529049.68747
                  20428923.2894                                   20428918.0554
                                                                        52.2504
        43.7504
  -5065446.75848  -3926199.76646
                  21271777.7814                                   21271775.3914
                                                                        51.5004
        40.2504
  -2483176.85247  -1890205.51244
                  23888147.4694                                   23888144.9614
                                                                        42.0004
        29.5004
 -17376126.16448 -13490992.19546
                  21325857.1954                                   21325853.3874
                                                                        51.5004
        37.2504
  -3408317.71546  -2651492.62544
                  24398582.7194                                   24398579.7734
                                                                        38.0004
        25.7504
  -9507792.06247  -7369691.50445
                  23330005.3284                                   23330002.7774
                                                                        44.2504
        31.0004
  -7739243.21148  -6001380.45345
                  22140575.8134                                   22140570.0164
                                                                        49.5004
        34.0004
  -4210241.78947  -3261767.64144
                  23422612.6254                                   23422610.4574
                                                                        42.5004
        27.7504
  -8579593.44147  -6668742.89845
                  23059973.2034                                   23059970.4304
                                                                        44.2504
        32.2504
 09 10  9  0  8 30.0000000  0  9G02G04G05G13G31G29G23G30G10
 -14958081.30948 -11614750.90247
                  20407994.4304                                   20407989.4924
                                                                        53.0004
        43.7504
  -5093467.59848  -3948034.16046
                  21266445.9304                                   21266442.8284
                                                                        51.5004
        40.2504
  -2690439.77747  -2051709.12944
                  23848706.7734                                   23848703.7584
                                                                        43.2504
        28.2504
 -17504656.42248 -13591145.60946
                  21301398.6644                                   21301394.9734
                                                                        52.2504
        37.2504
  -3434950.54346  -2672245.52044
                  24393514.9224                                   24393511.5434
                                                                        39.7504
        25.5004
  -9687785.29347  -7509945.90245
                  23295753.8754                                   23295751.3324
                                                                        43.5004
        31.5004
  -7783956.45348  -6036221.94545
                  22132066.9534                                   22132061.5944
                                                                        49.5004
        34.5004
  -4227439.35547  -3275168.36344
                  23419339.8754                                   23419337.7504
                                                                        42.5004
        27.0004
  -8784044.30547  -6828055.19945
                  23021067.2194                                   23021064.6564
                                                                        46.0004
        31.5004
 09 10  9  0  9  0.0000000  0  9G02G04G05G13G31G29G23G30G10
 -15067492.88348 -11700006.66847
                  20387173.8674                                   20387168.4104
                                                                        52.5004
        43.7504
  -5121038.94948  -3969518.27746
                  21261198.9924                                   21261196.0434
                                                                        52.0004
        40.5004
  -2897541.75047  -2213087.31245
                  23809297.3364                                   23809294.0354
                                                                        45.7504
        30.5004
 -17632539.87148 -13690795.02746
                  21277063.4064                                   21277059.5744
                                                                        51.5004
        37.2504
  -3461142.40247  -2692654.77744
                  24388530.4694                                   24388527.6254
                                                                        42.2504
        26.5004
  -9867401.56247  -7649906.59045
                  23261573.9694                                   23261570.3914
                                                                        44.7504
        31.0004
  -7828110.02048  -6070627.32845
                  22123664.8284                                   22123659.1174
                                                                        49.5004
        33.5004
  -4244169.06647  -3288204.48844
                  23416156.6024                                   23416153.9384
                                                                        42.7504
        25.5004
  -8988248.55947  -6987175.39845
                  22982207.6564                                   22982205.5234
                                                                        44.7504
        31.0004
 09 10  9  0  9 30.0000000  0  9G02G04G05G13G31G29G23G30G10
 -15176332.25848 -11784816.60947
                  20366462.7034                                   20366457.5864
                                                                        53.5004
        44.0004
  -5148163.20348  -3990654.04746
                  21256037.3914                                   21256034.5634
                                                                        52.2504
        40.0004
  -3104480.77347  -2374338.56245
                  23769917.9774                                   23769914.8634
                                                                        45.2504
        31.0004
 -17759776.10948 -13789940.13746
                  21252850.7424                                   21252847.2734
                                                                        51.5004
        37.0004
  -3486895.87546  -2712722.40644
                  24383630.3754                                   24383626.8094
                                                                        41.7504
        25.7504
 -10046638.88747  -7789571.98845
                  23227465.8524                                   23227463.2194
                                                                        44.0004
        30.7504
  -7871706.47348  -6104598.57045
                  22115368.7664                                   22115362.6454
                                                                        49.7504
        33.5004
  -4260433.32047  -3300877.93744
                  23413061.5864                                   23413058.4414
                                                                        43.5004
        27.5004
  -9192203.77047  -7146101.42245
                  22943396.3914                                   22943394.1684
                                                                        44.0004
        30.5004
 09 10  9  0 10  0.0000000  0  9G02G04G05G13G31G29G23G30G10
 -15284598.36748 -11869179.82447
                  20345860.4384                                   20345854.9654
                                                                        53.2504
        44.0004
  -5174841.35548  -4011442.22346
                  21250960.8754                                   21250957.9804
                                                                        51.0004
        41.0004
  -3311254.47747  -2535460.94545
                  23730569.8134                                   23730567.2934
                                                                        44.5004
        31.2504
 -17886363.24648 -13888579.44146
                  21228762.2114                                   21228758.4414
                                                                        51.0004
        37.0004
  -3512213.00446  -2732450.00844
                  24378812.5084                                   24378808.9104
                                                                        41.5004
        25.5004
 -10225494.21547  -7928939.71545
                  23193430.7814                                   23193428.2664
                                                                        42.7504
        31.5004
  -7914746.87948  -6138136.54745
                  22107178.4384                                   22107172.6174
                                                                        49.5004
        33.5004
  -4276235.10547  -3313191.01244
                  23410054.7734                                   23410051.7934
                                                                        43.2504
        27.7504
  -9395907.87147  -7304831.85945
                  22904633.3984                                   22904630.6454
                                                                        45.5004
        31.0004
 09 10  9  0 10 30.0000000  0  9G02G04G05G13G31G29G23G30G10
 -15392288.85948 -11953094.48047
                  20325367.2424                                   20325362.1454
                                                                        52.7504
        44.2504
  -5201074.03948  -4031883.27746
                  21245968.8444                                   21245965.9774
                                                                        50.5004
        39.5004
  -3517859.56247  -2696451.94145
                  23691254.3984                                   23691252.2274
                                                                        43.5004
        31.0004
 -18012299.23448 -13986711.40246
                  21204797.5944                                   21204793.6454
                                                                        51.0004
        37.2504
  -3537094.60247  -2751838.25444
                  24374077.9384                                   24374073.9844
                                                                        42.2504
        25.0004
 -10403963.43747  -8068006.60545
                  23159469.2424                                   23159466.0554
                                                                        42.7504
        30.5004
  -7957231.77748  -6171241.64145
                  22099093.5394                                   22099087.7114
                                                                        49.0004
        33.0004
  -4291575.13347  -3325144.25444
                  23407135.3594                                   23407132.7544
                                                                        44.0004
        27.2504
  -9599356.47747  -7463363.13745
                  22865918.3674                                   22865915.6644
                                                                        46.5004
        32.5004
 09 10  9  0 11  0.0000000  0  9G02G04G05G13G31G29G23G30G10
 -13923977.63348 -10808955.87147
                  20604777.7034                                   20604772.3094
                                                                        53.0004
        43.5004
  -3651439.96548  -2824376.23046
                  21540854.6414                                   21540851.5744
                                                                        50.2504
        40.0004
  -2148865.28147  -1629703.15245
                  23951765.4924                                   23951762.9024
                                                                        43.5004
        30.5004
 -16562156.19548 -12856729.76246
                  21480750.1254                                   21480746.5744
                                                                        50.5004
        36.7504
  -1986120.61746  -1543287.07443
                  24669218.5314                                   24669214.2234
                                                                        40.5004
        23.0004
  -9006616.66047  -6979164.94145
                  23425375.8134                                   23425372.2814
                                                                        44.5004
        31.7504
  -6423739.94548  -4976312.93045
                  22390907.2814                                   22390901.4454
                                                                        48.5004
        33.7504
  -2731034.41447  -2109138.49244
                  23704097.0084                                   23704094.3954
                                                                        42.0004
        26.0004
  -8227119.50847  -6394087.55545
                  23127046.1564                                   23127043.8554
                                                                        46.0004
        32.0004
 09 10  9  0 11 30.0000000  0  9G02G04G05G13G31G29G23G30G10
 -14030507.80148 -10891966.39847
                  20584505.8134                                   20584500.4804
                                                                        53.2504
        43.7504
  -3676778.95748  -2844120.91846
                  21536032.5864                                   21536030.0784
                                                                        50.2504
        39.5004
  -2355119.37147  -1790420.62945
                  23912516.2424                                   23912514.2464
                                                                        42.5004
        30.0004
 -16686777.94548 -12953837.59046
                  21457035.4224                                   21457031.5274
                                                                        51.2504
        36.7504
  -2010130.80547  -1561996.26243
                  24664649.4844                                   24664644.8524
                                                                        42.0004
        22.7504
  -9184299.09047  -7117618.75445
                  23391563.3284                                   23391560.9104
                                                                        43.2504
        31.5004
  -6465112.12148  -5008550.96545
                  22383034.7114                                   22383028.5314
                                                                        49.5004
        32.5004
  -2745452.84847  -2120373.65244
                  23701352.5864                                   23701350.4574
                                                                        42.7504
        27.0004
  -8430043.80547  -6552210.28545
                  23088430.9614                                   23088428.2934
                                                                        44.5004
        31.5004
 09 10  9  0 12  0.0000000  0  9G02G04G05G13G31G29G23G30G10
 -14136458.09848 -10974525.06247
                  20564344.2114                                   20564338.6994
                                                                        52.5004
        44.0004
  -3701674.89848  -2863520.35246
                  21531295.3444                                   21531292.5824
                                                                        50.2504
        40.5004
  -2561196.07847  -1950999.89545
                  23873301.6174                                   23873298.8284
                                                                        44.5004
        31.0004
 -16810742.52048 -13050433.31646
                  21433446.1024                                   21433441.9964
                                                                        51.2504
        36.7504
  -2033710.28946  -1580369.87543
                  24660161.6644                                   24660157.6214
                                                                        39.5004
        21.5004
  -9361585.54747  -7255764.00445
                  23357826.8914                                   23357824.3674
                                                                        44.2504
        31.5004
  -6505932.05548  -5040358.68745
                  22375266.6564                                   22375260.8984
                                                                        49.5004
        33.0004
  -2759416.51646  -2131254.43444
                  23698695.5394                                   23698693.3674
                                                                        41.7504
        27.0004
  -8632704.01247  -6710127.31245
                  23049865.7424                                   23049863.1994
                                                                        45.5004
        31.2504
 09 10  9  0 12 30.0000000  0  9G02G04G05G13G31G29G23G30G10
 -14241827.94548 -11056631.43747
                  20544292.9064                                   20544287.6954
                                                                        52.5004
        43.7504
  -3726129.44548  -2882575.83246
                  21526641.4064                                   21526638.6954
                                                                        50.7504
        40.0004
  -2767093.98447  -2111439.83245
                  23834120.5474                                   23834117.4494
                                                                        44.2504
        31.0004
 -16934048.89548 -13146516.18046
                  21409981.3524                                   21409977.5944
                                                                        51.2504
        36.2504
  -2056861.14146  -1598409.53143
                  24655755.0164                                   24655752.3524
                                                                        36.0004
        20.5004
  -9538474.27047  -7393599.35245
                  23324166.7424                                   23324163.3594
                                                                        43.5004
        31.7504
  -6546201.10948  -5071737.17645
                  22367603.9924                                   22367598.1294
                                                                        48.5004
        32.5004
  -2772928.73847  -2141783.46144
                  23696123.9694                                   23696122.4024
                                                                        42.2504
        28.0004
  -8835097.90247  -6867836.77345
                  23011351.5164                                   23011349.0474
                                                                        44.2504
        31.5004
 09 10  9  0 13  0.0000000  0  9G02G04G05G13G31G29G23G30G10
 -14346617.66048 -11138285.76247
                  20524352.2034                                   20524346.7814
                                                                        53.0004
        43.7504
  -3750146.15248  -2901290.15246
                  21522071.4304                                   21522068.4924
                                                                        50.0004
        40.0004
  -2972811.65647  -2271739.37145
                  23794973.9384                                   23794970.7114
                                                                        44.5004
        32.0004
 -17056697.40648 -13242086.45746
                  21386642.0314                                   21386638.6054
                                                                        50.7504
        37.2504
  -2079587.05546  -1616118.02343
                  24651431.9844                                   24651428.0354
                                                                        38.5004
        22.5004
  -9714963.28947  -7531123.23445
                  23290582.1254                                   23290578.8094
                                                                        44.0004
        32.2504
  -6585923.20348  -5102689.46545
                  22360044.9064                                   22360038.5314
                                                                        49.0004
        32.2504
  -2785992.67747  -2151963.15544
                  23693638.0864                                   23693635.7774
                                                                        42.7504
        28.0004
  -9037223.69547  -7025337.33245
                  22972888.3524                                   22972886.0274
                                                                        46.0004
        33.0004
 09 10  9  0 13 30.0000000  0 10G02G04G05G13G31G29G23G30G10G25
 -14450832.08248 -11219491.80147
                  20504520.6564                                   20504515.7734
                                                                        53.0004
        43.7504
  -3773731.11348  -2919668.05546
                  21517583.4224                                   21517580.3594
                                                                        50.5004
        39.7504
  -3178352.05947  -2431900.71945
                  23755860.7424                                   23755858.2114
                                                                        44.2504
        32.0004
 -17178692.10248 -13337147.23046
                  21363427.4064                                   21363423.7584
                                                                        51.0004
        37.2504
  -2101895.71146  -1633501.41044
                  24647187.6414                                   24647183.3794
                                                                        41.5004
        25.5004
  -9891055.16447  -7668337.60245
                  23257072.0864                                   23257069.6564
                                                                        44.5004
        32.2504
  -6625104.66448  -5133220.49245
                  22352588.6724                                   22352583.2894
                                                                        48.2504
        31.7504
  -2798617.12547  -2161800.40244
                  23691236.5314                                   23691233.5594
                                                                        43.5004
        28.0004
  -9239084.84447  -7182631.70345
                  22934475.5944                                   22934472.8444
                                                                        45.7504
        33.0004
   2884372.78556   2287010.46953
                  24262685.9774                                   24262682.6884
                                                                        40.2504
        19.2504
 09 10  9  0 14  0.0000000  0 10G02G04G05G13G31G29G23G30G10G25
 -14554474.88748 -11300252.42647
                  20484798.0864                                   20484792.8594
                                                                        52.7504
        44.0004
  -3796891.23448  -2937714.90246
                  21513175.6564                                   21513173.0554
                                                                        49.0004
        39.0004
  -3383718.26647  -2591926.34845
                  23716780.5554                                   23716778.0474
                                                                        43.7504
        31.7504
 -17300036.46148 -13431701.17246
                  21340336.2664                                   21340332.3244
                                                                        51.5004
        36.7504
  -2123794.19146  -1650565.14144
                  24643020.6174                                   24643016.0554
                                                                        40.2504
        26.7504
 -10066752.32447  -7805244.48445
                  23223638.6094                                   23223635.4574
                                                                        45.0004
        32.2504
  -6663751.63748  -5163335.02045
                  22345234.6174                                   22345229.2344
                                                                        49.2504
        33.0004
  -2810809.80547  -2171301.19944
                  23688915.9844                                   23688913.0984
                                                                        45.0004
        26.7504
  -9440683.59047  -7339721.62945
                  22896112.5394                                   22896108.9734
                                                                        46.0004
        31.0004
   2699667.80546   2143084.55543
                  24227537.1254                                   24227534.3524
                                                                        39.0004
        19.5004
 09 10  9  0 14 30.0000000  0 10G02G04G05G13G31G29G23G30G10G25
 -14657552.37548 -11380572.55147
                  20465183.1884                                   20465178.1414
                                                                        53.0004
        43.7504
  -3819635.24248  -2955437.50046
                  21508848.3984                                   21508845.2814
                                                                        49.5004
        39.7504
  -3588915.09847  -2751819.93045
                  23677732.8754                                   23677730.0314
                                                                        43.7504
        32.0004
 -17420736.78548 -13525753.32446
                  21317367.5084                                   21317364.0044
                                                                        51.2504
        36.7504
  -2145291.62147  -1667316.39144
                  24638928.6724                                   24638925.8204
                                                                        42.0004
        28.0004
 -10242059.29747  -7941847.30545
                  23190278.6334                                   23190275.5164
                                                                        44.5004
        31.5004
  -6701874.14148  -5193040.87545
                  22337980.6094                                   22337974.3874
                                                                        48.2504
        31.7504
  -2822580.09047  -2180472.82444
                  23686676.2894                                   23686673.1604
                                                                        43.0004
        26.7504
  -9642024.92647  -7496610.96945
                  22857798.3914                                   22857795.6334
                                                                        45.0004
        32.2504
   2515236.63346   1999371.99643
                  24192441.2814                                   24192438.8984
                                                                        39.0004
        19.0004
 09 10  9  0 15  0.0000000  0  9G02G04G05G13G29G23G30G10G25
 -14760056.46548 -11460445.84847
                  20445677.4454                                   20445671.8634
                                                                        53.0004
        44.0004
  -3841956.89148  -2972830.94146
                  21504600.4844                                   21504597.4734
                                                                        50.7504
        39.2504
  -3793932.12547  -2911573.30145
                  23638719.1724                                   23638716.9774
                                                                        42.7504
        31.5004
 -17540784.49248 -13619297.00446
                  21294523.4614                                   21294519.1454
                                                                        51.2504
        36.5004
 -10416965.37547  -8078137.72745
                  23156995.1254                                   23156991.8984
                                                                        45.0004
        31.2504
  -6739465.96148  -5222333.23445
                  22330826.8284                                   22330821.0514
                                                                        48.5004
        33.0004
  -2833922.72747  -2189311.25844
                  23684517.7034                                   23684514.7274
                                                                        42.2504
        24.0004
  -9843097.87947  -7653291.14145
                  22819535.5084                                   22819533.0634
                                                                        44.5004
        33.0004
   2331090.00846   1855881.14843
                  24157400.3754                                   24157397.0984
                                                                        41.5004
        22.2504
 09 10  9  0 15 30.0000000  0  9G02G04G05G13G29G23G30G10G25
 -14861989.19948 -11539873.92647
                  20426280.2814                                   20426274.9844
                                                                        52.7504
        44.0004
  -3863860.30948  -2989898.48446
                  21500432.2114                                   21500429.2154
                                                                        50.7504
        39.5004
  -3998770.92247  -3071187.89845
                  23599740.1484                                   23599737.0394
                                                                        44.7504
        31.7504
 -17660180.90248 -13712333.21546
                  21271803.1484                                   21271799.4224
                                                                        51.5004
        37.2504
 -10591470.94947  -8214116.01245
                  23123787.2814                                   23123784.6524
                                                                        44.7504
        33.0004
  -6776530.95348  -5251215.04745
                  22323773.8674                                   22323768.0864
                                                                        49.0004
        33.7504
  -2844843.96147  -2197821.28544
                  23682439.1644                                   23682436.7734
                                                                        43.0004
        25.0004
 -10043903.99247  -7809763.31245
                  22781323.3364                                   22781320.6134
                                                                        45.5004
        32.5004
   2147228.63347   1712612.56644
                  24122412.7584                                   24122409.3324
                                                                        43.0004
        25.0004
 09 10  9  0 16  0.0000000  0  9G02G04G05G13G29G23G30G10G25
 -14963340.19148 -11618848.69547
                  20406993.7034                                   20406988.5354
                                                                        52.7504
        44.0004
  -3885337.75048  -3006634.09046
                  21496345.3984                                   21496342.3484
                                                                        51.5004
        39.5004
  -4203418.92247  -3230653.80145
                  23560796.5314                                   23560793.6524
                                                                        45.0004
        31.2504
 -17778915.64148 -13804853.80146
                  21249208.5784                                   21249204.7774
                                                                        50.5004
        37.2504
 -10765564.18447  -8349773.01645
                  23090658.3984                                   23090656.2274
                                                                        45.2504
        32.0004
  -6813061.81648  -5279680.66845
                  22316822.0394                                   22316816.2114
                                                                        49.2504
        33.2504
  -2855337.15247  -2205997.80544
                  23680442.3054                                   23680440.0594
                                                                        42.7504
        26.2504
 -10244430.60947  -7966017.73845
                  22743164.1094                                   22743162.0274
                                                                        46.5004
        33.5004
   1963664.81647   1569575.80544
                  24087481.8674                                   24087478.3634
                                                                        43.5004
        26.0004
 09 10  9  0 16 30.0000000  0  9G02G04G05G13G29G23G30G10G25
 -15064092.58248 -11697357.05147
                  20387821.1884                                   20387815.7974
                                                                        53.0004
        44.0004
  -3906374.73048  -3023026.53146
                  21492341.8984                                   21492338.8244
                                                                        49.2504
        39.0004
  -4407858.02347  -3389956.91045
                  23521893.0944                                   23521890.1054
                                                                        44.5004
        31.0004
 -17896971.27048 -13896845.18046
                  21226743.7034                                   21226739.6804
                                                                        51.2504
        37.0004
 -10939225.72747  -8485093.60245
                  23057611.9224                                   23057609.0434
                                                                        44.2504
        33.2504
  -6849043.96148  -5307718.68445
                  22309974.9614                                   22309969.2854
                                                                        48.5004
        32.5004
  -2865388.59847  -2213830.09844
                  23678529.6644                                   23678527.5704
                                                                        43.7504
        26.0004
 -10444659.20347  -8122039.94145
                  22705061.7114                                   22705058.8284
                                                                        46.7504
        33.5004
   1780417.62947   1426785.73444
                  24052610.6954                                   24052608.0164
                                                                        43.7504
        26.0004
 09 10  9  0 17  0.0000000  0  9G02G04G05G13G29G23G30G10G25
 -15164245.23848 -11775398.04347
                  20368762.5784                                   20368757.2154
                                                                        53.5004
        44.2504
  -3926972.61748  -3039076.82046
                  21488422.3524                                   21488418.9734
                                                                        50.5004
        39.5004
  -4612085.66447  -3549095.30945
                  23483029.6724                                   23483026.6454
                                                                        44.0004
        30.7504
 -18014346.46548 -13988306.22746
                  21204407.4694                                   21204403.2894
                                                                        50.5004
        37.2504
 -11112452.63347  -8620075.51245
                  23024647.7734                                   23024644.4614
                                                                        45.0004
        32.5004
  -6884478.99248  -5335330.38345
                  22303231.9694                                   22303225.8404
                                                                        49.2504
        31.7504
  -2875000.73447  -2221320.06644
                  23676700.2894                                   23676698.2584
                                                                        45.2504
        27.2504
 -10644586.60547  -8277827.46545
                  22667016.8984                                   22667014.1914
                                                                        45.5004
        32.2504
   1597490.43046   1284245.04744
                  24017800.3364                                   24017797.7274
                                                                        41.5004
        24.0004
 09 10  9  0 17 30.0000000  0  9G02G04G05G13G29G23G30G10G25
 -15263805.08648 -11852977.15247
                  20349817.1644                                   20349811.4184
                                                                        53.0004
        44.0004
  -3947139.91848  -3054791.57046
                  21484584.4454                                   21484581.9064
                                                                        51.2504
        39.0004
  -4816106.79747  -3708072.75845
                  23444205.9694                                   23444203.0314
                                                                        45.0004
        33.0004
 -18131047.62548 -14079242.13746
                  21182199.8984                                   21182196.1564
                                                                        50.5004
        37.0004
 -11285249.96147  -8754722.72345
                  22991765.7194                                   22991762.2664
                                                                        45.0004
        32.0004
  -6919375.90648  -5362522.77745
                  22296591.4064                                   22296584.7974
                                                                        48.7504
        32.2504
  -2884184.03547  -2228475.91444
                  23674953.0864                                   23674950.6254
                                                                        45.5004
        28.5004
 -10844218.18747  -8433384.49645
                  22629028.0004                                   22629025.1414
                                                                        46.5004
        32.7504
   1414879.12546   1141950.56643
                  23983049.5084                                   23983048.2974
                                                                        38.0004
        20.7504
 09 10  9  0 18  0.0000000  0  9G02G04G05G13G29G23G30G10G25
 -15362773.49648 -11930095.42247
                  20330984.3984                                   20330979.1214
                                                                        53.5004
        43.7504
  -3966880.67248  -3070173.90246
                  21480827.8054                                   21480825.0594
                                                                        50.0004
        39.0004
  -5019921.65347  -3866889.47145
                  23405421.5634                                   23405418.2074
                                                                        44.7504
        32.2504
 -18247076.30548 -14169654.06246
                  21160120.1254                                   21160116.7114
                                                                        50.2504
        37.0004
 -11457617.21147  -8889034.84045
                  22958965.3444                                   22958962.0204
                                                                        44.5004
        32.2504
  -6953738.80547  -5389299.05945
                  22290051.3834                                   22290045.9064
                                                                        47.5004
        31.5004
  -2892943.71947  -2235301.66044
                  23673286.5864                                   23673284.1914
                                                                        46.5004
        28.2504
 -11043553.47747  -8588710.61745
                  22591095.7274                                   22591093.1294
                                                                        46.0004
        33.5004
   1232584.20746    999902.64543
                  23948360.8834                                   23948358.6024
                                                                        38.0004
        20.2504
 09 10  9  0 18 30.0000000  0  9G02G04G05G13G29G23G30G10G25
 -15461153.62148 -12006755.28147
                  20312262.8594                                   20312257.7894
                                                                        53.2504
        44.0004
  -3986200.55148  -3085228.36746
                  21477151.5314                                   21477148.7344
                                                                        51.5004
        39.0004
  -5223531.38747  -4025546.34845
                  23366675.3834                                   23366672.7034
                                                                        44.5004
        33.5004
 -18362435.38748 -14259544.27346
                  21138168.4144                                   21138164.3714
                                                                        50.0004
        37.0004
 -11629554.99247  -9023012.32045
                  22926246.5944                                   22926243.2814
                                                                        44.2504
        32.5004
  -6987573.20747  -5415663.53945
                  22283613.3914                                   22283607.8984
                                                                        47.5004
        31.5004
  -2901285.84047  -2241802.00044
                  23671699.1804                                   23671696.7304
                                                                        46.0004
        27.5004
 -11242594.19947  -8743807.26245
                  22553219.6724                                   22553216.9734
                                                                        47.0004
        33.0004
   1050605.05946    858100.69543
                  23913732.0944                                   23913728.9304
                                                                        41.7504
        21.7504
 09 10  9  0 19  0.0000000  0  9G02G04G05G13G29G23G30G10G25
 -15558940.13748 -12082952.53947
                  20293654.5634                                   20293649.3954
                                                                        52.7504
        44.2504
  -4005096.31248  -3099952.36746
                  21473555.7894                                   21473552.9774
                                                                        51.2504
        38.5004
  -5426929.40647  -4184038.18745
                  23327970.2194                                   23327967.4654
                                                                        45.5004
        34.0004
 -18477119.52048 -14348908.73846
                  21116344.8284                                   21116341.0784
                                                                        50.7504
        38.0004
 -11801057.22747  -9156650.43045
                  22893610.5784                                   22893607.7234
                                                                        44.2504
        32.5004
  -7020876.96947  -5441614.51245
                  22277275.7814                                   22277269.6994
                                                                        47.7504
        30.7504
  -2909209.22347  -2247976.00444
                  23670190.3754                                   23670187.8914
                                                                        45.0004
        26.5004
 -11441333.39547  -8898668.90645
                  22515400.6024                                   22515398.1994
                                                                        46.5004
        33.2504
    868949.44947    716550.86743
                  23879164.3444                                   23879160.4184
                                                                        42.7504
        21.2504
 09 10  9  0 19 30.0000000  0  9G02G04G05G13G29G23G30G10G25
 -14080713.34048 -10931087.49247
                  20574952.0314                                   20574946.6524
                                                                        53.0004
        43.7504
  -2448153.07848  -1886749.87146
                  21769832.0944                                   21769829.4734
                                                                        51.5004
        38.7504
  -4054691.00047  -3114761.43045
                  23589098.4454                                   23589095.2194
                                                                        46.5004
        33.0004
 -17015707.46148 -13210146.22346
                  21394442.6484                                   21394438.9774
                                                                        50.5004
        37.2504
 -10396699.03147  -8062345.33245
                  23160851.0784                                   23160848.4454
                                                                        43.7504
        33.5004
  -5478233.78147  -4239554.87545
                  22570831.2894                                   22570825.4104
                                                                        47.7504
        31.0004
  -1341300.10247  -1026228.66043
                  23968553.9774                                   23968551.4574
                                                                        42.7504
        22.7504
 -10064345.71547  -7825691.45345
                  22777432.7344                                   22777429.9844
                                                                        47.0004
        33.7504
   2263042.34447   1802856.97343
                  24144451.1954                                   24144447.3714
                                                                        43.7504
        22.5004
 09 10  9  0 20  0.0000000  0  9G02G04G05G13G29G23G30G10G25
 -14177321.40648 -11006366.50447
                  20556568.3284                                   20556562.4614
                                                                        53.2504
        43.7504
  -2466216.21948  -1900825.03146
                  21766395.1024                                   21766392.2154
                                                                        50.7504
        39.0004
  -4257669.22347  -3272926.15645
                  23550472.8914                                   23550469.8954
                                                                        46.5004
        33.5004
 -17129048.60948 -13298464.01246
                  21372874.7664                                   21372870.5984
                                                                        51.0004
        37.5004
 -10567331.50847  -8195305.68045
                  23128380.2424                                   23128377.8404
                                                                        44.0004
        32.7504
  -5510491.18048  -4264690.50045
                  22564693.1724                                   22564686.8914
                                                                        48.0004
        31.0004
  -1348403.89147  -1031764.09043
                  23967202.4384                                   23967199.6454
                                                                        43.2504
        22.7504
 -10262484.34047  -7980085.16045
                  22739728.3204                                   22739725.4574
                                                                        47.5004
        33.7504
   2082031.65247   1661809.66843
                  24110005.8834                                   24110002.4774
                                                                        43.5004
        22.7504
 09 10  9  0 20 30.0000000  0  9G02G04G05G13G29G23G30G10G25
 -14273343.91848 -11081189.27347
                  20538295.7664                                   20538290.5354
                                                                        53.5004
        43.7504
  -2483869.62148  -1914580.89146
                  21763035.3054                                   21763032.5004
                                                                        50.7504
        38.5004
  -4460439.14847  -3430928.62945
                  23511887.1254                                   23511883.3914
                                                                        45.0004
        32.2504
 -17241721.35548 -13386260.96546
                  21351433.2424                                   21351429.3634
                                                                        50.0004
        37.5004
 -10737529.87547  -8327927.76645
                  23095992.9304                                   23095990.2504
                                                                        44.0004
        33.5004
  -5542232.52747  -4289424.01245
                  22558652.6094                                   22558646.9804
                                                                        47.0004
        31.5004
  -1355107.29947  -1036987.54343
                  23965927.0004                                   23965924.0554
                                                                        43.0004
        23.5004
 -10460323.60247  -8134245.58645
                  22702080.6804                                   22702077.9804
                                                                        47.0004
        33.2504
   1901344.05947   1521014.17244
                  24075622.0474                                   24075619.3364
                                                                        42.2504
        26.0004
 09 10  9  0 21  0.0000000  0  9G02G04G05G13G29G23G30G10G25
 -14368776.54748 -11155552.32047
                  20520135.1174                                   20520129.8914
                                                                        53.0004
        43.7504
  -2501111.60548  -1928016.23446
                  21759754.4304                                   21759751.6454
                                                                        50.2504
        39.0004
  -4662993.99647  -3588763.53945
                  23473341.6884                                   23473338.2544
                                                                        45.7504
        32.0004
 -17353721.84048 -13473534.11746
                  21330120.5474                                   21330116.7154
                                                                        49.7504
        37.7504
 -10907287.36747  -8460206.33245
                  23063689.6334                                   23063686.2894
                                                                        43.7504
        32.2504
  -5573456.54747  -4313754.43445
                  22552710.7974                                   22552705.7544
                                                                        47.0004
        32.5004
  -1361408.73447  -1041897.73843
                  23964728.2034                                   23964724.8164
                                                                        43.0004
        22.5004
 -10657856.89547  -8288167.59845
                  22664491.2734                                   22664488.3444
                                                                        47.0004
        33.7504
   1720985.55546   1380475.16044
                  24041300.1724                                   24041298.5824
                                                                        41.5004
        24.2504
 09 10  9  0 21 30.0000000  0  9G02G04G05G13G29G23G30G10G25
 -14463621.80948 -11229457.62147
                  20502086.7664                                   20502081.3984
                                                                        52.5004
        43.7504
  -2517946.60548  -1941134.34446
                  21756550.7974                                   21756548.1804
                                                                        51.0004
        38.7504
  -4865335.15647  -3746431.91845
                  23434837.1804                                   23434834.7704
                                                                        44.5004
        32.0004
 -17465051.76248 -13560284.70346
                  21308934.8444                                   21308930.9104
                                                                        49.5004
        37.5004
 -11076604.92247  -8592142.07045
                  23031469.2344                                   23031466.1484
                                                                        44.2504
        33.0004
  -5604167.35248  -4337684.91845
                  22546867.4534                                   22546861.3404
                                                                        48.2504
        33.0004
  -1367315.06647  -1046500.04744
                  23963603.8754                                   23963601.0744
                                                                        44.7504
        25.7504
 -10855085.33247  -8441852.03145
                  22626959.7034                                   22626956.7544
                                                                        46.7504
        34.0004
   1540956.73046   1240193.10943
                  24007042.2894                                   24007040.2304
                                                                        40.5004
        23.0004
 09 10  9  0 22  0.0000000  0  9G02G04G05G13G29G23G30G10G25
 -14557877.94548 -11302903.98047
                  20484150.3594                                   20484145.1804
                                                                        52.2504
        43.7504
  -2534375.49248  -1953936.14146
                  21753424.6484                                   21753421.9694
                                                                        51.0004
        39.0004
  -5067458.81247  -3903930.81645
                  23396375.2034                                   23396371.9024
                                                                        45.5004
        34.2504
 -17575709.49648 -13646511.50046
                  21287877.6804                                   21287873.6484
                                                                        49.7504
        38.0004
 -11245478.24247  -8723731.64545
                  22999334.0554                                   22999330.7384
                                                                        44.5004
        33.2504
  -5634366.10548  -4361216.40645
                  22541120.7344                                   22541114.8404
                                                                        48.2504
        32.5004
  -1372826.90647  -1050794.96144
                  23962555.0634                                   23962552.2734
                                                                        45.2504
        26.2504
 -11052005.09047  -8595295.95745
                  22589487.1884                                   22589484.0124
                                                                        46.5004
        33.5004
   1361261.17647   1100170.63744
                  23972847.0634                                   23972844.6054
                                                                        43.0004
        24.7504
 09 10  9  0 22 30.0000000  0  9G02G04G05G13G29G23G30G10G25
 -14651545.10548 -11375891.36347
                  20466326.1484                                   20466321.0044
                                                                        52.5004
        44.0004
  -2550399.92248  -1966422.79746
                  21750375.1484                                   21750372.1374
                                                                        48.5004
        39.0004
  -5269363.37547  -4061259.00845
                  23357954.2504                                   23357951.0664
                                                                        47.0004
        34.7504
 -17685694.73048 -13732214.25446
                  21266948.1414                                   21266944.2504
                                                                        49.0004
        37.2504
 -11413906.01247  -8854974.03945
                  22967282.7974                                   22967279.7234
                                                                        44.5004
        33.0004
  -5664055.44947  -4384350.96545
                  22535470.4304                                   22535465.0824
                                                                        47.0004
        32.0004
  -1377948.29747  -1054785.65244
                  23961580.2274                                   23961578.4694
                                                                        43.7504
        27.2504
 -11248614.57847  -8748498.15645
                  22552073.8754                                   22552070.9614
                                                                        46.7504
        34.5004
   1181901.52346    960409.89543
                  23938716.0084                                   23938713.6024
                                                                        41.2504
        22.7504
 09 10  9  0 23  0.0000000  0  9G02G04G05G13G29G23G30G10G25
 -14744622.11348 -11448418.83647
                  20448614.0944                                   20448608.6254
                                                                        51.5004
        43.5004
  -2566021.37948  -1978595.27346
                  21747402.7734                                   21747399.5514
                                                                        49.5004
        38.7504
  -5471046.38347  -4218414.55545
                  23319574.5314                                   23319571.9184
                                                                        46.2504
        34.2504
 -17795006.34048 -13817392.05146
                  21246146.4144                                   21246142.6844
                                                                        49.0004
        37.5004
 -11581884.70747  -8985866.52345
                  22935317.7584                                   22935314.2424
                                                                        44.5004
        32.2504
  -5693236.83647  -4407089.74245
                  22529917.1024                                   22529912.0204
                                                                        46.7504
        31.7504
  -1382681.50046  -1058473.88344
                  23960679.6414                                   23960677.3634
                                                                        41.2504
        26.5004
 -11444910.64847  -8901456.09845
                  22514720.2814                                   22514716.8324
                                                                        45.5004
        34.0004
   1002880.96146    820913.35543
                  23904649.9144                                   23904647.1174
                                                                        40.5004
        22.5004
 09 10  9  0 23 30.0000000  0  9G02G04G05G13G29G23G30G10G25
 -14837108.71948 -11520486.32047
                  20431014.5234                                   20431009.3014
                                                                        51.7504
        43.5004
  -2581241.67648  -1990455.27746
                  21744506.5084                                   21744503.6374
                                                                        49.0004
        38.7504
  -5672505.53547  -4375395.65645
                  23281238.0314                                   23281234.9844
                                                                        45.2504
        33.5004
 -17903643.59848 -13902044.41846
                  21225473.6094                                   21225469.7624
                                                                        49.2504
        37.2504
 -11749411.70747  -9116407.02745
                  22903438.2424                                   22903435.5084
                                                                        44.7504
        32.2504
  -5721912.10247  -4429434.10245
                  22524460.7584                                   22524455.0824
                                                                        47.0004
        31.2504
  -1387029.43747  -1061861.87544
                  23959852.6564                                   23959849.8984
                                                                        42.5004
        26.2504
 -11640890.70347  -9054167.84445
                  22477426.1724                                   22477423.5984
                                                                        45.5004
        34.2504
    824201.84447    681682.46143
                  23870648.3524                                   23870645.2584
                                                                        42.0004
        23.0004
 09 10  9  0 24  0.0000000  0  9G02G04G05G13G29G23G30G10G25
 -14929002.17248 -11592091.63347
                  20413527.9224                                   20413522.3554
                                                                        51.7504
        43.5004
  -2596059.73048  -2002001.81646
                  21741686.2584                                   21741683.6414
                                                                        49.5004
        38.0004
  -5873736.37547  -4532198.81645
                  23242945.1724                                   23242941.8984
                                                                        46.2504
        33.5004
 -18011603.17648 -13986168.68746
                  21204929.5234                                   21204925.6524
                                                                        49.5004
        37.0004
 -11916482.74647  -9246592.23845
                  22871645.8204                                   22871642.6054
                                                                        44.2504
        33.5004
  -5750080.64847  -4451383.63745
                  22519100.7114                                   22519094.9414
                                                                        46.5004
        31.2504
  -1390993.31247  -1064950.59844
                  23959098.2584                                   23959095.6134
                                                                        42.5004
        25.2504
 -11836550.38347  -9206629.89845
                  22440193.1724                                   22440190.3674
                                                                        46.0004
        34.2504
    645871.25847    542723.34043
                  23836713.9144                                   23836709.8594
                                                                        42.2504
        23.7504
 09 10  9  0 24 30.0000000  0  9G02G04G05G13G29G23G30G10G25
 -15020308.58248 -11663239.50847
                  20396152.5864                                   20396147.3284
                                                                        52.0004
        44.0004
  -2610484.48848  -2013241.96946
                  21738941.5784                                   21738939.1134
                                                                        49.0004
        38.5004
  -6074742.45347  -4688826.84845
                  23204694.9454                                   23204691.7424
                                                                        45.7504
        33.7504
 -18118892.03148 -14069770.34846
                  21184513.0784                                   21184509.1174
                                                                        48.2504
        37.7504
 -12083101.06247  -9376424.68745
                  22839939.3284                                   22839936.9534
                                                                        44.7504
        34.0004
  -5777751.40647  -4472945.27745
                  22513835.1884                                   22513829.0984
                                                                        46.2504
        31.0004
  -1394581.34046  -1067746.48044
                  23958414.7424                                   23958412.5704
                                                                        40.0004
        24.0004
 -12031893.47347  -9358845.31645
                  22403020.8364                                   22403017.7734
                                                                        46.7504
        35.0004
    467883.19546    404030.69543
                  23802843.7034                                   23802841.9734
                                                                        41.5004
        22.7504
 09 10  9  0 25  0.0000000  0  9G02G04G05G13G29G23G30G10G25
 -15111024.77048 -11733927.46547
                  20378890.2664                                   20378884.6054
                                                                        52.2504
        43.7504
  -2624514.37548  -2024174.43046
                  21736271.9144                                   21736269.0594
                                                                        48.7504
        38.5004
  -6275519.75048  -4845276.66445
                  23166488.4844                                   23166484.5904
                                                                        48.0004
        33.5004
 -18225506.30148 -14152846.40646
                  21164225.0084                                   21164221.0004
                                                                        48.5004
        37.0004
 -12249262.30947  -9505900.95745
                  22808319.8984                                   22808317.3204
                                                                        45.0004
        34.7504
  -5804923.51647  -4494118.35945
                  22508664.2814                                   22508658.4264
                                                                        46.7504
        31.0004
  -1397794.63746  -1070250.42243
                  23957802.9614                                   23957800.9144
                                                                        40.5004
        22.7504
 -12226914.86747  -9510810.01645
                  22365909.6804                                   22365906.5164
                                                                        47.0004
        34.2504
    290248.09846    265614.75843
                  23769040.1804                                   23769037.9104
                                                                        39.7504
        22.7504
 09 10  9  0 25 30.0000000  0  9G02G04G05G13G29G23G30G10G25
 -15201148.76248 -11804153.97747
                  20361739.8204                                   20361734.7974
                                                                        52.2504
        43.5004
  -2638149.71548  -2034799.43746
                  21733677.6484                                   21733674.4184
                                                                        48.7504
        38.2504
  -6476064.01647  -5001544.90245
                  23128326.2734                                   23128322.5274
                                                                        47.5004
        33.7504
 -18331443.76248 -14235395.03546
                  21144066.0164                                   21144061.7424
                                                                        48.2504
        36.7504
 -12414962.01647  -9635017.60245
                  22776788.3594                                   22776785.5474
                                                                        45.2504
        34.7504
  -5831597.10247  -4514902.98445
                  22503588.6484                                   22503582.3284
                                                                        47.2504
        31.7504
  -1400634.22747  -1072463.05544
                  23957264.0554                                   23957260.7194
                                                                        44.0004
        24.2504
 -12421611.00847  -9662521.25445
                  22328859.7584                                   22328856.9574
                                                                        46.0004
        34.2504
    112966.15646    127473.48443
                  23735303.8834                                   23735302.1254
                                                                        39.5004
        22.5004
 09 10  9  0 26  0.0000000  0  9G02G04G05G13G29G23G30G10G25
 -15290682.32448 -11873920.43747
                  20344702.5084                                   20344696.9064
                                                                        52.2504
        43.2504
  -2651394.55548  -2045120.25046
                  21731157.1024                                   21731153.9884
                                                                        49.7504
        37.2504
  -6676374.98847  -5157631.34845
                  23090208.1024                                   23090204.5164
                                                                        47.5004
        34.2504
 -18436706.73848 -14317418.19146
                  21124034.9844                                   21124031.2584
                                                                        49.5004
        37.0004
 -12580199.62547  -9763774.16445
                  22745344.8444                                   22745342.2234
                                                                        45.5004
        35.0004
  -5857777.07447  -4535303.00045
                  22498606.9614                                   22498601.1804
                                                                        47.2504
        31.7504
  -1403105.02347  -1074388.33244
                  23956793.5084                                   23956790.3874
                                                                        44.5004
        24.2504
 -12615981.26647  -9813978.49245
                  22291872.5704                                   22291869.4304
                                                                        46.5004
        34.2504
    -63962.12546    -10392.56644
                  23701636.4844                                   23701633.0664
                                                                        41.0004
        24.0004
 09 10  9  0 26 30.0000000  0  9G02G04G05G13G29G23G30G10G25
 -15379627.37148 -11943228.27347
                  20327776.7894                                   20327771.5984
                                                                        51.0004
        43.2504
  -2664252.08248  -2055139.18746
                  21728710.4534                                   21728707.4224
                                                                        49.7504
        38.0004
  -6876452.89547  -5313536.14845
                  23052134.0314                                   23052131.5474
                                                                        47.5004
        34.5004
 -18541295.73448 -14398916.18446
                  21104132.7504                                   21104128.8874
                                                                        49.7504
        36.5004
 -12744974.75447  -9892170.34045
                  22713988.8364                                   22713985.8984
                                                                        46.2504
        34.0004
  -5883467.05147  -4555321.22745
                  22493718.3364                                   22493712.8324
                                                                        47.5004
        32.5004
  -1405212.40647  -1076030.41444
                  23956392.5234                                   23956388.7934
                                                                        44.0004
        24.2504
 -12810025.52347  -9965181.75445
                  22254946.9534                                   22254944.4654
                                                                        47.0004
        35.0004
   -240534.34046   -147981.26243
                  23668035.8444                                   23668032.1914
                                                                        41.0004
        23.5004
 09 10  9  0 27  0.0000000  0  9G02G04G05G13G29G23G30G10G25
 -15467981.08648 -12012075.32447
                  20310963.7504                                   20310958.4574
                                                                        51.2504
        43.5004
  -2676723.04348  -2064857.19546
                  21726337.4304                                   21726334.8914
                                                                        50.0004
        38.5004
  -7076293.22348  -5469255.86345
                  23014105.9384                                   23014102.9494
                                                                        48.2504
        35.0004
 -18645208.93748 -14479887.41846
                  21084358.3754                                   21084354.5984
                                                                        50.0004
        36.7504
 -12909282.89547 -10020202.65245
                  22682722.2584                                   22682718.8794
                                                                        46.5004
        33.2504
  -5908667.12947  -4574957.73845
                  22488922.8594                                   22488917.5904
                                                                        46.7504
        31.0004
  -1406956.71547  -1077389.58244
                  23956060.3594                                   23956057.7704
                                                                        44.5004
        26.0004
 -13003739.13347 -10116127.34045
                  22218084.6254                                   22218081.7504
                                                                        47.2504
        35.0004
   -416745.95746   -285288.74644
                  23634503.6334                                   23634499.8094
                                                                        40.0004
        25.5004
 09 10  9  0 27 30.0000000  0  9G02G04G05G13G29G23G30G10G25
 -13980326.23848 -10852863.79747
                  20594055.1414                                   20594049.5704
                                                                        51.5004
        43.2504
  -1113392.63748   -846677.50446
                  22023829.3364                                   22023826.2704
                                                                        50.2504
        37.7504
  -5700472.76247  -4397187.93745
                  23275915.6414                                   23275912.3014
                                                                        47.7504
        34.2504
 -17173027.89848 -13332733.34446
                  21364505.7274                                   21364501.5944
                                                                        49.5004
        37.2504
 -11497702.07847  -8920269.54345
                  22951337.2194                                   22951333.8284
                                                                        45.5004
        33.2504
  -4357963.79347  -3366617.53145
                  22784011.8204                                   22784006.0744
                                                                        45.5004
        31.7504
    167072.64846    149126.76243
                  24255587.9844                                   24255585.7234
                                                                        41.7504
        22.0004
 -11621698.75447  -9039212.74645
                  22481078.2424                                   22481075.0474
                                                                        46.5004
        35.0004
    982826.04746    805287.00844
                  23900832.9144                                   23900830.4184
                                                                        40.7504
        26.0004
 09 10  9  0 28  0.0000000  0  9G02G04G05G13G29G23G30G10G25
 -14067501.27348 -10920792.39547
                  20577466.1334                                   20577460.8204
                                                                        52.0004
        43.5004
  -1125097.47348   -855798.07446
                  22021601.9774                                   22021599.1054
                                                                        50.2504
        37.5004
  -5899835.91847  -4552535.84045
                  23237978.4384                                   23237974.9804
                                                                        47.7504
        34.2504
 -17275591.46148 -13412652.97746
                  21344988.0944                                   21344984.1334
                                                                        50.0004
        37.5004
 -11661073.81647  -9047572.19145
                  22920248.3134                                   22920245.0514
                                                                        45.7504
        33.2504
  -4382194.12147  -3385498.34045
                  22779401.0004                                   22779395.1524
                                                                        45.0004
        30.2504
    166039.54746    148321.69543
                  24255391.0314                                   24255389.4734
                                                                        40.5004
        23.5004
 -11814748.50847  -9189641.09845
                  22444342.3364                                   22444338.8484
                                                                        47.7504
        35.5004
    807340.05146    668544.79744
                  23867439.0234                                   23867435.6954
                                                                        41.5004
        25.2504
 09 10  9  0 28 30.0000000  0  9G02G04G05G13G29G23G30G10G25
 -14154087.46948 -10988262.16447
                  20560989.1724                                   20560984.1024
                                                                        51.2504
        43.5004
  -1136423.71548   -864623.77746
                  22019446.7894                                   22019443.7154
                                                                        50.0004
        37.5004
  -6098957.63748  -4707695.59445
                  23200086.5164                                   23200083.7934
                                                                        48.0004
        34.2504
 -17377481.18048 -13492047.52346
                  21325598.8984                                   21325595.1414
                                                                        50.2504
        37.2504
 -11823973.83647  -9174507.27045
                  22889249.3204                                   22889246.2704
                                                                        45.5004
        33.0004
  -4405943.92647  -3404004.67245
                  22774881.2894                                   22774875.5164
                                                                        45.7504
        30.5004
    165357.70746    147790.31644
                  24255261.9774                                   24255259.4574
                                                                        41.7504
        25.5004
 -12007463.23047  -9339808.39545
                  22407669.7424                                   22407666.4694
                                                                        47.5004
        35.5004
    632219.88746    532087.56643
                  23834114.2664                                   23834111.0904
                                                                        41.5004
        23.5004
 09 10  9  0 29  0.0000000  0  9G02G04G05G13G29G23G30G10G25
 -14240083.85948 -11055272.33647
                  20544624.6414                                   20544618.9104
                                                                        51.5004
        43.5004
  -1147371.58248   -873154.51646
                  22017363.1804                                   22017360.5704
                                                                        49.2504
        37.5004
  -6297835.21148  -4862665.03945
                  23162241.3284                                   23162238.5594
                                                                        48.0004
        35.2504
 -17478695.64548 -13570915.89146
                  21306338.2814                                   21306334.4304
                                                                        50.0004
        38.0004
 -11986399.30947  -9301072.57845
                  22858341.3834                                   22858337.3874
                                                                        46.0004
        33.5004
  -4429214.16447  -3422137.30944
                  22770453.7344                                   22770446.6604
                                                                        46.2504
        29.5004
    165024.15247    147530.40644
                  24255198.0784                                   24255195.1644
                                                                        44.0004
        26.0004
 -12199840.16447  -9489712.43745
                  22371061.2814                                   22371058.0864
                                                                        47.2504
        35.2504
    457469.65646    395918.59043
                  23800860.3524                                   23800857.3484
                                                                        41.5004
        23.5004
 09 10  9  0 29 30.0000000  0  9G02G04G05G13G29G23G30G10G25
 -14325490.91448 -11121823.29347
                  20528372.3914                                   20528367.3284
                                                                        52.0004
        43.5004
  -1157943.91048   -881392.70346
                  22015351.3984                                   22015348.5234
                                                                        50.5004
        37.7504
  -6496467.56648  -5017443.46945
                  23124443.2274                                   23124439.5274
                                                                        48.0004
        35.0004
 -17579235.20748 -13649258.33646
                  21287206.3524                                   21287202.4224
                                                                        49.7504
        37.5004
 -12148349.44547  -9427267.49245
                  22827522.8524                                   22827519.8444
                                                                        45.0004
        34.0004
  -4452007.85247  -3439898.64145
                  22766115.8284                                   22766109.7424
                                                                        46.2504
        31.0004
    165034.98447    147538.84444
                  24255200.7894                                   24255197.9304
                                                                        43.5004
        26.2504
 -12391877.90247  -9639352.20345
                  22334517.8134                                   22334514.9344
                                                                        47.2504
        35.0004
    283091.48047    260039.53944
                  23767677.4924                                   23767674.3984
                                                                        42.0004
        25.7504
 09 10  9  0 30  0.0000000  0  8G02G04G05G13G29G23G10G25
 -14410308.05548 -11187914.54747
                  20512231.9694                                   20512227.1484
                                                                        52.5004
        43.2504
  -1168142.46548   -889339.51646
                  22013410.5164                                   22013408.1024
                                                                        50.0004
        37.5004
  -6694851.79747  -5172028.54745
                  23086691.6334                                   23086688.1294
                                                                        47.7504
        34.7504
 -17679099.91048 -13727074.92646
                  21268202.5944                                   21268198.7154
                                                                        49.2504
        37.7504
 -12309821.02047  -9553089.48845
                  22796796.2194                                   22796793.1454
                                                                        46.0004
        34.5004
  -4474327.27347  -3457290.41845
                  22761868.8444                                   22761862.9614
                                                                        45.7504
        30.0004
 -12583573.64847  -9788725.48045
                  22298039.2974                                   22298036.3284
                                                                        47.2504
        35.5004
    109087.80147    124452.28144
                  23734565.8754                                   23734562.9104
                                                                        42.7504
        25.2504
 09 10  9  0 30 30.0000000  0  8G02G04G05G13G29G23G10G25
 -14494534.83648 -11253545.76247
                  20496204.3834                                   20496199.2074
                                                                        52.2504
        43.5004
  -1177968.48848   -896996.24246
                  22011540.6954                                   22011538.0474
                                                                        50.5004
        37.0004
  -6892985.18748  -5326418.18745
                  23048988.1564                                   23048984.5744
                                                                        48.0004
        34.5004
 -17778288.53148 -13804364.72346
                  21249327.8444                                   21249323.5864
                                                                        50.0004
        37.5004
 -12470810.71547  -9678535.99245
                  22766160.3914                                   22766157.9304
                                                                        46.5004
        34.2504
  -4496173.49647  -3474313.46545
                  22757711.5554                                   22757705.6954
                                                                        46.5004
        30.5004
 -12774924.22348  -9937829.77345
                  22261626.5784                                   22261623.0274
                                                                        48.5004
        35.5004
    -64537.52347    -10840.11744
                  23701525.6174                                   23701522.2854
                                                                        43.7504
        24.7504
 09 10  9  0 31  0.0000000  0  8G02G04G05G13G29G23G10G25
 -14578160.20748 -11318708.30147
                  20480290.9384                                   20480285.0784
                                                                        53.0004
        43.5004
  -1187413.03148   -904355.68446
                  22009743.4304                                   22009740.5314
                                                                        49.0004
        36.7504
  -7090855.75047  -5480602.99245
                  23011334.5554                                   23011331.4964
                                                                        47.5004
        35.5004
 -17876790.09448 -13881119.14146
                  21230583.4384                                   21230579.2114
                                                                        49.0004
        36.5004
 -12631306.52347  -9803597.64145
                  22735618.8914                                   22735616.4224
                                                                        46.2504
        35.2504
  -4517538.40647  -3490961.44545
                  22753645.8054                                   22753640.0904
                                                                        45.2504
        30.2504
 -12965917.73447 -10086655.84045
                  22225281.5474                                   22225278.0084
                                                                        47.5004
        35.7504
   -237771.10247   -145827.35544
                  23668561.0164                                   23668557.4804
                                                                        43.7504
        26.5004
 09 10  9  0 31 30.0000000  0  8G02G04G05G13G29G23G10G25
 -14661174.96948 -11383395.09447
                  20464493.6334                                   20464488.3954
                                                                        53.0004
        43.5004
  -1196468.50048   -911412.04746
                  22008020.8204                                   22008017.7974
                                                                        49.2504
        36.7504
  -7288450.66447  -5634573.03145
                  22973733.1954                                   22973730.6214
                                                                        47.5004
        35.0004
 -17974595.19548 -13957330.88746
                  21211971.9844                                   21211968.0274
                                                                        50.0004
        37.0004
 -12791295.50047  -9928264.37545
                  22705174.4614                                   22705171.4844
                                                                        46.2504
        35.0004
  -4538414.59047  -3507228.64544
                  22749672.8984                                   22749667.5124
                                                                        44.7504
        29.5004
 -13156541.35947 -10235193.70346
                  22189007.1414                                   22189003.9224
                                                                        47.5004
        36.0004
   -410600.91847   -280499.89844
                  23635672.1884                                   23635668.6294
                                                                        43.0004
        24.0004
 09 10  9  0 32  0.0000000  0  8G02G04G05G13G29G23G10G25
 -14743588.94148 -11447613.76647
                  20448810.7734                                   20448805.5634
                                                                        53.0004
        44.0004
  -1205146.18448   -918173.84046
                  22006369.0554                                   22006366.2664
                                                                        49.5004
        37.2504
  -7485778.34047  -5788334.83645
                  22936183.6954                                   22936180.0704
                                                                        47.7504
        34.7504
 -18071713.53548 -14033007.51646
                  21193490.6094                                   21193486.6334
                                                                        49.5004
        37.2504
 -12950786.03147 -10052542.70745
                  22674824.4774                                   22674821.2234
                                                                        46.7504
        34.7504
  -4558814.18747  -3523124.52745
                  22745791.4144                                   22745785.6054
                                                                        44.5004
        30.2504
 -13346802.89547 -10383449.41845
                  22152800.9454                                   22152798.4924
                                                                        47.0004
        35.7504
   -583033.82047   -414863.12544
                  23602859.5314                                   23602855.8054
                                                                        43.2504
        25.5004
 09 10  9  0 32 30.0000000  0  8G02G04G05G13G29G23G10G25
 -14825400.98448 -11511363.45347
                  20433242.3444                                   20433236.9734
                                                                        52.2504
        43.2504
  -1213447.63348   -924642.53546
                  22004789.5634                                   22004787.0004
                                                                        48.7504
        37.5004
  -7682835.38347  -5941885.69945
                  22898684.1024                                   22898681.4804
                                                                        47.0004
        35.7504
 -18168143.98048 -14108148.10946
                  21175140.6174                                   21175136.4494
                                                                        49.5004
        37.2504
 -13109774.66847 -10176429.94145
                  22644569.7344                                   22644566.6884
                                                                        46.2504
        34.5004
  -4578738.03147  -3538649.60545
                  22742000.2734                                   22741994.3054
                                                                        45.2504
        31.0004
 -13536699.47747 -10531420.73446
                  22116665.2734                                   22116662.4224
                                                                        47.0004
        36.7504
   -755066.39847   -548914.45744
                  23570122.6564                                   23570119.8984
                                                                        43.5004
        25.7504
 09 10  9  0 33  0.0000000  0  8G02G04G05G13G29G23G10G25
 -14906613.98448 -11574646.33247
                  20417787.7734                                   20417782.8364
                                                                        51.7504
        43.2504
  -1221376.87948   -930821.21146
                  22003281.0164                                   22003278.1254
                                                                        49.5004
        36.5004
  -7879622.95747  -6095226.60946
                  22861237.3284                                   22861233.8634
                                                                        47.7504
        36.2504
 -18263889.33648 -14182754.87546
                  21156920.6334                                   21156916.9414
                                                                        49.5004
        37.5004
 -13268262.02347 -10299926.59045
                  22614410.6094                                   22614407.3984
                                                                        46.5004
        34.5004
  -4598191.85547  -3553808.47345
                  22738298.4614                                   22738292.6054
                                                                        44.5004
        31.2504
 -13726231.46548 -10679108.00046
                  22080598.5004                                   22080595.2854
                                                                        48.0004
        36.5004
   -926698.51247   -682653.80544
                  23537461.8594                                   23537459.3874
                                                                        42.5004
        26.0004
 09 10  9  0 33 30.0000000  0  8G02G04G05G13G29G23G10G25
 -14987230.62148 -11637464.48047
                  20402447.3134                                   20402441.9024
                                                                        52.5004
        44.0004
  -1228939.46148   -936714.13346
                  22001841.3834                                   22001838.9414
                                                                        49.0004
        36.7504
  -8076140.80148  -6248357.35246
                  22823841.0314                                   22823837.7274
                                                                        48.0004
        36.0004
 -18358952.55948 -14256830.11746
                  21138831.0864                                   21138827.3714
                                                                        49.2504
        37.2504
 -13426248.41047 -10423032.85545
                  22584346.7734                                   22584343.7424
                                                                        46.2504
        34.2504
  -4617180.91047  -3568605.16444
                  22734684.6724                                   22734678.4454
                                                                        44.5004
        28.2504
 -13915399.52747 -10826511.68746
                  22044601.0394                                   22044598.0984
                                                                        47.7504
        36.5004
  -1097931.08247   -816081.88744
                  23504877.2664                                   23504874.4024
                                                                        42.2504
        25.7504
 09 10  9  0 34  0.0000000  0  8G02G04G05G13G29G23G10G25
 -15067253.11748 -11699819.68747
                  20387219.3594                                   20387214.1214
                                                                        52.7504
        43.2504
  -1236138.98448   -942324.23846
                  22000471.4694                                   22000468.7234
                                                                        49.0004
        36.5004
  -8272389.98448  -6401278.75046
                  22786496.3204                                   22786493.0354
                                                                        48.0004
        36.2504
 -18453335.57848 -14330375.31646
                  21120870.3754                                   21120866.2664
                                                                        50.7504
        37.7504
 -13583734.06647 -10545748.94545
                  22554377.9924                                   22554375.0474
                                                                        47.0004
        34.5004
  -4635709.13747  -3583042.74644
                  22731159.1644                                   22731153.3554
                                                                        44.5004
        29.2504
 -14104203.49248 -10973631.69146
                  22008672.6884                                   22008669.9064
                                                                        48.5004
        36.0004
  -1268762.36747   -949197.11744
                  23472369.7894                                   23472366.3954
                                                                        42.2504
        26.0004
 09 10  9  0 34 30.0000000  0  8G02G04G05G13G29G23G10G25
 -15146684.84848 -11761714.56247
                  20372104.4304                                   20372098.9454
                                                                        52.0004
        43.5004
  -1242980.10548   -947654.93046
                  21999169.5474                                   21999167.0784
                                                                        49.2504
        36.5004
  -8468371.07047  -6553991.21546
                  22749201.9454                                   22749198.6054
                                                                        46.5004
        36.0004
 -18547041.87948 -14403393.20746
                  21103038.8054                                   21103034.6524
                                                                        50.5004
        37.2504
 -13740720.02747 -10668075.67245
                  22524504.4064                                   22524501.6884
                                                                        46.5004
        33.7504
  -4653782.32047  -3597125.80944
                  22727719.4304                                   22727713.3284
                                                                        44.0004
        28.7504
 -14292644.37147 -11120468.82446
                  21972813.9064                                   21972810.8554
                                                                        47.5004
        36.0004
  -1439193.69547  -1082000.68744
                  23439937.3204                                   23439934.2774
                                                                        43.0004
        27.5004
 09 10  9  0 35  0.0000000  0  8G02G04G05G13G29G23G10G25
 -15225528.51248 -11823151.19147
                  20357100.6024                                   20357095.5944
                                                                        52.0004
        43.5004
  -1249467.84847   -952710.31246
                  21997935.0554                                   21997932.5904
                                                                        47.7504
        37.2504
  -8664085.04347  -6706495.58245
                  22711958.5084                                   22711955.4344
                                                                        47.0004
        35.5004
 -18640073.77048 -14475885.57846
                  21085335.3364                                   21085331.2154
                                                                        50.7504
        37.0004
 -13897206.76647 -10790013.39145
                  22494726.3364                                   22494722.9064
                                                                        47.2504
        34.7504
  -4671405.13347  -3610858.04745
                  22724366.3834                                   22724360.5594
                                                                        45.0004
        30.0004
 -14480722.26248 -11267023.03145
                  21937023.7664                                   21937020.9414
                                                                        48.2504
        35.5004
  -1609224.87947  -1214492.64844
                  23407581.9534                                   23407577.9494
                                                                        43.0004
        26.0004
 09 10  9  0 35 30.0000000  0  8G02G04G05G13G29G23G10G25
 -15303783.11348 -11884128.85947
                  20342209.5394                                   20342204.1374
                                                                        51.7504
        43.5004
  -1255602.91048   -957490.90246
                  21996767.7274                                   21996764.8874
                                                                        48.2504
        37.0004
  -8859528.37147  -6858789.10246
                  22674766.9384                                   22674763.6414
                                                                        46.0004
        36.0004
 -18732430.76648 -14547852.07846
                  21067760.1024                                   21067756.0394
                                                                        50.2504
        37.0004
 -14053190.73847 -10911559.33645
                  22465043.6334                                   22465040.6454
                                                                        47.5004
        35.5004
  -4688578.86747  -3624240.21145
                  22721098.4454                                   22721093.1564
                                                                        45.5004
        30.5004
 -14668434.10947 -11413291.94146
                  21901303.5784                                   21901300.1954
                                                                        47.5004
        36.5004
  -1778852.33246  -1346670.01244
                  23375302.5944                                   23375299.1844
                                                                        41.2504
        25.5004
 09 10  9  0 36  0.0000000  0  8G02G04G05G13G29G23G10G25
 -13806024.21948 -10717044.00047
                  20627223.6094                                   20627218.3954
                                                                        51.7504
        43.5004
    314034.66448    265603.31646
                  22295459.7194                                   22295457.1254
                                                                        49.7504
        36.7504
  -7479270.59047  -5783263.57445
                  22937421.7894                                   22937418.0984
                                                                        46.7504
        35.7504
 -17248688.12948 -13391688.97346
                  21350107.5004                                   21350103.2274
                                                                        51.0004
        37.0004
 -12633242.97348  -9805106.53846
                  22735250.6414                                   22735247.5314
                                                                        48.0004
        36.0004
  -3129883.60547  -2409672.55144
                  23017707.5784                                   23017702.6454
                                                                        45.2504
        29.7504
 -13280349.89547 -10331667.87946
                  22165446.8914                                   22165444.1054
                                                                        47.7504
        36.7504
   -372645.55146   -250924.40244
                  23642895.6564                                   23642891.9574
                                                                        41.2504
        26.2504
 09 10  9  0 36 30.0000000  0  8G02G04G05G13G29G23G10G25
 -13883098.83248 -10777102.08647
                  20612556.6174                                   20612551.1294
                                                                        52.2504
        43.5004
    308601.17648    261369.46146
                  22294426.0944                                   22294423.2034
                                                                        49.2504
        36.2504
  -7674164.45347  -5935128.89846
                  22900334.5554                                   22900330.5744
                                                                        47.0004
        36.0004
 -17339693.49248 -13462602.23446
                  21332789.3594                                   21332785.3524
                                                                        51.2504
        37.5004
 -12788213.28547  -9925862.60946
                  22705760.8204                                   22705757.7704
                                                                        46.2504
        36.0004
  -3146164.29747  -2422358.87944
                  23014610.0474                                   23014604.7734
                                                                        45.2504
        29.2504
 -13467321.03147 -10477359.67646
                  22129867.5234                                   22129864.5394
                                                                        47.0004
        36.7504
   -541454.82047   -382463.92644
                  23610771.3444                                   23610768.4734
                                                                        42.0004
        27.2504
 09 10  9  0 37  0.0000000  0  8G02G04G05G13G29G23G10G25
 -13959585.00048 -10836701.69547
                  20598001.7194                                   20597996.4304
                                                                        52.5004
        43.5004
    303514.21148    257405.58246
                  22293458.0084                                   22293454.9574
                                                                        49.0004
        36.2504
  -7868781.46147  -6086778.51646
                  22863299.7034                                   22863296.5204
                                                                        47.0004
        36.0004
 -17430024.39548 -13532989.94146
                  21315600.0234                                   21315595.6024
                                                                        51.0004
        37.0004
 -12942674.82447 -10046222.24245
                  22676367.7734                                   22676364.7974
                                                                        47.7504
        35.5004
  -3162003.24647  -2434700.97344
                  23011596.0784                                   23011590.4064
                                                                        46.7504
        29.5004
 -13653919.52348 -10622761.04746
                  22094358.7974                                   22094356.3484
                                                                        48.0004
        37.2504
   -709852.70347   -513682.93444
                  23578726.5164                                   23578723.5434
                                                                        42.2504
        26.0004
 09 10  9  0 37 30.0000000  0  8G02G04G05G13G29G23G10G25
 -14035485.80548 -10895845.15247
                  20583558.3914                                   20583553.1994
                                                                        51.7504
        43.2504
    298769.33248    253708.28946
                  22292555.2344                                   22292552.0044
                                                                        50.0004
        36.2504
  -8063122.63347  -6238213.20746
                  22826318.3284                                   22826314.7624
                                                                        46.2504
        37.0004
 -17519683.60548 -13602854.27346
                  21298538.3914                                   21298534.0594
                                                                        51.5004
        36.7504
 -13096628.01247 -10166185.75446
                  22647071.3204                                   22647068.6414
                                                                        46.5004
        36.5004
  -3177405.42647  -2446702.69944
                  23008665.5704                                   23008659.5864
                                                                        46.5004
        29.5004
 -13840146.00847 -10767872.59446
                  22058921.7504                                   22058918.3364
                                                                        47.7504
        36.7504
   -877839.47346   -644581.72744
                  23546759.1024                                   23546756.4224
                                                                        40.5004
        24.0004
 09 10  9  0 38  0.0000000  0  8G02G04G05G13G29G23G10G25
 -14110800.37948 -10954531.87947
                  20569226.5394                                   20569221.4844
                                                                        52.2504
        43.7504
    294365.48848    250276.71946
                  22291716.6254                                   22291714.0744
                                                                        49.2504
        36.0004
  -8257184.75047  -6389430.44946
                  22789389.4454                                   22789385.9494
                                                                        47.7504
        36.7504
 -17608671.00848 -13672195.09046
                  21281604.8524                                   21281600.8324
                                                                        51.5004
        37.5004
 -13250069.83647 -10285750.79345
                  22617872.0784                                   22617869.4414
                                                                        46.5004
        35.7504
  -3192372.21947  -2458365.14145
                  23005817.3914                                   23005811.7504
                                                                        46.7504
        30.0004
 -14025997.41448 -10912691.87546
                  22023554.8054                                   22023551.8594
                                                                        48.2504
        36.5004
  -1045411.42246   -775157.27744
                  23514871.9454                                   23514868.2814
                                                                        41.5004
        26.0004
 09 10  9  0 38 30.0000000  0  8G02G04G05G13G29G23G10G25
 -14185526.80548 -11012760.30147
                  20555006.5084                                   20555001.3204
                                                                        52.0004
        43.5004
    290302.69548    247110.87146
                  22290943.8984                                   22290941.1334
                                                                        49.2504
        36.5004
  -8450963.67648  -6540427.02346
                  22752514.2734                                   22752511.0824
                                                                        48.5004
        36.2504
 -17696984.39548 -13741010.70346
                  21264798.9614                                   21264795.3874
                                                                        51.5004
        37.5004
 -13402996.52347 -10404914.42645
                  22588771.2504                                   22588768.5314
                                                                        46.2504
        35.2504
  -3206904.02747  -2469688.61344
                  23003051.8754                                   23003045.8674
                                                                        45.7504
        28.0004
 -14211470.03148 -11057216.00046
                  21988260.5314                                   21988257.5234
                                                                        49.0004
        37.5004
  -1212563.53546   -905405.63744
                  23483063.6724                                   23483060.3634
                                                                        41.2504
        27.2504
 09 10  9  0 39  0.0000000  0  8G02G04G05G13G29G23G10G25
 -14259668.50848 -11070533.02047
                  20540897.8524                                   20540892.9184
                                                                        52.5004
        43.2504
    286575.75048    244206.75845
                  22290234.5314                                   22290231.8754
                                                                        48.0004
        35.5004
  -8644460.51648  -6691203.78546
                  22715693.0944                                   22715689.8244
                                                                        48.0004
        36.0004
 -17784627.35548 -13809303.91446
                  21248121.2504                                   21248117.5704
                                                                        51.5004
        37.0004
 -13555408.80547 -10523677.22345
                  22559768.2274                                   22559765.2584
                                                                        45.5004
        35.7504
  -3221006.77047  -2480677.77044
                  23000367.4774                                   23000361.5634
                                                                        45.2504
        26.5004
 -14396564.38347 -11201445.39546
                  21953038.3914                                   21953035.1604
                                                                        47.7504
        36.5004
  -1379297.35947  -1035328.17644
                  23451335.3594                                   23451331.8554
                                                                        42.0004
        27.0004
 09 10  9  0 39 30.0000000  0  8G02G04G05G13G29G23G10G25
 -14333224.87948 -11127849.68047
                  20526900.5004                                   20526895.1054
                                                                        52.7504
        43.0004
    283184.00448    241563.85246
                  22289588.8134                                   22289586.1094
                                                                        48.7504
        36.5004
  -8837671.87948  -6841758.12546
                  22678925.8674                                   22678922.7504
                                                                        48.0004
        36.5004
 -17871599.56648 -13877074.45746
                  21231571.0234                                   21231567.0124
                                                                        51.5004
        36.7504
 -13707303.79347 -10642036.92646
                  22530863.6644                                   22530860.2664
                                                                        46.0004
        36.2504
  -3234681.19947  -2491333.14544
                  22997766.0004                                   22997760.1334
                                                                        45.2504
        28.0004
 -14581277.35547 -11345377.64146
                  21917888.5164                                   21917885.4224
                                                                        47.7504
        37.2504
  -1545608.15646  -1164920.88744
                  23419687.3054                                   23419684.1884
                                                                        41.7504
        27.0004
 09 10  9  0 40  0.0000000  0  8G02G04G05G13G29G23G10G25
 -14406194.47748 -11184709.09047
                  20513014.8754                                   20513009.5274
                                                                        53.0004
        43.2504
    280126.74648    239181.56346
                  22289007.5554                                   22289004.8714
                                                                        49.0004
        36.0004
  -9030594.66048  -6992087.56646
                  22642214.4694                                   22642210.4494
                                                                        49.0004
        36.0004
 -17957899.44548 -13944321.10546
                  21215148.6334                                   21215144.6294
                                                                        51.5004
        37.2504
 -13858677.85247 -10759990.71945
                  22502058.3444                                   22502055.0124
                                                                        46.5004
        35.7504
  -3247928.48447  -2501655.68044
                  22995245.2504                                   22995239.4454
                                                                        46.5004
        28.7504
 -14765605.23848 -11489009.78146
                  21882812.2424                                   21882809.2584
                                                                        48.5004
        37.2504
  -1711492.60946  -1294181.39844
                  23388120.5634                                   23388117.2034
                                                                        41.2504
        26.5004
 09 10  9  0 40 30.0000000  0  8G02G04G05G13G29G23G10G25
 -14478578.54748 -11241112.23847
                  20499240.4614                                   20499235.4574
                                                                        52.2504
        43.2504
    277401.44148    237057.94545
                  22288488.7664                                   22288485.9304
                                                                        48.5004
        35.7504
  -9223227.27048  -7142190.92246
                  22605557.2664                                   22605554.0594
                                                                        48.5004
        36.7504
 -18043528.19548 -14011044.80146
                  21198853.8984                                   21198850.0124
                                                                        52.0004
        37.5004
 -14009529.46147 -10877537.37945
                  22473351.9844                                   22473348.7194
                                                                        47.5004
        35.7504
  -3260751.91847  -2511647.96544
                  22992805.0394                                   22992799.5634
                                                                        47.2504
        29.5004
 -14949546.21548 -11632340.45346
                  21847809.6804                                   21847806.8284
                                                                        48.5004
        37.5004
  -1876949.00047  -1423108.42244
                  23356635.0004                                   23356632.2074
                                                                        42.2504
        26.2504
 09 10  9  0 41  0.0000000  0  8G02G04G05G13G29G23G10G25
 -14550377.95748 -11297059.84847
                  20485577.5784                                   20485572.1644
                                                                        53.0004
        43.0004
    275005.69548    235191.13345
                  22288032.5474                                   22288030.2894
                                                                        48.7504
        35.5004
  -9415568.35248  -7292067.20346
                  22568956.1484                                   22568953.0164
                                                                        49.5004
        36.5004
 -18128486.25448 -14077245.89146
                  21182686.9924                                   21182683.3834
                                                                        51.7504
        37.5004
 -14159857.39147 -10994675.98445
                  22444744.9694                                   22444742.1374
                                                                        47.0004
        35.5004
  -3273153.86747  -2521311.83244
                  22990444.3364                                   22990439.4774
                                                                        45.7504
        29.5004
 -15133099.08248 -11775368.66846
                  21812880.6724                                   21812877.5314
                                                                        49.7504
        37.0004
  -2041975.11347  -1551700.24644
                  23325231.9304                                   23325228.3284
                                                                        43.5004
        26.2504
 09 10  9  0 41 30.0000000  0  8G02G04G05G13G29G23G10G25
 -14621593.78548 -11352552.76647
                  20472025.7894                                   20472020.3054
                                                                        52.5004
        43.0004
    272936.85948    233579.02745
                  22287638.8754                                   22287636.2504
                                                                        48.5004
        35.7504
  -9607615.73048  -7441714.37946
                  22532411.0784                                   22532407.3954
                                                                        48.7504
        37.2504
 -18212775.18748 -14142925.59846
                  21166647.3914                                   21166643.8594
                                                                        52.0004
        37.0004
 -14309660.23447 -11111405.46545
                  22416238.4844                                   22416235.7974
                                                                        47.2504
        35.5004
  -3285137.77347  -2530649.93044
                  22988164.1094                                   22988159.0944
                                                                        46.0004
        28.2504
 -15316262.32048 -11918093.27746
                  21778025.6334                                   21778022.6174
                                                                        49.0004
        37.5004
  -2206569.29346  -1679955.46944
                  23293910.2034                                   23293907.6054
                                                                        41.5004
        25.5004
 09 10  9  0 42  0.0000000  0  8G02G04G05G13G29G23G10G25
 -14692222.74248 -11407588.35547
                  20458585.6484                                   20458580.4064
                                                                        52.0004
        43.0004
    271196.05948    232222.52745
                  22287307.9224                                   22287304.9924
                                                                        48.5004
        35.5004
  -9799365.17648  -7591129.52746
                  22495922.1724                                   22495918.9344
                                                                        48.0004
        37.7504
 -18296392.23048 -14208081.77346
                  21150735.7194                                   21150731.8204
                                                                        51.7504
        37.5004
 -14458932.81247 -11227721.77345
                  22387833.2734                                   22387830.3954
                                                                        46.5004
        35.7504
  -3296703.10247  -2539661.87544
                  22985963.2424                                   22985958.1374
                                                                        44.7504
        27.0004
 -15499030.51248 -12060510.01646
                  21743246.1724                                   21743242.9694
                                                                        49.0004
        37.5004
  -2370725.48847  -1807869.36344
                  23262672.2974                                   23262669.1684
                                                                        42.0004
        27.0004
 09 10  9  0 42 30.0000000  0  8G02G04G05G13G29G23G10G25
 -14762267.91848 -11462169.00847
                  20445256.3524                                   20445250.9964
                                                                        52.2504
        43.2504
    269778.99248    231118.30545
                  22287038.5234                                   22287035.4924
                                                                        48.7504
        35.2504
  -9990816.68747  -7740312.52346
                  22459489.9304                                   22459487.0394
                                                                        47.7504
        37.2504
 -18379340.26648 -14272716.68046
                  21134951.4144                                   21134947.4454
                                                                        51.5004
        37.2504
 -14607675.59047 -11343625.26246
                  22359528.4454                                   22359525.3834
                                                                        46.7504
        36.2504
  -3307854.61747  -2548351.37944
                  22983841.1954                                   22983835.6294
                                                                        44.7504
        27.5004
 -15681404.09848 -12202619.25046
                  21708541.6174                                   21708538.9494
                                                                        48.7504
        37.5004
  -2534443.93047  -1935442.14844
                  23231518.3364                                   23231514.7384
                                                                        42.5004
        27.5004
 09 10  9  0 43  0.0000000  0  8G02G04G05G13G29G23G10G25
 -14831729.85248 -11516295.17647
                  20432038.1094                                   20432033.0554
                                                                        52.5004
        43.0004
    268683.26647    230264.48045
                  22286829.5944                                   22286826.8054
                                                                        47.7504
        34.5004
 -10181968.29748  -7889261.79346
                  22423114.9844                                   22423112.1844
                                                                        48.2504
        37.0004
 -18461620.13348 -14336830.94146
                  21119294.1644                                   21119289.9184
                                                                        51.5004
        37.5004
 -14755887.30147 -11459114.95346
                  22331324.8984                                   22331322.5044
                                                                        47.7504
        36.7504
  -3318594.93747  -2556720.44144
                  22981797.7344                                   22981791.6524
                                                                        43.7504
        27.5004
 -15863380.96148 -12344419.43046
                  21673912.2814                                   21673908.9774
                                                                        49.0004
        37.5004
  -2697722.36747  -2062672.04344
                  23200447.5864                                   23200443.6884
                                                                        44.0004
        29.0004
 09 10  9  0 43 30.0000000  0  8G02G04G05G13G29G23G10G25
 -14900611.44548 -11569969.11747
                  20418930.5784                                   20418924.9924
                                                                        52.2504
        42.7504
    267904.69548    229657.78945
                  22286681.5784                                   22286678.8674
                                                                        48.5004
        35.0004
 -10372820.60547  -8037977.89546
                  22386796.9384                                   22386794.1884
                                                                        47.5004
        36.7504
 -18543234.85248 -14400426.91046
                  21103763.3364                                   21103759.5004
                                                                        50.7504
        37.5004
 -14903567.65647 -11574190.55146
                  22303222.0704                                   22303219.1484
                                                                        47.5004
        36.7504
  -3328928.52747  -2564772.53144
                  22979830.9384                                   22979824.9144
                                                                        44.0004
        26.0004
 -16044961.56248 -12485910.84046
                  21639358.6804                                   21639355.5864
                                                                        49.2504
        37.2504
  -2860560.44547  -2189558.73844
                  23169459.9534                                   23169456.8404
                                                                        43.7504
        27.7504
 09 10  9  0 44  0.0000000  0  8G02G04G05G13G29G23G10G25
 -13393486.90648 -10395586.32047
                  20705726.7734                                   20705721.0864
                                                                        51.7504
        43.0004
   1842865.00848   1456899.55945
                  22586386.5554                                   22586384.0664
                                                                        49.2504
        35.2504
  -8987940.56648  -6958850.54346
                  22650331.0944                                   22650327.7854
                                                                        48.0004
        37.5004
 -17048758.85948 -13235900.31246
                  21388152.7424                                   21388148.9144
                                                                        50.5004
        37.0004
 -13475285.85247 -10461243.66046
                  22575014.8524                                   22575012.5204
                                                                        47.5004
        36.5004
  -1763434.35947  -1344906.96944
                  23277734.7344                                   23277729.2154
                                                                        44.2504
        28.5004
 -14650713.75048 -11399483.96946
                  21904675.5474                                   21904672.3284
                                                                        50.2504
        38.5004
  -1447527.16447  -1088493.81644
                  23438350.9774                                   23438347.9104
                                                                        43.7504
        27.5004
 09 10  9  0 44 30.0000000  0  8G02G04G05G13G29G23G10G25
 -13461200.25848 -10448349.96947
                  20692841.3364                                   20692836.0044
                                                                        52.2504
        42.5004
   1842723.60948   1456789.33645
                  22586359.5004                                   22586357.3014
                                                                        49.0004
        35.0004
  -9178178.84048  -7107088.19546
                  22614130.6174                                   22614126.5944
                                                                        48.7504
        37.7504
 -17129035.89848 -13298453.91046
                  21372876.3594                                   21372872.7624
                                                                        51.2504
        36.7504
 -13621889.44947 -10575480.21146
                  22547117.6334                                   22547114.7424
                                                                        47.7504
        36.5004
  -1772953.73047  -1352324.68044
                  23275923.8134                                   23275918.0004
                                                                        44.7504
        29.5004
 -14831486.78148 -11540346.08646
                  21870275.7034                                   21870272.5664
                                                                        51.0004
        38.0004
  -1609469.23847  -1214682.43044
                  23407534.6724                                   23407531.5164
                                                                        43.7504
        27.2504
 09 10  9  0 45  0.0000000  0  8G02G04G05G13G29G23G10G25
 -13528328.55148 -10500657.73047
                  20680066.9614                                   20680061.7734
                                                                        51.7504
        42.7504
   1842899.49247   1456926.35545
                  22586393.4304                                   22586390.0514
                                                                        47.7504
        35.0004
  -9368105.45347  -7255082.97746
                  22577988.0784                                   22577984.4654
                                                                        47.0004
        37.7504
 -17208642.35948 -13360484.96946
                  21357727.9924                                   21357724.1844
                                                                        51.0004
        37.5004
 -13767950.25048 -10689293.82046
                  22519322.7734                                   22519320.1334
                                                                        48.5004
        36.0004
  -1782068.36747  -1359427.04344
                  23274189.4064                                   23274183.7734
                                                                        44.7504
        29.7504
 -15011851.07848 -11680889.69946
                  21835953.4384                                   21835950.3204
                                                                        50.5004
        38.0004
  -1770958.03147  -1340517.91444
                  23376804.3524                                   23376800.9614
                                                                        42.5004
        25.2504
 09 10  9  0 45 30.0000000  0  8G02G04G05G13G29G23G10G25
 -13594876.87148 -10552513.56247
                  20667403.4774                                   20667398.2034
                                                                        52.0004
        42.7504
   1843386.05948   1457305.47745
                  22586485.7894                                   22586483.2074
                                                                        49.2504
        34.7504
  -9557723.02748  -7402836.93446
                  22541904.6644                                   22541901.4414
                                                                        48.0004
        37.5004
 -17287584.91048 -13421998.65646
                  21342705.8524                                   21342701.7664
                                                                        51.5004
        37.2504
 -13913470.56648 -10802686.26246
                  22491631.1954                                   22491627.9924
                                                                        48.7504
        36.0004
  -1790784.91047  -1366219.19544
                  23272530.3364                                   23272524.8554
                                                                        42.7504
        27.7504
 -15191809.01248 -11821116.68746
                  21801708.2734                                   21801705.1484
                                                                        50.7504
        37.7504
  -1931995.56647  -1466001.70344
                  23346159.8594                                   23346156.4844
                                                                        43.5004
        24.7504
 09 10  9  0 46  0.0000000  0  8G02G04G05G13G29G23G10G25
 -13660842.86748 -10603915.60947
                  20654850.6484                                   20654844.7734
                                                                        52.0004
        42.7504
   1844184.10248   1457927.33245
                  22586637.5394                                   22586634.7344
                                                                        48.0004
        34.2504
  -9747026.31248  -7550345.99246
                  22505881.7194                                   22505878.4964
                                                                        48.2504
        38.0004
 -17365860.69948 -13482992.80546
                  21327810.2974                                   21327806.6294
                                                                        51.0004
        36.7504
 -14058445.71948 -10915653.80145
                  22464043.3524                                   22464040.0704
                                                                        49.0004
        35.7504
  -1799102.99647  -1372700.81644
                  23270947.1414                                   23270941.5984
                                                                        42.0004
        25.7504
 -15371355.75448 -11961023.25046
                  21767541.8754                                   21767539.1094
                                                                        50.5004
        38.2504
  -2092576.80547  -1591129.95344
                  23315602.3134                                   23315599.0274
                                                                        43.0004
        27.2504
 09 10  9  0 46 30.0000000  0  8G02G04G05G13G29G23G10G25
 -13726229.85248 -10654866.48447
                  20642408.2344                                   20642402.5124
                                                                        53.0004
        43.0004
   1845288.86748   1458788.19945
                  22586848.0474                                   22586844.7704
                                                                        49.7504
        35.2504
  -9936016.23848  -7697610.88746
                  22469918.1644                                   22469915.2274
                                                                        49.0004
        37.2504
 -17443473.07448 -13543469.95746
                  21313041.3284                                   21313037.2384
                                                                        50.7504
        36.5004
 -14202877.12548 -11028197.70346
                  22436559.0784                                   22436556.1024
                                                                        49.7504
        36.0004
  -1807027.58647  -1378875.77344
                  23269439.3524                                   23269433.5434
                                                                        42.7504
        26.2504
 -15550491.87548 -12100609.81246
                  21733453.2114                                   21733450.5084
                                                                        49.7504
        38.0004
  -2252701.95747  -1715902.73444
                  23285131.4384                                   23285128.1214
                                                                        44.0004
        27.5004
 09 10  9  0 47  0.0000000  0  8G02G04G05G13G29G23G10G25
 -13791036.83248 -10705365.38347
                  20630075.6024                                   20630070.2424
                                                                        53.0004
        43.2504
   1846699.97748   1459887.77045
                  22587116.5864                                   22587113.7894
                                                                        49.2504
        35.0004
 -10124689.64148  -7844629.12546
                  22434015.1094                                   22434011.5234
                                                                        48.5004
        38.0004
 -17520422.41848 -13603430.46146
                  21298397.9924                                   21298394.1254
                                                                        51.0004
        36.5004
 -14346761.41448 -11140315.28146
                  22409178.8134                                   22409175.1724
                                                                        49.7504
        37.0004
  -1814560.14547  -1384745.33244
                  23268006.3754                                   23268000.9884
                                                                        44.5004
        28.0004
 -15729214.25448 -12239873.93746
                  21699443.8984                                   21699440.8794
                                                                        50.7504
        38.2504
  -2412367.12947  -1840317.11344
                  23254748.3754                                   23254745.1374
                                                                        43.0004
        28.0004
 09 10  9  0 47 30.0000000  0  8G02G04G05G13G29G23G10G25
 -13855264.41448 -10755412.80947
                  20617853.2424                                   20617848.1914
                                                                        52.5004
        42.7504
   1848415.08648   1461224.19945
                  22587442.9774                                   22587440.4414
                                                                        49.0004
        34.2504
 -10313043.80548  -7991398.59846
                  22398172.4144                                   22398169.3914
                                                                        49.0004
        38.7504
 -17596708.71548 -13662874.30946
                  21283881.3754                                   21283877.7234
                                                                        51.2504
        37.0004
 -14490096.77048 -11252005.16046
                  22381902.9694                                   22381899.9924
                                                                        49.0004
        37.0004
  -1821703.12947  -1390311.25044
                  23266646.8444                                   23266641.2584
                                                                        44.7504
        27.7504
 -15907520.55948 -12378813.87946
                  21665513.0004                                   21665509.4534
                                                                        50.2504
        38.5004
  -2571570.44147  -1964371.60544
                  23224452.4064                                   23224449.5394
                                                                        43.5004
        28.5004
 09 10  9  0 48  0.0000000  0  9G02G04G05G13G16G29G23G10G25
 -13918914.65248 -10805010.39147
                  20605741.0394                                   20605735.4264
                                                                        52.5004
        42.5004
   1850431.30148   1462795.25045
                  22587826.4534                                   22587824.1094
                                                                        48.7504
        34.0004
 -10501078.21148  -8137918.87946
                  22362390.6024                                   22362387.2774
                                                                        49.5004
        38.7504
 -17672333.27048 -13721802.50846
                  21269490.4924                                   21269486.7624
                                                                        51.0004
        36.2504
   9215630.41057   7193851.64854
                  24349456.2344                                   24349451.9924
                                                                        43.7504
        27.0004
 -14632882.48848 -11363266.77746
                  22354731.6564                                   22354728.4494
                                                                        49.5004
        37.0004
  -1828460.10547  -1395576.43744
                  23265360.5554                                   23265355.7814
                                                                        43.0004
        28.0004
 -16085410.09448 -12517429.07446
                  21631661.7974                                   21631658.4304
                                                                        50.2504
        38.0004
  -2730310.47347  -2088065.13744
                  23194245.8834                                   23194242.6644
                                                                        45.0004
        28.5004
 09 10  9  0 48 30.0000000  0  9G02G04G05G13G16G29G23G10G25
 -13981997.88748 -10854166.14147
                  20593736.7734                                   20593730.9534
                                                                        52.0004
        43.0004
   1852736.81348   1464591.75445
                  22588264.9774                                   22588262.5474
                                                                        49.0004
        34.5004
 -10688800.87148  -8284196.25846
                  22326668.0394                                   22326664.8674
                                                                        50.2504
        38.2504
 -17747308.01248 -13780224.40646
                  21255223.1644                                   21255219.5744
                                                                        50.7504
        37.0004
   9051781.11347   7066176.89144
                  24318275.8754                                   24318272.7304
                                                                        42.5004
        25.5004
 -14775126.70748 -11474106.46546
                  22327663.4844                                   22327660.0084
                                                                        49.7504
        36.5004
  -1834843.79747  -1400550.81644
                  23264146.0084                                   23264140.2074
                                                                        42.2504
        26.5004
 -16262890.41848 -12655725.42246
                  21597888.1724                                   21597885.1994
                                                                        50.5004
        38.2504
  -2888594.74247  -2211403.53544
                  23164125.4774                                   23164121.8164
                                                                        45.0004
        28.5004
 09 10  9  0 49  0.0000000  0  9G02G04G05G13G16G29G23G10G25
 -14044521.39848 -10902885.69147
                  20581838.9694                                   20581833.3164
                                                                        52.5004
        42.7504
   1855322.31348   1466606.37945
                  22588757.3984                                   22588754.8284
                                                                        48.0004
        34.0004
 -10876216.62948  -8430234.47346
                  22291004.1644                                   22291000.7384
                                                                        50.0004
        38.2504
 -17821640.00048 -13838145.44546
                  21241078.5004                                   21241074.6254
                                                                        51.2504
        37.0004
   8888382.21546   6938853.11343
                  24287182.1334                                   24287178.8674
                                                                        41.0004
        23.7504
 -14916834.40248 -11584528.05945
                  22300697.7034                                   22300694.1914
                                                                        50.0004
        35.7504
  -1840863.26247  -1405241.27744
                  23263001.1024                                   23262995.3834
                                                                        43.5004
        28.5004
 -16439966.50848 -12793706.77046
                  21564191.8834                                   21564188.7504
                                                                        50.5004
        38.2504
  -3046428.04347  -2334390.51644
                  23134090.4384                                   23134087.1094
                                                                        44.5004
        27.7504
 09 10  9  0 49 30.0000000  0  9G02G04G05G13G16G29G23G10G25
 -14106485.69548 -10951169.56247
                  20570047.3364                                   20570041.9384
                                                                        51.7504
        42.5004
   1858186.78148   1468838.42645
                  22589302.4844                                   22589299.2974
                                                                        48.2504
        33.5004
 -11063322.97348  -8576031.59046
                  22255398.8984                                   22255395.4694
                                                                        50.2504
        38.0004
 -17895328.80148 -13895565.29746
                  21227056.0004                                   21227051.9144
                                                                        50.7504
        37.2504
   8725436.87546   6811882.76643
                  24256174.6724                                   24256171.3794
                                                                        39.7504
        21.2504
 -15058003.48448 -11694529.91046
                  22273833.7664                                   22273830.5704
                                                                        49.5004
        36.7504
  -1846520.39547  -1409649.39544
                  23261924.5164                                   23261918.3054
                                                                        43.7504
        27.0004
 -16616636.09448 -12931371.40246
                  21530572.7894                                   21530569.9224
                                                                        50.0004
        38.5004
  -3203807.44147  -2457023.84044
                  23104141.2584                                   23104138.9734
                                                                        44.7504
        28.2504
 09 10  9  0 50  0.0000000  0  9G02G04G05G13G16G29G23G10G25
 -14167885.78148 -10999013.78147
                  20558363.2034                                   20558358.0664
                                                                        52.5004
        43.0004
   1861333.78948   1471290.66845
                  22589901.0084                                   22589898.5354
                                                                        49.2504
        34.0004
 -11250112.22748  -8721581.65246
                  22219854.1414                                   22219850.4734
                                                                        50.0004
        38.5004
 -17968370.37148 -13952480.83646
                  21213156.5554                                   21213152.8484
                                                                        50.5004
        37.2504
   8562953.01046   6685271.90943
                  24225254.9384                                   24225251.7734
                                                                        39.0004
        20.7504
 -15198626.74248 -11804106.47346
                  22247074.0004                                   22247071.0434
                                                                        49.2504
        36.7504
  -1851811.93747  -1413772.66044
                  23260917.5234                                   23260911.2074
                                                                        44.2504
        26.7504
 -16792891.53948 -13068713.30546
                  21497032.7664                                   21497029.8524
                                                                        50.5004
        38.2504
  -3360725.07047  -2579297.32844
                  23074281.5234                                   23074278.7384
                                                                        44.0004
        28.0004
 09 10  9  0 50 30.0000000  0  9G02G04G05G13G16G29G23G10G25
 -14228717.00048 -11046414.75447
                  20546787.4694                                   20546782.0004
                                                                        51.5004
        42.7504
   1864766.24647   1473965.34445
                  22590554.6334                                   22590552.1414
                                                                        46.7504
        33.5004
 -11436577.00848  -8866878.84846
                  22184371.0784                                   22184367.6954
                                                                        50.0004
        38.7504
 -18040761.26648 -14008889.34446
                  21199381.1884                                   21199377.3914
                                                                        50.7504
        36.2504
   8400938.39146   6559026.71942
                  24194424.4304                                   24194421.3594
                                                                        39.0004
        17.7504
 -15338697.07048 -11913252.17246
                  22220419.6804                                   22220416.4804
                                                                        49.0004
        37.0004
  -1856736.12547  -1417609.71144
                  23259980.4534                                   23259974.0164
                                                                        44.2504
        25.7504
 -16968725.35548 -13205726.67246
                  21463572.5554                                   21463569.2624
                                                                        50.5004
        38.2504
  -3517173.82847  -2701205.50044
                  23044510.2894                                   23044506.9024
                                                                        44.5004
        27.5004
 09 10  9  0 51  0.0000000  0  9G02G04G05G13G16G29G23G10G25
 -14288979.41448 -11093372.50847
                  20535320.1094                                   20535314.4494
                                                                        52.0004
        42.2504
   1868482.74647   1476861.44145
                  22591261.7194                                   22591258.9844
                                                                        46.0004
        33.7504
 -11622715.29348  -9011921.63346
                  22148950.1334                                   22148946.4184
                                                                        50.5004
        38.7504
 -18112500.92248 -14064790.38346
                  21185729.2894                                   21185725.5004
                                                                        51.5004
        36.7504
   8239396.03546   6433149.55142
                  24163683.6484                                   24163680.6884
                                                                        39.7504
        17.2504
 -15478212.09448 -12021965.17646
                  22193870.8054                                   22193868.0234
                                                                        49.7504
        36.5004
  -1861294.25847  -1421161.52044
                  23259112.3754                                   23259106.3364
                                                                        42.0004
        25.5004
 -17144134.96148 -13342409.47746
                  21430193.0704                                   21430190.0314
                                                                        50.5004
        38.7504
  -3673150.53547  -2822745.83644
                  23014829.1094                                   23014825.5744
                                                                        44.7504
        26.7504
 09 10  9  0 51 30.0000000  0  9G02G04G05G13G16G29G23G10G25
 -14348671.32448 -11139885.70747
                  20523961.0084                                   20523955.9024
                                                                        51.7504
        42.5004
   1872483.87547   1479979.14145
                  22592022.5704                                   22592020.0984
                                                                        47.0004
        33.7504
 -11808522.00848  -9156706.07846
                  22113592.2894                                   22113588.8404
                                                                        50.5004
        38.7504
 -18183587.47348 -14120182.52346
                  21172202.1174                                   21172198.4964
                                                                        51.7504
        37.0004
   8078331.12546   6307644.45342
                  24133034.1254                                   24133030.8714
                                                                        41.7504
        17.2504
 -15617167.62148 -12130242.21946
                  22167427.9924                                   22167425.5984
                                                                        49.5004
        36.2504
  -1865486.60547  -1424428.42244
                  23258315.1804                                   23258309.4804
                                                                        43.5004
        25.0004
 -17319115.88348 -13478758.23446
                  21396895.4384                                   21396892.2344
                                                                        50.5004
        38.5004
  -3828650.23447  -2943914.39844
                  22985238.5234                                   22985235.5394
                                                                        45.0004
        26.7504
 09 10  9  0 52  0.0000000  0  9G02G04G05G13G16G29G23G10G25
 -14407792.76248 -11185954.37547
                  20512710.7734                                   20512705.4344
                                                                        52.7504
        42.7504
   1876768.13747   1483317.52745
                  22592838.1024                                   22592835.7664
                                                                        47.5004
        33.2504
 -11993994.47748  -9301230.09046
                  22078297.4844                                   22078294.4304
                                                                        50.5004
        37.5004
 -18254022.19148 -14175066.71546
                  21158798.7194                                   21158794.8134
                                                                        50.7504
        36.2504
   7917746.65647   6182513.62543
                  24102476.6334                                   24102472.7034
                                                                        43.0004
        19.0004
 -15755561.40648 -12238081.53146
                  22141093.2194                                   22141090.2274
                                                                        49.2504
        37.5004
  -1869314.71947  -1427411.51244
                  23257586.8674                                   23257581.3954
                                                                        44.2504
        27.2504
 -17493665.09048 -13614770.55546
                  21363679.7274                                   21363676.5744
                                                                        50.2504
        38.7504
  -3983670.49247  -3064709.43044
                  22955739.2584                                   22955735.3794
                                                                        44.2504
        28.0004
 09 10  9  0 52 30.0000000  0  9G02G04G05G13G16G29G23G10G25
 -12890919.66048 -10003975.34447
                  20801362.3284                                   20801356.6374
                                                                        52.2504
        42.7504
   3456756.44947   2714477.28545
                  22893500.1024                                   22893497.1484
                                                                        47.2504
        33.5004
 -10603702.08248  -8217885.38346
                  22342862.0084                                   22342858.0784
                                                                        50.2504
        39.0004
 -16748380.04748 -13001839.02046
                  21445313.1564                                   21445309.0744
                                                                        50.7504
        36.7504
   9333072.86347   7285365.19143
                  24371804.8914                                   24371800.6844
                                                                        43.7504
        22.0004
 -14317964.62548 -11117876.24246
                  22414658.8754                                   22414655.6294
                                                                        48.2504
        38.0004
   -297358.12947   -202510.30544
                  23556719.8674                                   23556714.8164
                                                                        44.2504
        27.2504
 -16092352.93748 -12522839.00046
                  21630340.4384                                   21630337.5044
                                                                        50.2504
        38.7504
  -2562780.94947  -1957522.76644
                  23226125.6024                                   23226122.3714
                                                                        44.5004
        28.7504
 09 10  9  0 53  0.0000000  0 10G02G04G05G13G16G29G23G07G10G25
 -12948901.14148 -10049155.69147
                  20790328.6724                                   20790322.9534
                                                                        52.2504
        42.7504
   3461602.32447   2718253.28545
                  22894422.2114                                   22894419.1054
                                                                        47.2504
        33.2504
 -10788498.91848  -8361882.92646
                  22307695.9774                                   22307692.7234
                                                                        50.7504
        38.7504
 -16817511.56248 -13055707.66846
                  21432157.8054                                   21432153.5514
                                                                        51.2504
        36.7504
   9173457.48847   7160989.56343
                  24341430.5944                                   24341426.7974
                                                                        43.2504
        21.2504
 -14455228.75848 -11224835.28546
                  22388537.8674                                   22388535.0124
                                                                        49.5004
        37.0004
   -300463.98047   -204930.42644
                  23556129.4064                                   23556123.9414
                                                                        44.7504
        26.7504
  10747133.34856   8389604.45753
                  24553882.0944                                   24553878.7424
                                                                        41.7504
        23.7504
 -16266032.57048 -12658173.77046
                  21597290.4534                                   21597286.9884
                                                                        50.5004
        39.2504
  -2716834.30947  -2077564.41444
                  23196810.2894                                   23196806.8794
                                                                        45.2504
        29.2504
 09 10  9  0 53 30.0000000  0 10G02G04G05G13G16G29G23G07G10G25
 -13006320.87148 -10093898.34847
                  20779401.5474                                   20779396.5824
                                                                        52.5004
        42.2504
   3466719.03547   2722240.27745
                  22895395.7584                                   22895393.4804
                                                                        46.5004
        33.0004
 -10972962.80948  -8505621.00446
                  22272593.8204                                   22272590.2544
                                                                        50.0004
        39.0004
 -16886000.08248 -13109075.31646
                  21419124.7584                                   21419121.0634
                                                                        50.0004
        36.0004
   9014322.75447   7036988.46943
                  24311148.5554                                   24311144.5984
                                                                        43.2504
        22.7504
 -14591933.52748 -11331358.47746
                  22362524.3134                                   22362520.9104
                                                                        49.7504
        37.2504
   -303220.12147   -207078.12144
                  23555605.1884                                   23555599.4304
                                                                        44.7504
        27.5004
  10552430.07846   8237887.52844
                  24516830.6414                                   24516827.9494
                                                                        40.7504
        25.2504
 -16439282.03948 -12793173.33246
                  21564322.1644                                   21564319.4884
                                                                        50.0004
        39.0004
  -2870407.68447  -2197231.91844
                  23167586.2424                                   23167582.8554
                                                                        43.7504
        28.5004
 09 10  9  0 54  0.0000000  0 10G02G04G05G13G16G29G23G07G10G25
 -13063185.71548 -10138208.58647
                  20768581.1254                                   20768575.4574
                                                                        51.5004
        42.5004
   3472098.16847   2726431.75445
                  22896419.6174                                   22896416.7034
                                                                        46.0004
        33.0004
 -11157096.96948  -8649102.14846
                  22237553.9454                                   22237550.8634
                                                                        50.0004
        39.2504
 -16953853.19148 -13161947.85246
                  21406212.6094                                   21406209.0634
                                                                        50.2504
        37.0004
   8855665.70747   6913359.59043
                  24280957.1564                                   24280953.1294
                                                                        42.5004
        22.7504
 -14728082.15648 -11437448.31646
                  22336615.5704                                   22336612.1994
                                                                        49.2504
        38.0004
   -305634.73447   -208959.60244
                  23555145.9534                                   23555139.6094
                                                                        45.5004
        28.2504
  10357969.68447   8086359.96143
                  24479826.2894                                   24479822.7734
                                                                        42.0004
        23.7504
 -16612104.34848 -12927840.03946
                  21531435.5164                                   21531432.1994
                                                                        49.5004
        39.5004
  -3023505.52047  -2316528.87944
                  23138452.7274                                   23138449.2384
                                                                        45.0004
        29.0004
 09 10  9  0 54 30.0000000  0 10G02G04G05G13G16G29G23G07G10G25
 -13119497.94548 -10182088.23447
                  20757865.1564                                   20757859.5004
                                                                        51.7504
        42.2504
   3477736.90647   2730825.56345
                  22897492.6954                                   22897489.4694
                                                                        45.0004
        32.2504
 -11340900.92648  -8792325.98046
                  22202577.3594                                   22202574.0474
                                                                        50.0004
        39.0004
 -17021072.96148 -13214326.89146
                  21393421.1174                                   21393417.3874
                                                                        50.0004
        36.5004
   8697486.84446   6790103.38743
                  24250856.2974                                   24250852.8874
                                                                        40.0004
        22.5004
 -14863674.95748 -11543105.05146
                  22310813.1884                                   22310810.3984
                                                                        48.7504
        38.0004
   -307711.88347   -210578.22744
                  23554750.2274                                   23554744.6254
                                                                        43.5004
        24.5004
  10163754.26646   7935023.33243
                  24442867.9614                                   24442865.0084
                                                                        41.7504
        22.5004
 -16784499.52348 -13062173.93446
                  21498629.7034                                   21498626.4844
                                                                        50.2504
        39.5004
  -3176126.94947  -2435454.68044
                  23109409.4614                                   23109406.1484
                                                                        44.7504
        29.7504
 09 10  9  0 55  0.0000000  0 10G02G04G05G13G16G29G23G07G10G25
 -13175255.16848 -10225535.41047
                  20747254.7504                                   20747249.5004
                                                                        52.2504
        42.0004
   3483636.14847   2735422.35945
                  22898615.1954                                   22898612.2504
                                                                        46.5004
        32.2504
 -11524369.54748  -8935288.52746
                  22167664.3364                                   22167660.9104
                                                                        49.2504
        39.0004
 -17087657.04348 -13266210.60246
                  21380750.4304                                   21380747.2344
                                                                        49.2504
        36.5004
   8539791.98046   6667224.29743
                  24220847.7734                                   24220844.2734
                                                                        39.7504
        22.2504
 -14998707.21148 -11648325.00446
                  22285117.6484                                   22285114.6564
                                                                        49.7504
        38.2504
   -309450.58647   -211933.09443
                  23554418.9614                                   23554412.9104
                                                                        42.7504
        22.7504
   9969789.95347   7783882.29343
                  24405958.1024                                   24405954.4924
                                                                        42.5004
        23.5004
 -16956462.06248 -13196170.69546
                  21465905.7344                                   21465902.7774
                                                                        50.2504
        39.0004
  -3328266.12547  -2554004.67644
                  23080459.1174                                   23080455.4384
                                                                        45.0004
        27.5004
 09 10  9  0 55 30.0000000  0 10G02G04G05G13G16G29G23G07G10G25
 -13230449.47748 -10268543.94947
                  20736751.4924                                   20736745.7854
                                                                        51.5004
        42.2504
   3489802.48447   2740227.31645
                  22899788.6174                                   22899785.9964
                                                                        45.5004
        33.2504
 -11707491.95748  -9077981.28946
                  22132817.5634                                   22132814.0594
                                                                        49.2504
        38.7504
 -17153598.37948 -13317593.48046
                  21368202.4224                                   21368197.9414
                                                                        49.7504
        36.0004
   8382592.26646   6544731.10243
                  24190933.0634                                   24190930.9964
                                                                        38.5004
        22.5004
 -15133168.44148 -11753100.02346
                  22259530.3674                                   22259527.4884
                                                                        49.7504
        37.5004
   -310845.14847   -213019.82444
                  23554153.9774                                   23554147.7774
                                                                        43.0004
        24.5004
   9776087.91447   7632945.54344
                  24369097.9614                                   24369094.3284
                                                                        42.5004
        24.2504
 -17127981.36748 -13329822.07046
                  21433266.7894                                   21433263.4844
                                                                        50.5004
        39.7504
  -3479913.05147  -2672171.08244
                  23051601.1724                                   23051598.0784
                                                                        43.5004
        28.7504
 09 10  9  0 56  0.0000000  0 10G02G04G05G13G16G29G23G07G10G25
 -13285084.13348 -10311116.39147
                  20726354.8594                                   20726349.2734
                                                                        51.2504
        42.2504
   3496231.73447   2745237.10945
                  22901012.5084                                   22901009.3754
                                                                        46.5004
        32.5004
 -11890268.73048  -9220404.72746
                  22098036.2034                                   22098033.2624
                                                                        49.2504
        39.5004
 -17218900.19948 -13368478.01245
                  21355775.5554                                   21355771.7774
                                                                        49.2504
        35.7504
   8225887.26246   6422623.37543
                  24161113.3284                                   24161110.6024
                                                                        39.0004
        20.5004
 -15267059.83648 -11857431.00846
                  22234051.9144                                   22234048.8874
                                                                        49.5004
        37.5004
   -311900.25847   -213842.08244
                  23553952.8204                                   23553947.6214
                                                                        42.5004
        26.5004
   9582649.34847   7482214.11344
                  24332288.0004                                   24332284.5274
                                                                        42.0004
        24.5004
 -17299058.09848 -13463128.60246
                  21400712.2274                                   21400708.5274
                                                                        49.5004
        39.0004
  -3631067.35947  -2789953.59044
                  23022837.4064                                   23022834.0004
                                                                        44.0004
        28.5004
 09 10  9  0 56 30.0000000  0 10G02G04G05G13G16G29G23G07G10G25
 -13339152.56248 -10353247.63747
                  20716066.0314                                   20716060.3364
                                                                        51.5004
        42.2504
   3502929.36347   2750456.06345
                  22902286.4844                                   22902283.4494
                                                                        46.5004
        33.0004
 -12072690.28948  -9362551.36346
                  22063322.4694                                   22063318.9494
                                                                        49.7504
        39.2504
 -17283555.90248 -13418859.09046
                  21343472.2814                                   21343468.1644
                                                                        50.2504
        36.0004
   8069687.37146   6300909.20343
                  24131389.7894                                   24131386.2704
                                                                        40.2504
        22.0004
 -15400371.68448 -11961310.35546
                  22208683.2894                                   22208680.1294
                                                                        50.0004
        38.0004
   -312610.57447   -214395.61344
                  23553818.2194                                   23553812.7544
                                                                        44.5004
        26.2504
   9389484.77046   7331696.18444
                  24295529.7034                                   24295526.6414
                                                                        41.7504
        24.0004
 -17469682.80548 -13596082.91446
                  21368243.5164                                   21368240.6024
                                                                        49.7504
        39.2504
  -3781719.47347  -2907344.74644
                  22994169.1644                                   22994165.8754
                                                                        44.5004
        29.5004
 09 10  9  0 57  0.0000000  0 10G02G04G05G13G16G29G23G07G10G25
 -13392658.39548 -10394940.47747
                  20705883.8834                                   20705878.7504
                                                                        52.0004
        42.5004
   3509890.61747   2755880.43045
                  22903611.2034                                   22903608.1884
                                                                        47.5004
        32.5004
 -12254757.62148  -9504421.98446
                  22028676.0004                                   22028672.5704
                                                                        49.2504
        39.7504
 -17347569.74648 -13468739.98846
                  21331291.1884                                   21331287.1844
                                                                        49.7504
        36.5004
   7913991.44146   6179587.73443
                  24101762.1414                                   24101758.2384
                                                                        41.2504
        21.5004
 -15533106.06248 -12064739.73046
                  22183424.9454                                   22183421.6994
                                                                        50.2504
        38.0004
   -312982.06647   -214685.24244
                  23553747.5084                                   23553741.7704
                                                                        43.0004
        25.7504
   9196595.53547   7181392.92644
                  24258824.5554                                   24258820.9024
                                                                        44.0004
        27.5004
 -17639856.31648 -13728685.63346
                  21335859.9924                                   21335856.8364
                                                                        50.5004
        39.0004
  -3931870.42247  -3024345.49644
                  22965596.0474                                   22965592.6564
                                                                        44.5004
        28.5004
 09 10  9  0 57 30.0000000  0 10G02G04G05G13G16G29G23G07G10G25
 -13445602.21548 -10436195.42247
                  20695809.3364                                   20695804.1374
                                                                        51.7504
        42.2504
   3517113.83647   2761508.88345
                  22904984.9534                                   22904983.2424
                                                                        47.0004
        32.5004
 -12436468.12548  -9646014.57446
                  21994097.7424                                   21994094.7074
                                                                        49.7504
        39.5004
 -17410942.53148 -13518121.40646
                  21319231.7504                                   21319227.6764
                                                                        49.7504
        36.2504
   7758802.65646   6058661.43443
                  24072230.4144                                   24072226.6294
                                                                        41.7504
        21.0004
 -15665261.04748 -12167717.62546
                  22158276.9614                                   22158273.7544
                                                                        50.0004
        37.5004
   -313016.39147   -214711.98444
                  23553741.1414                                   23553735.0864
                                                                        44.0004
        27.0004
   9003984.59847   7031306.59044
                  24222171.5784                                   24222168.0164
                                                                        43.7504
        25.2504
 -17809576.29748 -13860934.94546
                  21303563.6094                                   21303560.7464
                                                                        50.0004
        39.5004
  -4081517.62947  -3140953.71945
                  22937119.2814                                   22937116.4924
                                                                        44.0004
        30.0004
 09 10  9  0 58  0.0000000  0 10G02G04G05G13G16G29G23G07G10G25
 -13497984.71148 -10477012.91447
                  20685841.2424                                   20685835.9844
                                                                        52.0004
        42.2504
   3524596.92247   2767339.89845
                  22906409.8444                                   22906406.8914
                                                                        47.0004
        32.5004
 -12617819.79348  -9787327.54746
                  21959587.3204                                   21959584.7664
                                                                        48.2504
        39.5004
 -17473675.39848 -13567004.14146
                  21307293.8834                                   21307290.3324
                                                                        50.0004
        36.0004
   7604122.93046   5938131.72743
                  24042795.6174                                   24042791.5664
                                                                        40.5004
        20.2504
 -15796834.43048 -12270242.34846
                  22133238.9844                                   22133235.7304
                                                                        50.7504
        37.7504
   -312715.81247   -214477.64144
                  23553798.3754                                   23553792.6994
                                                                        43.0004
        26.0004
   8811654.23847   6881438.77744
                  24185573.2344                                   24185569.0984
                                                                        44.2504
        26.0004
 -17978840.50448 -13992829.11746
                  21271353.7974                                   21271350.5864
                                                                        49.7504
        39.5004
  -4230658.97347  -3257167.76244
                  22908739.2584                                   22908735.4414
                                                                        44.2504
        29.0004
 09 10  9  0 58 30.0000000  0 10G02G04G05G13G16G29G23G07G10G25
 -13549806.96948 -10517393.90647
                  20675979.8754                                   20675974.6454
                                                                        50.5004
        42.5004
   3532337.91847   2773371.86345
                  22907883.0634                                   22907879.9264
                                                                        46.5004
        32.2504
 -12798810.71548  -9928359.43446
                  21925146.3984                                   21925142.6804
                                                                        49.0004
        39.5004
 -17535769.72348 -13615389.28946
                  21295477.8524                                   21295473.8984
                                                                        49.5004
        36.2504
   7449954.88746   5818000.81643
                  24013459.0704                                   24013454.0744
                                                                        40.5004
        21.2504
 -15927825.05148 -12372312.95746
                  22108311.6954                                   22108309.0434
                                                                        49.5004
        37.7504
   -312083.75046   -213985.10244
                  23553917.0554                                   23553913.0394
                                                                        40.7504
        25.5004
   8619607.84447   6731792.24244
                  24149026.7734                                   24149023.2734
                                                                        42.5004
        24.2504
 -18147647.32048 -14124366.89146
                  21239230.8914                                   21239227.5084
                                                                        49.7504
        39.7504
  -4379292.58247  -3372986.16045
                  22880454.7894                                   22880451.1844
                                                                        43.5004
        30.0004
 09 10  9  0 59  0.0000000  0 10G02G04G05G13G16G29G23G07G10G25
 -13601068.81248 -10557338.23447
                  20666224.8444                                   20666219.6764
                                                                        51.0004
        42.0004
   3540335.89847   2779604.03945
                  22909405.0554                                   22909402.1094
                                                                        46.0004
        31.7504
 -12979437.88348 -10069107.88346
                  21890774.3594                                   21890770.9494
                                                                        50.2504
        39.5004
 -17597226.05948 -13663277.37146
                  21283783.0234                                   21283779.0204
                                                                        49.5004
        36.2504
   7296301.89146   5698271.29743
                  23984218.9844                                   23984214.6524
                                                                        40.5004
        21.2504
 -16058230.56248 -12473927.65246
                  22083497.0084                                   22083493.6884
                                                                        49.5004
        37.2504
   -311121.03546   -213234.97744
                  23554101.8134                                   23554095.6954
                                                                        41.5004
        24.5004
   8427849.72746   6582370.38343
                  24112537.1024                                   24112533.4924
                                                                        41.2504
        23.2504
 -18315993.86748 -14255546.01646
                  21207195.7504                                   21207192.6484
                                                                        50.0004
        40.2504
  -4527415.17247  -3488406.34844
                  22852268.2584                                   22852264.1254
                                                                        43.2504
        28.7504
 09 10  9  0 59 30.0000000  0 10G02G04G05G13G16G29G23G07G10G25
 -13651770.16448 -10596845.81647
                  20656576.7194                                   20656571.5664
                                                                        51.2504
        42.5004
   3548589.84047   2786035.61345
                  22910975.3204                                   22910972.6054
                                                                        46.0004
        32.0004
 -13159698.20348 -10209570.46946
                  21856471.8444                                   21856467.9104
                                                                        50.7504
        39.2504
 -17658044.07048 -13710668.04346
                  21272209.5864                                   21272205.5594
                                                                        50.2504
        36.0004
   7143166.71946   5578945.14143
                  23955077.8754                                   23955074.2274
                                                                        39.7504
        21.2504
 -16188048.72748 -12575084.66446
                  22058793.3364                                   22058789.8754
                                                                        49.0004
        38.0004
   -309829.27347   -212228.41444
                  23554347.7344                                   23554341.6214
                                                                        43.2504
        26.0004
   8236383.88346   6433176.25044
                  24076100.6644                                   24076098.6454
                                                                        40.5004
        24.0004
 -18483877.07448 -14386364.14846
                  21175248.4384                                   21175245.3954
                                                                        50.5004
        40.0004
  -4675023.80547  -3603426.05944
                  22824179.0394                                   22824175.1724
                                                                        43.0004
        29.5004
 09 10  9  1  0  0.0000000  0 10G02G04G05G13G16G29G23G07G10G25
 -13701911.73448 -10635917.20347
                  20647035.0554                                   20647029.7424
                                                                        51.0004
        42.2504
   3557098.42247   2792665.68445
                  22912594.5234                                   22912591.6724
                                                                        45.2504
        32.5004
 -13339589.07048 -10349745.18046
                  21822239.9144                                   21822236.2274
                                                                        51.0004
        40.2504
 -17718224.71548 -13757562.04346
                  21260757.6254                                   21260753.8204
                                                                        50.7504
        36.2504
   6990552.66446   5460025.16843
                  23926036.5004                                   23926032.8914
                                                                        37.7504
        20.0004
 -16317277.33248 -12675782.30146
                  22034201.8754                                   22034198.8204
                                                                        49.2504
        37.2504
   -308210.67647   -210967.23844
                  23554655.5554                                   23554649.9574
                                                                        43.0004
        25.7504
   8045213.81347   6284212.57844
                  24039724.0554                                   24039720.3554
                                                                        42.0004
        27.5004
 -18651294.59048 -14516819.42646
                  21143390.0784                                   21143387.0004
                                                                        50.0004
        39.5004
  -4822116.01647  -3718043.33244
                  22796187.9384                                   22796184.6994
                                                                        43.0004
        28.7504
 09 10  9  1  0 30.0000000  0 10G02G04G05G13G16G29G23G07G10G25
 -13751499.20748 -10674556.78147
                  20637598.9614                                   20637593.4144
                                                                        50.5004
        42.0004
   3565854.48047   2799488.62945
                  22914260.8674                                   22914258.0124
                                                                        47.5004
        32.5004
 -13519114.04748 -10489634.78946
                  21788076.9694                                   21788073.2584
                                                                        50.7504
        40.2504
 -17777773.94148 -13803964.02346
                  21249425.7344                                   21249422.0664
                                                                        50.2504
        36.2504
   6838456.17246   5341508.52743
                  23897093.9694                                   23897091.1604
                                                                        38.5004
        22.0004
 -16445920.27348 -12776023.59046
                  22009721.9774                                   22009718.9494
                                                                        48.7504
        37.7504
   -306272.75047   -209457.23444
                  23555024.7974                                   23555018.7584
                                                                        42.0004
        25.2504
   7854337.92647   6135478.12944
                  24003401.6484                                   24003398.0784
                                                                        43.5004
        28.0004
 -18818249.10248 -14646913.87546
                  21111619.5084                                   21111616.4024
                                                                        50.0004
        39.5004
  -4968694.98447  -3832260.72744
                  22768294.5394                                   22768291.5594
                                                                        44.5004
        28.5004
 09 10  9  1  1  0.0000000  0 10G02G04G05G13G16G29G23G07G10G25
 -12225107.09448  -9485160.34047
                  20928061.8524                                   20928056.6804
                                                                        50.0004
        42.0004
   5150280.91447   4034106.59845
                  23215767.1414                                   23215764.5394
                                                                        45.5004
        31.5004
 -12122840.05948  -9401629.07846
                  22053779.2194                                   22053775.9224
                                                                        50.2504
        40.0004
 -16261266.55948 -12622269.96146
                  21538007.5634                                   21538003.7424
                                                                        50.5004
        36.0004
   8262310.09846   6451005.18043
                  24168044.1644                                   24168041.0594
                                                                        39.2504
        22.7504
 -14998547.10948 -11648200.34846
                  22285148.4774                                   22285144.7344
                                                                        50.5004
        37.7504
   1271407.18446   1019903.64843
                  23855246.3204                                   23855241.7664
                                                                        41.0004
        23.2504
   9239191.10547   7214584.62944
                  24266930.2734                                   24266926.0204
                                                                        43.2504
        24.7504
 -17409309.01648 -13549038.50046
                  21379732.0314                                   21379729.0984
                                                                        49.2504
        40.0004
  -3539328.48847  -2718468.64545
                  23040294.2584                                   23040291.2034
                                                                        44.2504
        30.0004
 09 10  9  1  1 30.0000000  0 10G02G04G05G13G16G29G23G07G10G25
 -12273583.34048  -9522934.05947
                  20918837.2664                                   20918831.6914
                                                                        51.0004
        42.0004
   5159532.32047   4041315.39145
                  23217527.6334                                   23217525.2464
                                                                        44.7504
        31.7504
 -12301620.32048  -9540938.34446
                  22019758.2424                                   22019755.0394
                                                                        50.0004
        40.0004
 -16319551.66848 -12667686.91446
                  21526916.1484                                   21526912.3444
                                                                        50.0004
        36.0004
   8111262.87946   6333306.13344
                  24139301.5084                                   24139297.7274
                                                                        39.7504
        25.7504
 -15126007.64848 -11747520.25446
                  22260893.0004                                   22260889.9884
                                                                        49.0004
        38.0004
   1273982.78547   1021910.59844
                  23855736.8754                                   23855731.6844
                                                                        42.5004
        24.5004
   9048918.94547   7066320.68844
                  24230722.1334                                   24230718.6914
                                                                        44.2504
        24.7504
 -17575326.31248 -13678402.62946
                  21348139.9304                                   21348136.8874
                                                                        50.0004
        40.0004
  -3684868.35947  -2831876.34444
                  23012599.0864                                   23012595.6214
                                                                        43.5004
        29.7504
 09 10  9  1  2  0.0000000  0 10G02G04G05G13G16G29G23G07G10G25
 -12321508.88748  -9560278.62947
                  20909717.4144                                   20909711.3404
                                                                        50.7504
        42.2504
   5169025.28947   4048712.54345
                  23219333.9924                                   23219331.3754
                                                                        45.7504
        31.2504
 -12480028.60548  -9679957.75446
                  21985808.4614                                   21985805.2664
                                                                        50.7504
        40.5004
 -16377210.07048 -12712615.55546
                  21515943.8674                                   21515940.5704
                                                                        49.5004
        36.0004
   7960739.69946   6216015.38744
                  24110657.9844                                   24110653.6644
                                                                        41.5004
        25.5004
 -15252878.62948 -11846380.73446
                  22236750.3524                                   22236747.5044
                                                                        49.2504
        37.5004
   1276870.06346   1024160.38343
                  23856286.2034                                   23856281.3404
                                                                        40.7504
        22.7504
   8858949.86747   6918292.90644
                  24194572.1484                                   24194568.4884
                                                                        43.5004
        26.2504
 -17740875.84048 -13807402.24646
                  21316637.1174                                   21316634.0824
                                                                        49.0004
        39.7504
  -3829889.26647  -2944879.61344
                  22985002.5394                                   22984999.2424
                                                                        44.5004
        29.7504
 09 10  9  1  2 30.0000000  0 10G02G04G05G13G16G29G23G07G10G25
 -12368887.84448  -9597197.30147
                  20900701.2114                                   20900696.1994
                                                                        50.5004
        42.2504
   5178754.82847   4056294.06345
                  23221185.7194                                   23221183.0314
                                                                        46.7504
        31.5004
 -12658065.96548  -9818688.15246
                  21951929.2344                                   21951925.9804
                                                                        50.5004
        40.0004
 -16434246.34048 -12757059.44545
                  21505090.4844                                   21505086.7034
                                                                        49.0004
        35.5004
   7810740.09046   6099132.61744
                  24082113.1254                                   24082109.2504
                                                                        41.0004
        24.2504
 -15379161.54348 -11944783.00446
                  22212719.6094                                   22212716.4344
                                                                        50.2504
        37.7504
   1280063.90647   1026649.09443
                  23856893.3444                                   23856888.7114
                                                                        42.0004
        23.0004
   8669284.09047   6770501.39144
                  24158480.2664                                   24158476.1134
                                                                        43.0004
        24.0004
 -17905958.74648 -13936038.27346
                  21285222.8984                                   21285219.5784
                                                                        49.0004
        39.2504
  -3974392.10947  -3057479.18745
                  22957504.8054                                   22957501.3834
                                                                        44.5004
        30.2504
 09 10  9  1  3  0.0000000  0 10G02G04G05G13G16G29G23G07G10G25
 -12415712.85548  -9633684.36347
                  20891790.8204                                   20891785.6054
                                                                        50.2504
        42.0004
   5188727.14147   4064064.66845
                  23223083.6024                                   23223080.3554
                                                                        46.7504
        30.5004
 -12835722.49248  -9957121.79346
                  21918122.4224                                   21918118.6644
                                                                        51.0004
        40.2504
 -16490652.55548 -12801012.33646
                  21494357.2114                                   21494352.9064
                                                                        49.7504
        36.2504
   7661274.44546   5982665.95743
                  24053670.9534                                   24053667.0704
                                                                        40.7504
        22.7504
 -15504847.28548 -12042719.95746
                  22188802.3984                                   22188798.7304
                                                                        49.5004
        38.0004
   1283569.66447   1029380.93443
                  23857561.7734                                   23857555.1914
                                                                        43.5004
        23.0004
   8479933.42647   6622955.50444
                  24122447.0474                                   24122444.1024
                                                                        42.5004
        26.0004
 -18070564.58248 -14064302.54746
                  21253899.7664                                   21253896.2274
                                                                        50.0004
        40.5004
  -4118366.46147  -3169666.99644
                  22930107.5474                                   22930104.1254
                                                                        44.0004
        29.2504
 09 10  9  1  3 30.0000000  0 10G02G04G05G13G16G29G23G07G10G25
 -12461992.73848  -9669746.61346
                  20882983.9774                                   20882978.4344
                                                                        51.2504
        41.7504
   5198931.76247   4072016.27345
                  23225024.8444                                   23225022.4654
                                                                        46.5004
        31.5004
 -13013003.06248 -10095262.50446
                  21884386.7664                                   21884382.8554
                                                                        50.5004
        41.0004
 -16546439.10948 -12844482.40246
                  21483741.3524                                   21483737.5744
                                                                        49.2504
        36.0004
   7512336.92246   5866610.79743
                  24025328.6644                                   24025324.9884
                                                                        39.2504
        22.5004
 -15629941.53948 -12140196.00446
                  22164998.1174                                   22164994.8134
                                                                        49.5004
        37.2504
   1287376.59047   1032347.44144
                  23858286.0394                                   23858279.9694
                                                                        44.2504
        24.2504
   8290891.73446   6475650.34844
                  24086473.8204                                   24086470.9574
                                                                        41.2504
        25.2504
 -18234698.89148 -14192199.36346
                  21222665.5864                                   21222662.2424
                                                                        50.7504
        40.2504
  -4261819.18447  -3281448.26245
                  22902808.7894                                   22902805.8484
                                                                        43.2504
        30.0004
 09 10  9  1  4  0.0000000  0 10G02G04G05G13G16G29G23G07G10G25
 -12507725.84048  -9705382.80147
                  20874281.2504                                   20874275.9534
                                                                        51.5004
        42.0004
   5209370.88747   4080150.61745
                  23227011.5084                                   23227009.0944
                                                                        46.0004
        31.0004
 -13189904.14148 -10233107.51646
                  21850723.6644                                   21850720.1334
                                                                        50.2504
        40.2504
 -16601604.39148 -12887468.36345
                  21473243.4144                                   21473239.8404
                                                                        48.7504
        35.5004
   7363932.48046   5750971.00843
                  23997088.3524                                   23997084.0044
                                                                        39.0004
        21.2504
 -15754441.18048 -12237208.72746
                  22141306.1724                                   22141302.8794
                                                                        50.2504
        38.0004
   1291485.78547   1035549.44144
                  23859067.8054                                   23859062.1414
                                                                        43.2504
        24.5004
   8102166.56347   6328591.83644
                  24050560.8134                                   24050557.6454
                                                                        43.5004
        26.5004
 -18398357.92648 -14319725.85546
                  21191522.1174                                   21191519.0084
                                                                        51.0004
        40.5004
  -4404744.53147  -3392818.64545
                  22875611.1564                                   22875608.1414
                                                                        44.5004
        30.0004
 09 10  9  1  4 30.0000000  0 10G02G04G05G13G16G29G23G07G10G25
 -12552912.19948  -9740592.94146
                  20865682.9224                                   20865677.3204
                                                                        50.0004
        41.7504
   5220042.81347   4088466.42245
                  23229042.7504                                   23229039.9104
                                                                        47.7504
        32.0004
 -13366421.84848 -10370653.75046
                  21817133.4384                                   21817130.4774
                                                                        50.2504
        40.0004
 -16656148.44148 -12929970.25846
                  21462864.3914                                   21462860.4494
                                                                        48.5004
        36.2504
   7216065.16446   5635749.81343
                  23968950.3054                                   23968946.0204
                                                                        41.5004
        22.2504
 -15878342.83248 -12333755.45746
                  22117728.7974                                   22117725.6454
                                                                        50.0004
        37.5004
   1295895.18446   1038985.30544
                  23859906.4304                                   23859901.2424
                                                                        41.7504
        25.2504
   7913761.18447   6181782.50844
                  24014708.4064                                   24014705.3714
                                                                        43.7504
        27.5004
 -18561538.02348 -14446879.12946
                  21160470.3594                                   21160466.9064
                                                                        49.2504
        40.0004
  -4547140.24247  -3503776.32044
                  22848514.1254                                   22848511.1054
                                                                        45.0004
        29.5004
 09 10  9  1  5  0.0000000  0 10G02G04G05G13G16G29G23G07G10G25
 -12597553.63348  -9775378.48046
                  20857187.7344                                   20857182.3634
                                                                        51.2504
        41.7504
   5230944.87147   4096961.51645
                  23231117.3134                                   23231114.5864
                                                                        46.5004
        31.7504
 -13542555.01248 -10507900.35246
                  21783616.5084                                   21783613.3284
                                                                        50.0004
        40.0004
 -16710073.48848 -12971989.75445
                  21452602.5474                                   21452598.6254
                                                                        48.5004
        35.5004
   7068735.19546   5520947.29343
                  23940913.6334                                   23940910.6254
                                                                        40.0004
        22.0004
 -16001646.45348 -12429836.20746
                  22094264.6804                                   22094261.4534
                                                                        49.7504
        38.0004
   1300602.06646   1042653.02343
                  23860803.0394                                   23860796.7814
                                                                        40.0004
        22.5004
   7725677.82847   6035224.08244
                  23978917.2894                                   23978914.3134
                                                                        43.2504
        27.7504
 -18724238.51648 -14573658.71946
                  21129509.2034                                   21129505.6374
                                                                        50.0004
        40.0004
  -4689004.89847  -3614320.20745
                  22821518.5394                                   22821515.0474
                                                                        44.0004
        30.2504
 09 10  9  1  5 30.0000000  0 10G02G04G05G13G16G29G23G07G10G25
 -12641652.43748  -9809741.18047
                  20848796.2274                                   20848790.3714
                                                                        50.2504
        42.0004
   5242073.94947   4105633.40645
                  23233234.3284                                   23233232.2344
                                                                        46.2504
        30.0004
 -13718303.16048 -10644846.93046
                  21750172.7344                                   21750169.4614
                                                                        50.5004
        41.0004
 -16763382.19148 -13013529.00045
                  21442458.1024                                   21442453.9414
                                                                        48.5004
        35.5004
   6921943.60547   5406564.27743
                  23912980.8984                                   23912976.7034
                                                                        42.0004
        22.2504
 -16124352.20748 -12525451.08646
                  22070914.4304                                   22070911.2624
                                                                        50.0004
        37.7504
   1305602.37146   1046549.26644
                  23861753.2034                                   23861748.7154
                                                                        41.2504
        24.7504
   7537918.67647   5888918.30144
                  23943187.8674                                   23943184.5434
                                                                        42.2504
        27.0004
 -18886458.58648 -14700063.95746
                  21098639.6644                                   21098636.6414
                                                                        48.7504
        40.5004
  -4830337.91447  -3724449.84045
                  22794623.3914                                   22794620.1844
                                                                        44.2504
        30.2504
 09 10  9  1  6  0.0000000  0 10G02G04G05G13G16G29G23G07G10G25
 -12685210.26648  -9843682.35546
                  20840507.2274                                   20840501.7384
                                                                        51.0004
        41.5004
   5253427.77747   4114480.52345
                  23235395.3914                                   23235392.9104
                                                                        46.2504
        30.2504
 -13893664.40648 -10781491.99646
                  21716802.6884                                   21716799.1764
                                                                        50.0004
        41.0004
 -16816077.12948 -13054590.02045
                  21432430.8134                                   21432426.2934
                                                                        48.0004
        34.7504
   6775692.78947   5292602.69143
                  23885150.7734                                   23885146.5084
                                                                        42.0004
        22.5004
 -16246458.96948 -12620599.21546
                  22047678.3524                                   22047675.2194
                                                                        50.5004
        38.0004
   1310893.39147   1050672.12944
                  23862760.8914                                   23862755.5744
                                                                        43.5004
        24.7504
   7350486.62947   5742867.39844
                  23907520.4774                                   23907517.5434
                                                                        44.0004
        28.2504
 -19048197.18448 -14826094.02746
                  21067861.8914                                   21067858.6724
                                                                        49.2504
        40.0004
  -4971137.95747  -3834164.11345
                  22767830.4774                                   22767826.7194
                                                                        44.2504
        30.5004
 09 10  9  1  6 30.0000000  0 10G02G04G05G13G16G29G23G07G10G25
 -12728226.33648  -9877201.36346
                  20832321.6174                                   20832316.2384
                                                                        51.0004
        41.5004
   5265006.33247   4123502.75844
                  23237598.8674                                   23237596.4574
                                                                        46.7504
        29.7504
 -14068635.36348 -10917832.99646
                  21683506.5634                                   21683503.2624
                                                                        51.0004
        40.5004
 -16868157.35248 -13095171.96945
                  21422519.9844                                   21422515.6604
                                                                        48.7504
        34.5004
   6629985.75047   5179064.74244
                  23857423.8134                                   23857419.1604
                                                                        42.7504
        24.0004
 -16367964.22348 -12715278.62946
                  22024556.5554                                   22024553.3014
                                                                        50.0004
        38.5004
   1316474.47747   1055021.01243
                  23863822.7894                                   23863817.8134
                                                                        42.5004
        23.7504
   7163386.52047   5597075.16044
                  23871917.0314                                   23871913.2464
                                                                        42.7504
        26.2504
 -19209450.21148 -14951745.73046
                  21037176.4144                                   21037173.3094
                                                                        50.0004
        39.7504
  -5111401.15647  -3943460.10945
                  22741138.5004                                   22741135.8754
                                                                        43.7504
        30.0004
 09 10  9  1  7  0.0000000  0 10G02G04G05G13G16G29G23G07G10G25
 -12770701.49648  -9910298.89847
                  20824238.8984                                   20824233.3324
                                                                        51.5004
        42.0004
   5276807.81647   4132698.70344
                  23239844.8054                                   23239841.7584
                                                                        46.0004
        29.7504
 -14243213.23048 -11053867.67646
                  21650285.5164                                   21650282.2664
                                                                        50.7504
        40.5004
 -16919624.26647 -13135276.06245
                  21412726.0784                                   21412722.2274
                                                                        47.5004
        35.0004
   6484825.36347   5065952.78943
                  23829800.0394                                   23829795.8204
                                                                        42.0004
        23.5004
 -16488865.73448 -12809487.59446
                  22001549.7734                                   22001546.6994
                                                                        50.0004
        38.0004
   1322343.45747   1059594.25843
                  23864939.5784                                   23864934.3554
                                                                        43.5004
        22.2504
   6976621.53147   5451544.09844
                  23836376.9224                                   23836372.7624
                                                                        42.5004
        26.5004
 -19370215.46148 -15077017.34446
                  21006583.8284                                   21006580.4534
                                                                        49.7504
        40.0004
  -5251125.68047  -4052336.35544
                  22714550.3984                                   22714546.5944
                                                                        45.0004
        29.2504
 09 10  9  1  7 30.0000000  0 10G02G04G05G13G16G29G23G07G10G25
 -12812639.44548  -9942977.82047
                  20816258.3524                                   20816252.5274
                                                                        51.2504
        42.0004
   5288828.00047   4142065.04744
                  23242131.9694                                   23242129.1454
                                                                        46.7504
        29.5004
 -14417399.68448 -11189597.37146
                  21617138.9304                                   21617135.5394
                                                                        51.5004
        40.2504
 -16970481.64148 -13174905.20345
                  21403048.0234                                   21403044.5274
                                                                        48.5004
        34.7504
   6340210.71546   4953266.10943
                  23802280.2814                                   23802276.4414
                                                                        41.7504
        22.5004
 -16609165.78548 -12903227.91846
                  21978657.5164                                   21978654.5164
                                                                        50.7504
        38.5004
   1328495.34847   1064387.94943
                  23866111.0864                                   23866104.0554
                                                                        43.0004
        20.0004
   6790192.70747   5306274.88744
                  23800899.5944                                   23800896.4304
                                                                        42.5004
        26.2504
 -19530494.27048 -15201909.91046
                  20976083.9454                                   20976080.7814
                                                                        50.0004
        40.2504
  -5390311.98047  -4160793.20344
                  22688063.7974                                   22688060.2114
                                                                        45.2504
        29.5004
 09 10  9  1  8  0.0000000  0 10G02G04G05G13G16G29G23G07G10G25
 -12854038.53948  -9975236.85246
                  20808380.1094                                   20808374.7974
                                                                        52.0004
        41.7504
   5301067.49247   4151602.29345
                  23244461.3524                                   23244458.1024
                                                                        46.5004
        30.0004
 -14591188.84448 -11325017.48046
                  21584067.7814                                   21584064.0634
                                                                        51.5004
        40.0004
 -17020728.72748 -13214058.78545
                  21393486.9534                                   21393482.7894
                                                                        48.2504
        35.7504
   6196146.86347   4841008.66443
                  23774865.3444                                   23774861.3054
                                                                        42.0004
        22.0004
 -16728859.60248 -12996495.85546
                  21955880.4064                                   21955877.5124
                                                                        50.7504
        38.0004
   1334930.18447   1069402.12943
                  23867335.0164                                   23867328.6134
                                                                        44.5004
        21.2504
   6604104.96946   5161271.46944
                  23765489.0554                                   23765485.0204
                                                                        41.5004
        26.7504
 -19690281.69548 -15326419.59446
                  20945677.0474                                   20945674.0394
                                                                        51.0004
        40.7504
  -5528955.99247  -4268827.53944
                  22661680.7894                                   22661677.3984
                                                                        44.5004
        28.5004
 09 10  9  1  8 30.0000000  0 10G02G04G05G13G16G29G23G07G10G25
 -12894896.57848 -10007074.31247
                  20800605.5084                                   20800599.7424
                                                                        50.0004
        42.0004
   5313527.70347   4161311.51645
                  23246832.4224                                   23246829.7504
                                                                        46.5004
        30.5004
 -14764575.80548 -11460124.21546
                  21551073.2664                                   21551069.7854
                                                                        51.7504
        40.2504
 -17070363.51648 -13252735.24245
                  21384041.5084                                   21384037.6094
                                                                        48.7504
        35.5004
   6052639.19947   4729184.57443
                  23747556.7424                                   23747553.0864
                                                                        43.5004
        22.7504
 -16847943.29748 -13089288.32446
                  21933219.8444                                   21933216.6454
                                                                        51.2504
        38.0004
   1341648.73047   1074637.23443
                  23868613.5784                                   23868608.4104
                                                                        42.0004
        22.0004
   6418365.33247   5016539.30144
                  23730143.7974                                   23730140.2854
                                                                        42.7504
        27.2504
 -19849572.13348 -15450541.96946
                  20915365.3594                                   20915362.0314
                                                                        49.5004
        40.7504
  -5667052.30147  -4376435.05944
                  22635401.7974                                   22635398.7664
                                                                        45.0004
        29.5004
 09 10  9  1  9  0.0000000  0 10G02G04G05G13G16G29G23G07G10G25
 -11359798.79748  -8810894.22346
                  21092724.5944                                   21092719.1054
                                                                        51.2504
        41.7504
   6901621.08647   5398786.82045
                  23549036.5164                                   23549033.8794
                                                                        45.2504
        31.0004
 -13362137.84448 -10367315.41846
                  21817948.5314                                   21817945.1524
                                                                        51.5004
        41.0004
 -15543971.12948 -12063338.56245
                  21674504.3674                                   21674500.6214
                                                                        48.7504
        35.2504
   7485109.30547   5845395.09043
                  24020147.2734                                   24020142.9024
                                                                        42.5004
        22.2504
 -15390996.80148 -11954005.33646
                  22210467.4534                                   22210463.9694
                                                                        50.5004
        38.5004
   2924063.94546   2307688.00443
                  24169736.5394                                   24169731.2774
                                                                        40.2504
        21.5004
   7808398.00047   6099681.69144
                  23994658.4924                                   23994654.1954
                                                                        42.2504
        26.5004
 -18432944.05948 -14346675.93446
                  21184940.6884                                   21184937.3364
                                                                        51.0004
        40.5004
  -4229179.83647  -3256014.97744
                  22909020.1414                                   22909016.4694
                                                                        46.0004
        29.7504
 09 10  9  1  9 30.0000000  0 10G02G04G05G13G16G29G23G07G10G25
 -11399587.51248  -8841898.39146
                  21085153.1334                                   21085147.5004
                                                                        51.7504
        41.5004
   6914507.96547   5408828.50444
                  23551488.8364                                   23551485.7074
                                                                        46.0004
        29.7504
 -13534723.39148 -10501797.65246
                  21785106.7974                                   21785103.3054
                                                                        52.0004
        41.0004
 -15592395.76248 -12101072.02345
                  21665289.5394                                   21665285.6644
                                                                        49.2504
        35.2504
   7342710.89546   5734435.31843
                  23993049.6724                                   23993045.5784
                                                                        41.7504
        22.2504
 -15508865.41848 -12045850.96946
                  22188037.2424                                   22188034.5164
                                                                        50.0004
        38.2504
   2931334.68047   2313353.53744
                  24171120.5314                                   24171115.7814
                                                                        43.2504
        25.5004
   7623354.87846   5955492.27444
                  23959446.2504                                   23959441.8714
                                                                        41.2504
        26.0004
 -18591245.03148 -14470027.32046
                  21154817.0474                                   21154813.7894
                                                                        49.7504
        40.7504
  -4366184.63347  -3362771.95744
                  22882948.6024                                   22882945.3794
                                                                        45.5004
        29.7504
 09 10  9  1 10  0.0000000  0 10G02G04G05G13G16G29G23G07G10G25
 -11438845.47348  -8872488.99646
                  21077682.2114                                   21077677.1764
                                                                        51.7504
        41.5004
   6927603.85247   5419033.07045
                  23553980.4384                                   23553978.1764
                                                                        45.5004
        30.5004
 -13706907.55948 -10635967.09846
                  21752341.0554                                   21752337.9654
                                                                        52.0004
        41.5004
 -15640218.80148 -12138336.65645
                  21656188.8054                                   21656185.2734
                                                                        49.0004
        34.5004
   7200867.85246   5623908.30143
                  23966057.7344                                   23966053.6134
                                                                        41.2504
        22.2504
 -15626127.08648 -12137223.60546
                  22165723.4614                                   22165720.5984
                                                                        50.2504
        38.0004
   2938875.46547   2319229.47344
                  24172555.6414                                   24172550.6994
                                                                        43.7504
        24.5004
   7438662.93047   5811576.50444
                  23924300.1254                                   23924296.6134
                                                                        42.0004
        27.5004
 -18749051.26248 -14592993.19546
                  21124787.1174                                   21124784.1994
                                                                        50.7504
        40.5004
  -4502642.81247  -3469102.95344
                  22856981.4844                                   22856978.6174
                                                                        45.7504
        29.7504
 09 10  9  1 10 30.0000000  0 10G02G04G05G13G16G29G23G07G10G25
 -11477573.02348  -8902666.28546
                  21070312.8204                                   21070307.2854
                                                                        50.2504
        41.0004
   6940907.02747   5429399.22344
                  23556512.0164                                   23556509.7734
                                                                        45.7504
        28.5004
 -13878687.54748 -10769821.63346
                  21719652.1414                                   21719649.1054
                                                                        51.0004
        41.0004
 -15687441.93448 -12175133.90245
                  21647202.6174                                   21647198.7814
                                                                        49.5004
        35.0004
   7059582.97746   5513816.23443
                  23939172.1254                                   23939168.1764
                                                                        41.7504
        22.7504
 -15742779.56248 -12228121.56246
                  22143524.9384                                   22143522.2774
                                                                        50.0004
        38.7504
   2946684.81647   2325314.64544
                  24174042.0164                                   24174036.2814
                                                                        43.7504
        25.0004
   7254325.66046   5667937.13344
                  23889221.9384                                   23889218.2424
                                                                        41.2504
        27.2504
 -18906359.69948 -14715571.18746
                  21094852.3524                                   21094849.2934
                                                                        49.7504
        41.0004
  -4638552.22347  -3575006.37144
                  22831118.9454                                   22831115.3554
                                                                        45.7504
        29.7504
 09 10  9  1 11  0.0000000  0 10G02G04G05G13G16G29G23G07G10G25
 -11515774.18748  -8932433.44146
                  21063043.5474                                   21063038.3164
                                                                        50.7504
        41.2504
   6954412.84047   5439923.22744
                  23559082.4844                                   23559079.3554
                                                                        45.7504
        28.5004
 -14050063.99648 -10903361.69146
                  21687040.6334                                   21687036.8594
                                                                        52.0004
        41.0004
 -15734069.52048 -12211467.06245
                  21638330.0084                                   21638325.7814
                                                                        48.7504
        34.0004
   6918855.42646   5404158.39843
                  23912392.7894                                   23912388.4964
                                                                        41.2504
        21.5004
 -15858825.30548 -12318546.82446
                  22121442.3984                                   22121439.7624
                                                                        49.7504
        38.7504
   2954757.59047   2331605.09443
                  24175577.3134                                   24175572.5744
                                                                        42.2504
        23.7504
   7070343.37147   5524574.35544
                  23854211.3674                                   23854208.0164
                                                                        42.0004
        28.7504
 -19063171.18448 -14837761.96146
                  21065012.3984                                   21065009.2194
                                                                        49.0004
        40.0004
  -4773914.02747  -3680483.07045
                  22805360.6724                                   22805357.2234
                                                                        45.7504
        30.2504
 09 10  9  1 11 30.0000000  0 10G02G04G05G13G16G29G23G07G10G25
 -11553448.72748  -8961790.25446
                  21055874.3674                                   21055869.1764
                                                                        51.5004
        41.7504
   6968120.93047   5450604.84044
                  23561690.3594                                   23561688.3594
                                                                        45.5004
        29.7504
 -14221033.43048 -11036584.60546
                  21654506.1414                                   21654502.7854
                                                                        52.5004
        41.5004
 -15780101.49248 -12247336.10245
                  21629570.3524                                   21629566.0554
                                                                        50.5004
        35.0004
   6778688.53547   5294937.42643
                  23885719.8054                                   23885715.4574
                                                                        43.0004
        22.5004
 -15974261.20748 -12408496.87946
                  22099475.6174                                   22099472.5904
                                                                        50.0004
        38.7504
   2963092.43847   2338099.72343
                  24177164.3914                                   24177158.2304
                                                                        42.0004
        22.7504
   6886720.73047   5381491.78544
                  23819269.3134                                   23819265.1564
                                                                        44.0004
        29.7504
 -19219482.21948 -14959562.75846
                  21035267.3444                                   21035264.3164
                                                                        50.2504
        40.5004
  -4908725.08247  -3785530.64145
                  22779706.9224                                   22779703.2384
                                                                        46.2504
        30.5004
 09 10  9  1 12  0.0000000  0 10G02G04G05G13G16G29G23G07G10G25
 -11590596.34048  -8990736.47746
                  21048805.4384                                   21048800.3794
                                                                        50.7504
        41.2504
   6982031.14147   5461443.91844
                  23564338.3834                                   23564335.5044
                                                                        45.7504
        29.7504
 -14391592.72748 -11169487.97346
                  21622049.8914                                   21622046.1334
                                                                        51.0004
        41.2504
 -15825538.31648 -12282741.42245
                  21620923.8364                                   21620919.6684
                                                                        49.0004
        34.7504
   6639086.28546   5186156.46543
                  23859154.2584                                   23859150.3754
                                                                        41.5004
        23.0004
 -16089085.01648 -12497969.99246
                  22077625.4224                                   22077621.9614
                                                                        49.5004
        38.5004
   2971688.93847   2344798.28143
                  24178799.9454                                   24178794.5784
                                                                        42.7504
        21.5004
   6703462.43447   5238693.12544
                  23784396.3754                                   23784392.3714
                                                                        43.7504
        28.5004
 -19375289.85548 -15080971.28946
                  21005618.0004                                   21005614.5784
                                                                        50.5004
        40.2504
  -5042981.88747  -3890146.33245
                  22754158.9534                                   22754155.1334
                                                                        46.0004
        31.5004
 09 10  9  1 12 30.0000000  0 10G02G04G05G13G16G29G23G07G10G25
 -11627220.13748  -9019274.48846
                  21041836.1884                                   21041830.4574
                                                                        50.7504
        41.0004
   6996139.42247   5472437.34044
                  23567022.3284                                   23567019.8634
                                                                        44.5004
        28.7504
 -14561741.50048 -11302071.43746
                  21589671.3984                                   21589668.4534
                                                                        51.7504
        41.0004
 -15870383.46548 -12317685.69945
                  21612390.2734                                   21612386.5274
                                                                        49.2504
        35.0004
   6500047.63747   5077814.65244
                  23832697.4304                                   23832692.4924
                                                                        42.5004
        25.2504
 -16203297.45348 -12586966.66846
                  22055891.5944                                   22055888.3714
                                                                        50.0004
        38.5004
   2980542.36746   2351697.17243
                  24180484.8204                                   24180478.9884
                                                                        40.0004
        19.7504
   6520569.34447   5096179.05544
                  23749591.9774                                   23749588.4774
                                                                        42.2504
        26.2504
 -19530594.37148 -15201987.77346
                  20976064.5474                                   20976061.2974
                                                                        50.0004
        41.0004
  -5176685.03947  -3994330.59445
                  22728716.1254                                   22728712.1054
                                                                        46.0004
        30.7504
 09 10  9  1 13  0.0000000  0  9G02G04G05G13G16G29G07G10G25
 -11663319.07848  -9047403.53146
                  21034966.8054                                   21034961.1454
                                                                        50.5004
        41.0004
   7010446.45347   5483585.64544
                  23569745.2274                                   23569742.4064
                                                                        43.0004
        28.7504
 -14731475.70348 -11434331.84446
                  21557372.1804                                   21557368.6564
                                                                        51.0004
        41.5004
 -15914636.12148 -12352168.32045
                  21603968.9844                                   21603965.0744
                                                                        48.0004
        35.0004
   6361577.64147   4969915.96144
                  23806346.9694                                   23806342.0274
                                                                        43.2504
        25.2504
 -16316895.44548 -12675484.59446
                  22034274.5634                                   22034271.4064
                                                                        49.2504
        38.7504
   6338047.22346   4953954.07444
                  23714859.4534                                   23714855.6954
                                                                        41.5004
        26.5004
 -19685391.81648 -15322609.13346
                  20946607.8914                                   20946604.7034
                                                                        50.7504
        41.0004
  -5309830.37147  -4098080.17645
                  22703379.2274                                   22703375.4694
                                                                        46.0004
        30.7504
 09 10  9  1 13 30.0000000  0  9G02G04G05G13G16G29G07G10G25
 -11698896.55548  -9075126.23846
                  21028196.4844                                   21028191.5204
                                                                        51.5004
        41.0004
   7024948.20747   5494885.68444
                  23572504.9844                                   23572501.8364
                                                                        44.2504
        29.0004
 -14900795.13348 -11566269.03546
                  21525151.1884                                   21525148.3834
                                                                        50.0004
        41.0004
 -15958300.37948 -12386192.41445
                  21595659.9614                                   21595656.0164
                                                                        48.5004
        34.0004
   6223675.55547   4862459.79344
                  23780104.7584                                   23780100.4964
                                                                        43.5004
        25.2504
 -16429879.69948 -12763524.25846
                  22012774.7114                                   22012771.5354
                                                                        48.2504
        38.7504
   6155896.98446   4812018.85244
                  23680197.7664                                   23680193.7384
                                                                        41.2504
        27.7504
 -19839682.49248 -15442835.62946
                  20917247.3134                                   20917243.8754
                                                                        50.5004
        41.5004
  -5442418.53947  -4201395.63345
                  22678148.5944                                   22678144.7974
                                                                        46.5004
        30.5004
 09 10  9  1 14  0.0000000  0  9G02G04G05G13G16G29G07G10G25
 -11733945.62148  -9102437.19946
                  21021526.9694                                   21021521.2504
                                                                        51.0004
        40.7504
   7039651.21547   5506342.53544
                  23575302.8284                                   23575300.1804
                                                                        43.0004
        29.2504
 -15069690.16448 -11697875.53946
                  21493011.9924                                   21493008.6334
                                                                        50.0004
        41.2504
 -16001369.42648 -12419752.70745
                  21587464.1804                                   21587460.3914
                                                                        48.5004
        34.5004
   6086351.55546   4755453.98844
                  23753972.5704                                   23753968.4614
                                                                        41.0004
        25.5004
 -16542241.73848 -12851079.10946
                  21991392.5234                                   21991389.5394
                                                                        49.2504
        39.0004
   5974130.20746   4670382.43444
                  23645608.5784                                   23645604.6764
                                                                        41.5004
        26.7504
 -19993456.30548 -15562659.35546
                  20887985.0784                                   20887981.7154
                                                                        50.5004
        41.0004
  -5574439.41847  -4304269.05145
                  22653025.5164                                   22653022.0704
                                                                        46.7504
        30.2504
 09 10  9  1 14 30.0000000  0  9G02G04G05G13G16G29G07G10G25
 -11768459.76248  -9129331.34046
                  21014959.2664                                   21014953.8364
                                                                        51.5004
        41.0004
   7054561.21547   5517960.66444
                  23578140.0234                                   23578137.3634
                                                                        43.5004
        27.5004
 -15238150.30548 -11829143.18446
                  21460955.0784                                   21460951.7464
                                                                        49.7504
        41.2504
 -16043837.33648 -12452844.60245
                  21579383.1024                                   21579379.1994
                                                                        49.2504
        35.0004
   5949615.24646   4648906.18044
                  23727952.1644                                   23727948.3834
                                                                        41.5004
        24.5004
 -16653972.25848 -12938141.86346
                  21970131.0864                                   21970128.0084
                                                                        49.0004
        38.7504
   5792757.12546   4529052.82444
                  23611094.2894                                   23611090.8594
                                                                        41.5004
        27.2504
 -20146703.21148 -15682072.50446
                  20858822.6954                                   20858819.9574
                                                                        50.0004
        41.0004
  -5705884.05547  -4406693.43745
                  22628012.5394                                   22628008.3914
                                                                        46.5004
        30.2504
 09 10  9  1 15  0.0000000  0  9G02G04G05G13G16G29G07G10G25
 -11802441.02348  -9155810.27046
                  21008492.7274                                   21008487.1804
                                                                        50.7504
        41.0004
   7069675.62547   5529738.07844
                  23581016.0394                                   23581013.4104
                                                                        43.5004
        29.2504
 -15406174.52048 -11960071.16446
                  21428981.5084                                   21428977.9224
                                                                        49.5004
        41.2504
 -16085706.33248 -12485469.80945
                  21571415.5084                                   21571411.4924
                                                                        49.0004
        34.0004
   5813468.31646   4542817.59443
                  23702044.3754                                   23702041.1024
                                                                        40.2504
        23.2504
 -16765070.59448 -13024711.99646
                  21948989.8134                                   21948986.6414
                                                                        48.5004
        38.5004
   5611780.75446   4388032.31344
                  23576655.4694                                   23576651.8204
                                                                        41.7504
        28.5004
 -20299422.67648 -15801074.65646
                  20829761.2584                                   20829758.1214
                                                                        50.7504
        41.7504
  -5836751.10947  -4508667.76645
                  22603109.5864                                   22603105.3324
                                                                        46.7504
        30.7504
 09 10  9  1 15 30.0000000  0  9G02G04G05G13G16G29G07G10G25
 -11835894.96548  -9181878.27346
                  21002126.6024                                   21002120.9964
                                                                        50.5004
        40.7504
   7084988.21947   5541669.93844
                  23583930.4694                                   23583927.4734
                                                                        43.0004
        28.2504
 -15573765.91448 -12090661.84046
                  21397089.8204                                   21397086.2974
                                                                        50.5004
        41.7504
 -16126983.15248 -12517633.57845
                  21563560.9614                                   21563556.9414
                                                                        48.5004
        34.5004
   5677907.47747   4437185.82443
                  23676248.5084                                   23676244.1994
                                                                        42.5004
        22.2504
 -16875541.62147 -13110793.30146
                  21927968.1644                                   21927964.7854
                                                                        47.7504
        39.0004
   5431199.48447   4247319.69144
                  23542292.0164                                   23542287.9844
                                                                        42.5004
        28.0004
 -20451618.10248 -15919668.47746
                  20800799.6024                                   20800796.7034
                                                                        51.0004
        41.0004
  -5967043.78547  -4610194.55945
                  22578315.2894                                   22578311.4344
                                                                        46.5004
        30.0004
