     2.11           OBSERVATION DATA    G (GPS)             RINEX VERSION / TYPE
teqc  2019Feb25                         20221121 12:28:12UTCPGM / RUN BY / DATE
OSX ker:10.11.6|Core i5|gcc 4.3 -m64|OSX ker:10.10+|=+      COMMENT
BIT 2 OF LLI FLAGS DATA COLLECTED UNDER A/S CONDITION       COMMENT
04712831                                                    MARKER NAME
2831                                                        MARKER NUMBER
-Unknown-           -Unknown-                               OBSERVER / AGENCY
0220400471          TRIMBLE R7          2.30                REC # / TYPE / VERS
-Unknown-           TRM39105.00     NONE                    ANT # / TYPE
  1449460.3137 -1709241.0913  5952441.6439                  APPROX POSITION XYZ
        0.0000        0.0000        0.0000                  ANTENNA: DELTA H/E/N
     1     1                                                WAVELENGTH FACT L1/2
    20    L1    L2    L5    L6    L7    L8    C1    P1    C2# / TYPES OF OBSERV
          P2    C5    C6    C7    C8    S1    S2    S5    S6# / TYPES OF OBSERV
          S7    S8                                          # / TYPES OF OBSERV
    30.0000                                                 INTERVAL
    15                                                      LEAP SECONDS
Forced Modulo Decimation to 30 seconds                      COMMENT
 SNR is mapped to RINEX snr flag value [0-9]                COMMENT
  L1 & L2: min(max(int(snr_dBHz/6), 0), 9)                  COMMENT
teqc edited: Beidou # 1 - 37 excluded                       COMMENT
  2009    10    10    23    10    0.0000000     GPS         TIME OF FIRST OBS
                                                            END OF HEADER
 09 10 10 23 10  0.0000000  0  8G02G04G12G13G20G23G30G31
   -210242.34458   -112450.74656
                  21271974.2274                                   21271968.7854
                                                                        52.0004
        41.5004
   -105627.36758    -56080.21557
                  20526737.0234                                   20526733.5394
                                                                        50.7504
        42.5004
    -32581.03957    -17909.88355
                  23302154.3594                                   23302150.7384
                                                                        47.0004
        34.2504
   -239386.94957   -132616.28555
                  22569247.7814                                   22569243.9104
                                                                        46.5004
        30.2504
      9796.83657      3770.84454
                  23546608.5554                                   23546604.2584
                                                                        43.0004
        25.7504
   -139923.20758    -75455.67656
                  21809322.9224                                   21809316.8244
                                                                        49.0004
        36.2504
   -100613.29757    -54086.14155
                  22522390.7734                                   22522387.9104
                                                                        44.0004
        32.0004
   -103362.93757    -56281.74654
                  23635697.0474                                   23635693.4184
                                                                        43.7504
        29.2504
 09 10 10 23 10 30.0000000  0  8G02G04G12G13G20G23G30G31
   -375488.52548   -241214.02946
                  21240528.7034                                   21240523.2304
                                                                        51.5004
        40.7504
   -189220.68348   -121217.86947
                  20510829.7194                                   20510826.2974
                                                                        51.5004
        42.0004
    -59963.29347    -39246.71545
                  23296943.9064                                   23296939.7854
                                                                        46.5004
        34.5004
   -427222.49947   -278981.65745
                  22533503.9694                                   22533499.8634
                                                                        47.0004
        30.7504
     15313.89346      8069.79844
                  23547658.2974                                   23547653.7854
                                                                        41.5004
        25.0004
   -250427.98548   -161563.26045
                  21788294.5234                                   21788288.5704
                                                                        49.0004
        35.2504
   -180600.07247   -116413.49145
                  22507169.4844                                   22507166.5514
                                                                        47.0004
        31.5004
   -187221.05147   -121625.74944
                  23619739.4694                                   23619735.2704
                                                                        43.0004
        28.5004
 09 10 10 23 11  0.0000000  0  8G02G04G12G13G20G23G30G31
   -540575.91448   -369853.53946
                  21209113.5944                                   21209108.3244
                                                                        52.0004
        40.5004
   -272524.15648   -186129.66047
                  20494977.8204                                   20494974.3714
                                                                        52.5004
        42.0004
    -87166.63747    -60444.13745
                  23291767.3914                                   23291762.9734
                                                                        47.0004
        32.7504
   -614899.69547   -425223.65245
                  22497790.2734                                   22497786.1254
                                                                        47.0004
        30.5004
     20786.55146     12334.18843
                  23548698.3204                                   23548694.4344
                                                                        39.5004
        21.5004
   -360573.71548   -247391.11345
                  21767334.8134                                   21767328.5394
                                                                        49.2504
        35.0004
   -260190.37147   -178431.89145
                  22492024.0704                                   22492021.0474
                                                                        47.5004
        31.5004
   -270758.31647   -186719.75844
                  23603843.0784                                   23603838.9144
                                                                        43.7504
        29.2504
 09 10 10 23 11 30.0000000  0  8G02G04G12G13G20G23G30G31
   -705156.57048   -498098.24246
                  21177795.1804                                   21177789.4224
                                                                        50.7504
        41.0004
   -355191.82848   -250546.02746
                  20479246.5314                                   20479243.1724
                                                                        52.7504
        41.7504
   -113847.08247    -81234.12145
                  23286689.8284                                   23286685.8444
                                                                        46.0004
        31.7504
   -802069.01647   -571069.90645
                  22462172.9774                                   22462169.5274
                                                                        47.2504
        31.0004
     26559.04746     16832.23843
                  23549796.6414                                   23549793.0234
                                                                        36.2504
        19.0004
   -470012.92248   -332668.42245
                  21746509.0084                                   21746502.7424
                                                                        49.5004
        35.5004
   -339038.84847   -239872.25845
                  22477019.2734                                   22477016.9924
                                                                        46.5004
        31.0004
   -353628.52047   -251293.95344
                  23588073.0234                                   23588069.7894
                                                                        44.0004
        27.5004
 09 10 10 23 12  0.0000000  0  8G02G04G12G13G20G23G30G31
   -869107.14148   -625851.91446
                  21146596.3364                                   21146590.7584
                                                                        52.0004
        41.5004
   -437102.52048   -314372.55947
                  20463659.6884                                   20463656.1914
                                                                        52.5004
        42.0004
   -139885.80147   -101524.03145
                  23281734.4454                                   23281730.5474
                                                                        46.5004
        31.5004
   -988605.83647   -716423.32845
                  22426676.0634                                   22426672.1024
                                                                        47.0004
        30.7504
     32750.41046     21656.62143
                  23550975.7034                                   23550971.3754
                                                                        37.5004
        21.5004
   -578623.66448   -417300.17645
                  21725841.0394                                   21725834.8204
                                                                        49.5004
        35.2504
   -417024.85247   -300640.57045
                  22462179.5474                                   22462176.3984
                                                                        46.5004
        31.0004
   -435711.28147   -315254.57844
                  23572453.2504                                   23572449.5744
                                                                        43.2504
        28.5004
 09 10 10 23 12 30.0000000  0  8G02G04G12G13G20G23G30G31
  -1032365.18448   -753065.98446
                  21115529.6644                                   21115524.1094
                                                                        51.7504
        40.7504
   -518196.59448   -377562.77347
                  20448227.7424                                   20448224.4264
                                                                        52.5004
        42.2504
   -165224.70347   -121268.67245
                  23276912.8524                                   23276909.3404
                                                                        47.0004
        32.2504
  -1174447.56247   -861235.17245
                  22391311.8054                                   22391307.7734
                                                                        47.2504
        30.5004
     39418.62946     26852.58244
                  23552245.3364                                   23552240.7234
                                                                        39.7504
        25.5004
   -686345.31648   -501239.13345
                  21705342.0784                                   21705336.1604
                                                                        49.5004
        35.5004
   -494088.52347   -360690.14844
                  22447514.6724                                   22447512.0474
                                                                        46.5004
        29.7504
   -516946.30147   -378554.60944
                  23556994.9224                                   23556991.1024
                                                                        43.0004
        28.0004
 09 10 10 23 13  0.0000000  0  8G02G04G12G13G20G23G30G31
  -1194909.99248   -879724.26646
                  21084598.0394                                   21084592.9884
                                                                        52.2504
        41.0004
   -598455.77048   -440102.39147
                  20432955.0234                                   20432952.0904
                                                                        51.0004
        42.0004
   -189847.94947   -140455.67245
                  23272227.5394                                   23272223.5394
                                                                        46.0004
        32.7504
  -1359571.96947  -1005487.97745
                  22356084.0634                                   22356079.9884
                                                                        47.5004
        31.7504
     46580.17246     32432.98044
                  23553608.4384                                   23553604.5274
                                                                        41.7504
        26.5004
   -793158.71148   -584470.34445
                  21685016.1884                                   21685010.4774
                                                                        48.0004
        34.7504
   -570212.73847   -420007.70345
                  22433028.4304                                   22433026.0784
                                                                        44.5004
        31.2504
   -597315.81647   -441180.21944
                  23541700.9924                                   23541697.6334
                                                                        44.0004
        29.7504
 09 10 10 23 13 30.0000000  0  8G02G04G12G13G20G23G30G31
  -1356735.73048  -1005822.25046
                  21053803.6174                                   21053798.6884
                                                                        51.7504
        41.0004
   -677876.32848   -501988.55547
                  20417841.8444                                   20417838.7034
                                                                        52.7504
        42.0004
   -213753.39547   -159083.29345
                  23267678.3834                                   23267674.5044
                                                                        46.5004
        32.7504
  -1543972.47347  -1149176.60545
                  22320993.1254                                   22320989.8054
                                                                        47.5004
        32.0004
     54236.84846     38399.19144
                  23555065.1564                                   23555060.8554
                                                                        41.5004
        25.0004
   -899059.88748   -666990.74245
                  21664864.0704                                   21664857.7774
                                                                        49.5004
        35.5004
   -645393.67247   -478590.20345
                  22418721.8364                                   22418719.1054
                                                                        45.5004
        31.2504
   -676816.03547   -503128.45344
                  23526572.7274                                   23526568.0984
                                                                        44.0004
        28.5004
 09 10 10 23 14  0.0000000  0  8G02G04G12G13G20G23G30G31
     57594.87148     96253.53546
                  21322941.5634                                   21322936.3404
                                                                        51.2504
        41.0004
    818974.00848    664388.33246
                  20702682.8134                                   20702679.5904
                                                                        52.5004
        41.7504
   1338487.16047   1050454.78945
                  23563059.9144                                   23563056.0984
                                                                        47.5004
        32.7504
   -152209.81647    -64686.15645
                  22585836.6724                                   22585833.2544
                                                                        47.5004
        31.7504
   1637816.83646   1272357.62543
                  23856410.3134                                   23856405.7734
                                                                        40.2504
        22.7504
    571385.91848    478811.19145
                  21944680.1564                                   21944674.6644
                                                                        48.5004
        35.5004
    855799.69147    691170.87945
                  22704389.6644                                   22704386.8094
                                                                        45.7504
        30.5004
    819984.99647    663210.00844
                  23811404.9924                                   23811400.0204
                                                                        45.2504
        28.5004
 09 10 10 23 14 30.0000000  0  8G02G04G12G13G20G23G30G31
   -102769.54748    -28705.77046
                  21292425.4844                                   21292420.3164
                                                                        51.5004
        41.0004
    741246.79348    603821.66047
                  20687891.8914                                   20687888.4454
                                                                        52.2504
        42.2504
   1316027.21147   1032953.52345
                  23558786.0004                                   23558782.0594
                                                                        47.2504
        32.2504
   -335135.94147   -207225.93745
                  22551027.0314                                   22551022.8094
                                                                        47.2504
        30.7504
   1646475.06346   1279104.24643
                  23858057.0554                                   23858053.6954
                                                                        38.2504
        19.5004
    467328.98048    397727.87945
                  21924879.3284                                   21924873.1564
                                                                        48.7504
        34.7504
    782518.89847    634068.96145
                  22690444.6724                                   22690442.0704
                                                                        45.7504
        30.0004
    742238.50847    602628.33244
                  23796609.9304                                   23796606.3244
                                                                        44.0004
        29.5004
 09 10 10 23 15  0.0000000  0  8G02G04G12G13G20G23G30G31
   -262411.77348   -153102.32446
                  21262046.5704                                   21262041.3284
                                                                        50.7504
        41.0004
    664354.39848    543905.49247
                  20673259.7974                                   20673256.4804
                                                                        52.7504
        42.0004
   1294274.89848   1016003.66045
                  23554646.6174                                   23554643.0904
                                                                        48.0004
        33.5004
   -517331.54347   -349196.44944
                  22516356.4844                                   22516352.3714
                                                                        47.5004
        29.7504
   1655619.73446   1286229.87143
                  23859797.8674                                   23859793.7154
                                                                        40.0004
        19.7504
    364183.59848    317354.84845
                  21905251.2194                                   21905245.3284
                                                                        48.5004
        35.5004
    710175.80547    577697.71945
                  22676678.2734                                   22676675.4304
                                                                        44.5004
        30.5004
    665356.87147    542720.57044
                  23781980.0554                                   23781975.9574
                                                                        44.7504
        29.0004
 09 10 10 23 15 30.0000000  0  8G02G04G12G13G20G23G30G31
   -421330.52748   -276935.11746
                  21231805.5164                                   21231799.5044
                                                                        51.2504
        41.2504
    588294.72348    484638.20347
                  20658786.0164                                   20658782.8324
                                                                        53.0004
        42.2504
   1273226.51248    999602.31645
                  23550641.4694                                   23550637.2304
                                                                        48.0004
        32.5004
   -698795.57447   -490596.92245
                  22481825.0084                                   22481820.6884
                                                                        47.5004
        31.5004
   1665246.78547   1293731.52743
                  23861629.7734                                   23861624.9734
                                                                        42.5004
        21.2504
    261948.02348    237690.78145
                  21885796.2424                                   21885790.4184
                                                                        48.7504
        35.5004
    638768.15647    522055.39145
                  22663089.9304                                   22663087.1024
                                                                        44.7504
        30.7504
    589338.02347    483485.08644
                  23767514.1094                                   23767509.9264
                                                                        44.5004
        28.5004
 09 10 10 23 16  0.0000000  0  8G02G04G12G13G20G23G30G31
   -579531.77348   -400208.78946
                  21201700.7194                                   21201694.8444
                                                                        51.2504
        41.5004
    513060.25048    426013.95347
                  20644469.4454                                   20644466.2464
                                                                        53.0004
        42.2504
   1252871.96147    983741.63745
                  23546768.0394                                   23546764.0234
                                                                        47.5004
        32.0004
   -879532.02047   -631430.49245
                  22447432.0634                                   22447428.5434
                                                                        47.7504
        31.0004
   1675347.27347   1301602.03543
                  23863552.0704                                   23863547.3554
                                                                        43.7504
        22.7504
    160615.85948    158730.66045
                  21866513.2974                                   21866507.1844
                                                                        48.5004
        35.7504
    568287.32847    467135.25045
                  22649677.7584                                   22649674.8834
                                                                        44.7504
        30.2504
    514173.98047    424915.69144
                  23753210.9534                                   23753206.6764
                                                                        45.2504
        29.7504
 09 10 10 23 16 30.0000000  0  8G02G04G12G13G20G23G30G31
   -737021.58648   -522928.12146
                  21171731.2274                                   21171725.8634
                                                                        50.7504
        41.5004
    438642.09048    368025.74647
                  20630308.1644                                   20630305.1604
                                                                        52.7504
        42.0004
   1233201.32447    968413.85245
                  23543024.6414                                   23543020.9574
                                                                        47.0004
        31.5004
  -1059546.52748   -771701.53545
                  22413176.6334                                   22413172.6414
                                                                        48.7504
        32.2504
   1685910.68447   1309833.28143
                  23865562.3444                                   23865558.2544
                                                                        43.7504
        22.5004
     60179.25048     80468.38346
                  21847400.7584                                   21847394.8954
                                                                        48.5004
        36.0004
    498724.07047    412930.10545
                  22636440.6724                                   22636437.1134
                                                                        44.0004
        30.2504
    439856.06647    367005.62144
                  23739068.5704                                   23739064.0204
                                                                        45.2504
        28.7504
 09 10 10 23 17  0.0000000  0  8G02G04G12G13G20G23G30G31
   -893804.25848   -645096.43746
                  21141896.3754                                   21141890.9224
                                                                        51.0004
        41.7504
    365033.53948    310668.42647
                  20616300.8134                                   20616297.8324
                                                                        53.2504
        42.0004
   1214205.14847    953611.62145
                  23539410.1644                                   23539406.2464
                                                                        47.0004
        31.0004
  -1238842.41047   -911412.60945
                  22379057.1644                                   22379053.8164
                                                                        47.5004
        32.0004
   1696928.55547   1318418.68043
                  23867659.0234                                   23867655.4414
                                                                        42.5004
        22.7504
    -39368.09047      2899.03146
                  21828457.9384                                   21828451.7894
                                                                        47.7504
        36.0004
    430071.50847    359434.60545
                  22623376.1254                                   22623373.4884
                                                                        45.0004
        31.5004
    366377.07847    309749.27744
                  23725085.7894                                   23725081.2274
                                                                        45.2504
        28.5004
 09 10 10 23 17 30.0000000  0  8G02G04G12G13G20G23G30G31
  -1049883.74248   -766716.80146
                  21112195.5554                                   21112190.0354
                                                                        50.5004
        41.2504
    292228.54348    253937.26647
                  20602446.6954                                   20602443.5514
                                                                        53.5004
        42.2504
   1195875.60247    939328.83645
                  23535921.6954                                   23535918.3134
                                                                        46.5004
        30.5004
  -1417422.10247  -1050565.60245
                  22345074.7894                                   22345070.8714
                                                                        47.5004
        32.5004
   1708393.08646   1327351.99643
                  23869839.6094                                   23869836.6914
                                                                        40.5004
        21.5004
   -138031.19548    -73981.30146
                  21809682.9614                                   21809677.0234
                                                                        48.0004
        36.2504
    362322.56647    306643.23045
                  22610483.9694                                   22610481.0554
                                                                        43.5004
        31.0004
    293730.86347    253141.85244
                  23711261.7734                                   23711257.0514
                                                                        45.0004
        26.5004
 09 10 10 23 18  0.0000000  0  8G02G04G12G13G20G23G30G31
  -1205267.12148   -887794.74247
                  21082627.0864                                   21082621.7894
                                                                        50.0004
        42.0004
    220217.23448    197824.55147
                  20588743.3284                                   20588740.1764
                                                                        53.0004
        42.0004
   1178201.39547    925556.72745
                  23532558.5784                                   23532554.9804
                                                                        47.5004
        31.0004
  -1595292.01247  -1189165.52045
                  22311227.6414                                   22311223.9224
                                                                        47.7504
        32.2504
   1720292.94146   1336624.51243
                  23872104.8444                                   23872101.0204
                                                                        41.5004
        21.5004
   -235819.33647   -150179.84445
                  21791074.3834                                   21791068.3954
                                                                        47.0004
        35.0004
    295466.95347    254547.93845
                  22597761.8834                                   22597759.0514
                                                                        45.7504
        31.0004
    221907.14547    197175.34444
                  23697594.3754                                   23697589.3834
                                                                        45.5004
        28.0004
 09 10 10 23 18 30.0000000  0  8G02G04G12G13G20G23G30G31
  -1359960.52748  -1008334.98046
                  21053190.0234                                   21053184.5204
                                                                        51.5004
        41.7504
    148991.33248    142323.85547
                  20575189.4144                                   20575186.3054
                                                                        53.2504
        42.2504
   1161171.52747    912286.69145
                  23529317.8914                                   23529314.2074
                                                                        47.5004
        32.2504
  -1772457.18448  -1327216.33245
                  22277513.6254                                   22277509.9924
                                                                        48.0004
        32.0004
   1732618.27046   1346228.68043
                  23874450.1414                                   23874446.2854
                                                                        41.2504
        19.7504
   -332740.15248   -225702.55546
                  21772630.7274                                   21772624.8484
                                                                        48.0004
        36.0004
    229495.89547    203141.91445
                  22585207.8674                                   22585205.5984
                                                                        45.2504
        31.5004
    150897.64847    141843.27344
                  23684081.7344                                   23684077.3164
                                                                        45.7504
        28.2504
 09 10 10 23 19  0.0000000  0  8G02G04G12G13G20G23G30G31
  -1513969.26248  -1128341.75846
                  21023882.9924                                   21023877.4964
                                                                        51.5004
        41.5004
     78542.30948     87428.51646
                  20561783.3594                                   20561779.9264
                                                                        53.5004
        41.5004
   1144775.89147    899510.85545
                  23526197.4304                                   23526193.9064
                                                                        47.2504
        32.0004
  -1948922.38347  -1464721.71945
                  22243933.8754                                   22243929.9344
                                                                        47.5004
        32.2504
   1745359.15246   1356156.63743
                  23876874.6484                                   23876870.8054
                                                                        41.7504
        20.0004
   -428801.00448   -300555.18445
                  21754351.0234                                   21754345.3054
                                                                        48.7504
        35.5004
    164400.35947    152418.09845
                  22572820.9844                                   22572818.0824
                                                                        46.0004
        31.2504
     80693.76247     87138.93044
                  23670722.2274                                   23670717.7734
                                                                        45.0004
        28.2504
 09 10 10 23 19 30.0000000  0  8G02G04G12G13G20G23G30G31
  -1667292.88748  -1247814.70746
                  20994706.3674                                   20994700.9064
                                                                        50.0004
        41.5004
      8868.57848     33137.31346
                  20548525.1024                                   20548521.6334
                                                                        53.0004
        41.7504
   1129011.05947    887226.54345
                  23523198.1724                                   23523194.6334
                                                                        47.0004
        31.7504
  -2124686.44948  -1601680.75045
                  22210487.1334                                   22210483.1804
                                                                        48.0004
        31.7504
   1758512.15246   1366405.71143
                  23879378.1254                                   23879373.9304
                                                                        41.0004
        20.2504
   -524003.06647   -374738.62945
                  21736234.7664                                   21736228.9454
                                                                        47.7504
        35.5004
    100178.54747    102375.13745
                  22560599.7814                                   22560597.2344
                                                                        45.5004
        31.5004
     11293.63747     33060.90644
                  23657515.3204                                   23657511.3794
                                                                        45.0004
        28.0004
 09 10 10 23 20  0.0000000  0  8G02G04G12G13G20G23G30G31
  -1819935.84848  -1366757.25846
                  20965659.2114                                   20965653.8794
                                                                        51.0004
        41.5004
    -60036.72748    -20555.13746
                  20535412.7034                                   20535409.5474
                                                                        52.5004
        41.7504
   1113868.11347    875426.81645
                  23520316.6334                                   23520312.3204
                                                                        46.5004
        32.0004
  -2299752.28548  -1738095.70345
                  22177173.0084                                   22177168.8364
                                                                        48.0004
        31.7504
   1772069.21146   1376969.66843
                  23881958.0164                                   23881953.4774
                                                                        40.7504
        20.5004
   -618351.87148   -448257.17245
                  21718280.8754                                   21718274.7504
                                                                        48.2504
        35.7504
     36822.52747     53006.78945
                  22548543.6094                                   22548540.5514
                                                                        47.0004
        30.7504
    -57309.95747    -20396.44544
                  23644460.4534                                   23644456.7664
                                                                        44.0004
        26.7504
 09 10 10 23 20 30.0000000  0  8G02G04G12G13G20G23G30G31
  -1971909.96548  -1485178.61346
                  20936739.6804                                   20936733.8674
                                                                        51.0004
        41.5004
   -128188.04348    -73660.05947
                  20522443.9064                                   20522441.0634
                                                                        53.0004
        42.5004
   1099330.73047    864098.98445
                  23517550.0634                                   23517546.1954
                                                                        47.2504
        32.5004
  -2474131.06248  -1873975.28545
                  22143989.5554                                   22143985.6254
                                                                        48.7504
        32.0004
   1786014.12946   1387835.80543
                  23884611.4384                                   23884607.5354
                                                                        39.7504
        21.0004
   -711861.83247   -521122.07445
                  21700486.8984                                   21700480.7584
                                                                        47.7504
        35.5004
    -25682.84847      4301.27345
                  22536649.0634                                   22536646.5984
                                                                        45.7504
        30.2504
   -125131.48847    -73244.39144
                  23631555.2274                                   23631550.8364
                                                                        44.5004
        27.7504
 09 10 10 23 21  0.0000000  0  8G02G04G12G13G20G23G30G31
  -2123216.21148  -1603079.55146
                  20907946.9454                                   20907941.7774
                                                                        51.7504
        41.5004
   -195588.58248   -126179.94147
                  20509617.9144                                   20509614.7384
                                                                        53.0004
        42.0004
   1085393.43047    853238.75845
                  23514898.1024                                   23514894.0354
                                                                        46.7504
        31.2504
  -2647822.43748  -2009319.21145
                  22110937.4844                                   22110933.4734
                                                                        48.7504
        32.2504
   1800342.23046   1399000.53143
                  23887337.3054                                   23887333.9264
                                                                        38.7504
        19.5004
   -804535.67648   -593335.46945
                  21682851.0234                                   21682845.2854
                                                                        49.0004
        35.2504
    -87341.33647    -43744.32445
                  22524915.9694                                   22524912.7544
                                                                        45.7504
        30.5004
   -192174.75047   -125485.88744
                  23618796.4844                                   23618792.5394
                                                                        44.0004
        27.0004
 09 10 10 23 21 30.0000000  0  8G02G04G12G13G20G23G30G31
  -2273861.14848  -1720465.21146
                  20879280.3984                                   20879274.8164
                                                                        52.0004
        41.5004
   -262247.71948   -178122.11347
                  20496933.0784                                   20496929.9614
                                                                        53.0004
        42.0004
   1072045.53547    842837.80145
                  23512357.8914                                   23512354.5354
                                                                        46.5004
        32.0004
  -2820832.55948  -2144132.28145
                  22078014.7504                                   22078010.7344
                                                                        48.5004
        32.2504
   1815042.64546   1410455.44143
                  23890134.9224                                   23890130.8594
                                                                        40.2504
        21.2504
   -896381.62148   -664903.73845
                  21665373.5634                                   21665367.4614
                                                                        49.2504
        35.5004
   -148162.62547    -91137.53945
                  22513342.0634                                   22513339.3914
                                                                        45.5004
        30.7504
   -258449.22347   -177128.34844
                  23606185.1334                                   23606181.3364
                                                                        43.0004
        26.7504
 09 10 10 23 22  0.0000000  0  8G02G04G12G13G20G23G30G31
  -2423848.37548  -1837338.32846
                  20850738.6564                                   20850733.1454
                                                                        51.2504
        41.5004
   -328171.42648   -229491.20347
                  20484388.2584                                   20484385.4064
                                                                        52.2504
        42.0004
   1059278.52747    832889.47745
                  23509928.5314                                   23509924.8244
                                                                        46.5004
        32.0004
  -2993163.70748  -2278416.25845
                  22045220.9534                                   22045217.1764
                                                                        48.5004
        31.5004
   1830107.97746   1422194.61343
                  23893002.8054                                   23892998.2114
                                                                        40.7504
        21.7504
   -987404.96548   -735831.00445
                  21648052.1094                                   21648046.0554
                                                                        48.0004
        35.0004
   -208154.09847   -137884.16845
                  22501926.1174                                   22501923.4264
                                                                        45.5004
        30.5004
   -323961.18447   -228176.66044
                  23593718.6334                                   23593714.3244
                                                                        44.7504
        27.2504
 09 10 10 23 22 30.0000000  0  8G02G04G12G13G20G23G30G31
   -997751.60248   -726094.02746
                  21122115.8204                                   21122110.7034
                                                                        51.5004
        41.5004
   1182060.68848    947313.02346
                  20771775.9384                                   20771772.8594
                                                                        53.0004
        41.5004
   2622509.95747   2050991.84045
                  23807401.1414                                   23807398.0204
                                                                        45.7504
        31.7504
  -1589388.52048  -1184565.41845
                  22312350.9304                                   22312347.0234
                                                                        48.7504
        32.7504
   3420954.98046   2661815.62143
                  24195729.2344                                   24195726.1174
                                                                        38.5004
        20.7504
    497816.45748    421484.39845
                  21930680.5864                                   21930674.3164
                                                                        48.5004
        34.7504
   1308104.74247   1043616.23445
                  22790460.4614                                   22790457.5474
                                                                        45.2504
        30.5004
   1186710.34847    948970.01644
                  23881190.1174                                   23881185.5864
                                                                        44.0004
        26.5004
 09 10 10 23 23  0.0000000  0  8G02G04G12G13G20G23G30G31
  -1146425.10948   -841943.48046
                  21093824.1884                                   21093818.7154
                                                                        52.5004
        41.5004
   1117598.42248    897082.70346
                  20759509.1804                                   20759505.7034
                                                                        52.5004
        41.2504
   2610890.49247   2041937.69544
                  23805190.2274                                   23805186.7894
                                                                        45.0004
        29.7504
  -1760361.08648  -1317790.78145
                  22279815.7974                                   22279811.9414
                                                                        49.5004
        33.0004
   3436736.97746   2674113.19143
                  24198733.0554                                   24198729.5164
                                                                        39.7504
        19.7504
    408431.33648    351833.65645
                  21913671.1414                                   21913665.2584
                                                                        49.7504
        35.0004
   1249762.84847    998155.00044
                  22779357.9924                                   22779355.4384
                                                                        45.2504
        29.2504
   1122714.08647    899102.79744
                  23869011.8054                                   23869007.2664
                                                                        43.5004
        26.0004
 09 10 10 23 23 30.0000000  0  8G02G04G12G13G20G23G30G31
  -1294449.17648   -957286.87946
                  21065656.2194                                   21065650.6884
                                                                        52.2504
        41.2504
   1053855.70748    847413.07447
                  20747379.4774                                   20747376.5354
                                                                        52.2504
        42.2504
   2599830.56347   2033319.56645
                  23803085.8204                                   23803081.7074
                                                                        46.0004
        30.2504
  -1930660.40648  -1450491.52345
                  22247409.1094                                   22247405.1724
                                                                        49.0004
        33.7504
   3452864.00446   2686679.72743
                  24201802.4224                                   24201798.3594
                                                                        41.2504
        20.0004
    319854.75848    282812.95745
                  21896815.5634                                   21896809.2384
                                                                        49.5004
        35.7504
   1192233.41447    953326.87945
                  22768410.6254                                   22768407.7424
                                                                        45.7504
        30.5004
   1059463.51247    849816.63344
                  23856975.6804                                   23856971.6024
                                                                        43.5004
        27.2504
 09 10 10 23 24  0.0000000  0  8G02G04G12G13G20G23G30G31
  -1441830.03148  -1072129.08247
                  21037610.0474                                   21037604.5904
                                                                        52.2504
        42.0004
    990823.34448    798296.97346
                  20735384.5474                                   20735381.3404
                                                                        52.7504
        41.7504
   2589319.50847   2025129.14145
                  23801085.5234                                   23801081.5004
                                                                        46.0004
        30.5004
  -2100292.02348  -1582672.02045
                  22215129.2194                                   22215125.6024
                                                                        49.0004
        33.5004
   3469325.48046   2699506.83643
                  24204934.7194                                   24204930.8054
                                                                        40.7504
        21.0004
    232078.52048    214415.88745
                  21880112.1334                                   21880106.1954
                                                                        49.5004
        35.2504
   1135506.88347    909124.42244
                  22757616.0394                                   22757612.8524
                                                                        45.0004
        29.2504
    996949.57447    801104.46944
                  23845079.5234                                   23845075.8524
                                                                        42.5004
        28.0004
 09 10 10 23 24 30.0000000  0  8G02G04G12G13G20G23G30G31
  -1588569.06248  -1186471.18747
                  21009686.6414                                   21009681.1374
                                                                        52.5004
        42.0004
    928497.94548    749731.71946
                  20723524.4774                                   20723521.1804
                                                                        52.5004
        41.5004
   2579351.96147   2017362.23445
                  23799188.8834                                   23799184.4924
                                                                        45.5004
        30.2504
  -2269256.01648  -1714332.26245
                  22182976.1954                                   22182972.3364
                                                                        48.7504
        32.2504
   3486116.73046   2712590.92243
                  24208129.8364                                   24208126.4574
                                                                        40.2504
        21.5004
    145099.93448    146640.37945
                  21863561.2344                                   21863555.1994
                                                                        49.5004
        35.2504
   1079578.86747    865544.18044
                  22746973.6334                                   22746970.1844
                                                                        45.7504
        29.7504
    935168.62147    752963.47344
                  23833322.9534                                   23833319.1174
                                                                        43.2504
        27.0004
 09 10 10 23 25  0.0000000  0  8G02G04G12G13G20G23G30G31
  -1734671.31648  -1300317.09047
                  20981884.0314                                   20981879.1484
                                                                        52.5004
        42.0004
    866871.37948    701711.01646
                  20711797.4454                                   20711794.1644
                                                                        52.7504
        41.5004
   2569917.84847   2010010.95744
                  23797393.6414                                   23797389.6844
                                                                        46.2504
        29.7504
  -2437557.11748  -1845475.98845
                  22150949.5164                                   22150945.4384
                                                                        48.5004
        32.5004
   3503228.09046   2725924.38343
                  24211385.4534                                   24211382.8984
                                                                        38.7504
        19.2504
     58911.44148     79480.52345
                  21847160.2274                                   21847153.4304
                                                                        49.7504
        35.0004
   1024440.69947    822579.35544
                  22736480.7194                                   22736477.4804
                                                                        45.7504
        29.7504
    874112.12547    705386.98444
                  23821704.6724                                   23821700.6334
                                                                        42.5004
        27.7504
 09 10 10 23 25 30.0000000  0  8G02G04G12G13G20G23G30G31
  -1880140.19148  -1413669.44947
                  20954202.5554                                   20954197.1564
                                                                        51.5004
        42.5004
    805937.81648    654230.32046
                  20700202.0394                                   20700198.9454
                                                                        52.5004
        41.7504
   2561009.11347   2003069.06645
                  23795698.5164                                   23795694.6214
                                                                        45.5004
        30.5004
  -2605197.36348  -1976104.70745
                  22119048.5864                                   22119045.0474
                                                                        48.5004
        33.0004
   3520652.56646   2739501.87543
                  24214702.1954                                   24214698.9654
                                                                        40.5004
        20.7504
    -26492.23448     12932.20345
                  21830907.6254                                   21830901.7274
                                                                        49.7504
        34.7504
    970085.39147    780224.57044
                  22726137.6414                                   22726134.4024
                                                                        44.7504
        29.5004
    813773.98447    658370.25044
                  23810222.5164                                   23810218.5594
                                                                        42.5004
        27.5004
 09 10 10 23 26  0.0000000  0  8G02G04G12G13G20G23G30G31
  -2024979.31648  -1526531.09447
                  20926640.5704                                   20926635.0474
                                                                        52.5004
        42.5004
    745691.59048    607285.24247
                  20688737.7194                                   20688734.3554
                                                                        52.7504
        42.0004
   2552618.68847   1996531.05544
                  23794101.4694                                   23794097.9224
                                                                        45.2504
        29.5004
  -2772179.36348  -2106220.52345
                  22087273.0634                                   22087268.9414
                                                                        49.5004
        33.5004
   3538382.93846   2753317.70743
                  24218075.9614                                   24218072.2974
                                                                        40.0004
        19.5004
   -111116.21148    -53008.53945
                  21814804.1564                                   21814798.6644
                                                                        50.0004
        34.7504
    916506.70747    738474.95344
                  22715941.9224                                   22715938.8204
                                                                        46.0004
        29.5004
    754148.07446    611908.50444
                  23798876.1174                                   23798871.7114
                                                                        40.7504
        28.5004
 09 10 10 23 26 30.0000000  0  8G02G04G12G13G20G23G30G31
  -2169191.49248  -1638904.21546
                  20899198.2584                                   20899192.5904
                                                                        53.0004
        41.7504
    686126.85948    560871.14846
                  20677402.6484                                   20677399.3674
                                                                        52.5004
        41.5004
   2544738.95347   1990391.03145
                  23792601.9844                                   23792598.6764
                                                                        45.5004
        31.0004
  -2938505.47748  -2235825.29745
                  22055622.1174                                   22055618.2344
                                                                        49.5004
        33.5004
   3556412.74646   2767366.94543
                  24221506.7814                                   24221503.1604
                                                                        38.5004
        18.2504
   -194965.48848   -118345.63745
                  21798848.5864                                   21798842.4184
                                                                        50.2504
        34.7504
    863698.10547    697325.36744
                  22705892.5314                                   22705889.6334
                                                                        46.0004
        29.2504
    695228.43847    565997.09044
                  23787664.1484                                   23787660.3444
                                                                        42.2504
        28.2504
 09 10 10 23 27  0.0000000  0  8G02G04G12G13G20G23G30G31
  -2312782.12148  -1750793.01246
                  20871873.3284                                   20871867.9344
                                                                        52.2504
        41.7504
    627236.06348    514982.21146
                  20666196.0704                                   20666193.3094
                                                                        53.5004
        41.5004
   2537359.91047   1984641.08245
                  23791197.5704                                   23791194.5664
                                                                        45.2504
        31.2504
  -3104179.80148  -2364922.15645
                  22024095.1484                                   22024091.5594
                                                                        49.0004
        33.7504
   3574732.62946   2781642.16043
                  24224993.9694                                   24224989.0864
                                                                        40.2504
        20.0004
   -278047.53548   -183084.89845
                  21783038.3364                                   21783032.3594
                                                                        49.7504
        34.7504
    811651.34047    656769.42245
                  22695988.5634                                   22695985.8594
                                                                        46.2504
        30.5004
    637006.99247    520629.73044
                  23776584.4064                                   23776580.9694
                                                                        43.2504
        27.5004
 09 10 10 23 27 30.0000000  0  8G02G04G12G13G20G23G30G31
  -2455751.56248  -1862197.79347
                  20844667.2424                                   20844661.9384
                                                                        51.7504
        42.2504
    569015.92248    469615.87546
                  20655117.3444                                   20655114.3324
                                                                        53.2504
        41.5004
   2530476.87547   1979277.65645
                  23789887.8444                                   23789884.8914
                                                                        45.2504
        30.2504
  -3269202.35248  -2493511.16445
                  21992692.6804                                   21992688.9264
                                                                        48.5004
        33.5004
   3593337.91446   2796139.77743
                  24228534.4224                                   24228530.1604
                                                                        41.2504
        20.5004
   -360364.81248   -247228.23445
                  21767373.7194                                   21767367.9384
                                                                        48.5004
        34.7504
    760362.56347    616804.11344
                  22686228.5234                                   22686225.3794
                                                                        45.0004
        29.0004
    579480.50047    475803.89844
                  23765638.1954                                   23765633.7234
                                                                        43.5004
        27.5004
 09 10 10 23 28  0.0000000  0  8G02G04G12G13G20G23G30G31
  -2598100.66848  -1973119.21147
                  20817579.3754                                   20817574.1564
                                                                        52.5004
        42.5004
    511462.88348    424769.34846
                  20644165.4144                                   20644162.2814
                                                                        53.0004
        41.7504
   2524084.62947   1974296.67244
                  23788671.8134                                   23788668.1764
                                                                        45.0004
        29.7504
  -3433572.53548  -2621591.76645
                  21961413.9224                                   21961409.9964
                                                                        49.5004
        33.5004
   3612224.41846   2810856.57843
                  24232127.5474                                   24232123.8794
                                                                        39.7504
        19.7504
   -441919.93748   -310777.68045
                  21751854.4924                                   21751848.8284
                                                                        50.2504
        35.2504
    709827.19147    577425.87544
                  22676612.3674                                   22676609.0704
                                                                        45.5004
        29.7504
    522644.88747    431516.39844
                  23754822.5944                                   23754819.0984
                                                                        43.0004
        28.2504
 09 10 10 23 28 30.0000000  0  8G02G04G12G13G20G23G30G31
  -2739833.25848  -2083560.16447
                  20790608.4384                                   20790603.1724
                                                                        52.0004
        42.5004
    454570.25848    380437.44146
                  20633339.0704                                   20633336.0164
                                                                        53.5004
        41.5004
   2518174.71147   1969691.54345
                  23787547.2274                                   23787543.0824
                                                                        46.0004
        30.2504
  -3597294.11348  -2749167.03545
                  21930258.5314                                   21930255.1334
                                                                        49.2504
        34.0004
   3631383.93446   2825786.02043
                  24235773.4144                                   24235769.9654
                                                                        39.5004
        19.0004
   -522718.96548   -373737.97745
                  21736479.1414                                   21736473.3484
                                                                        49.0004
        35.7504
    660037.97747    538629.09444
                  22667137.4774                                   22667134.7814
                                                                        43.7504
        29.7504
    466493.11747    387761.75044
                  23744137.4774                                   23744133.4614
                                                                        43.7504
        28.2504
 09 10 10 23 29  0.0000000  0  8G02G04G12G13G20G23G30G31
  -2880951.24248  -2193522.23847
                  20763754.7194                                   20763749.0434
                                                                        52.0004
        42.0004
    398334.34448    336617.25846
                  20622637.6724                                   20622634.8714
                                                                        53.2504
        41.2504
   2512741.36747   1965457.77745
                  23786513.2424                                   23786509.0984
                                                                        46.0004
        30.2504
  -3760367.47748  -2876237.14845
                  21899227.0704                                   21899222.7854
                                                                        49.7504
        33.7504
   3650811.60546   2840924.47343
                  24239470.4224                                   24239466.9494
                                                                        39.2504
        19.7504
   -602765.52748   -436111.94145
                  21721246.7344                                   21721241.0314
                                                                        49.5004
        35.2504
    610990.26247    500410.14844
                  22657803.4614                                   22657800.9534
                                                                        44.2504
        29.7504
    411021.02747    344536.72344
                  23733581.0784                                   23733577.0864
                                                                        43.7504
        28.5004
 09 10 10 23 29 30.0000000  0  7G02G04G12G13G23G30G31
  -3021457.28548  -2303007.49647
                  20737017.1884                                   20737011.5434
                                                                        52.0004
        42.5004
    342749.23848    293304.18446
                  20612060.0394                                   20612057.2344
                                                                        52.5004
        41.5004
   2507776.89847   1961589.35245
                  23785569.5084                                   23785564.3984
                                                                        45.7504
        30.2504
  -3922794.98848  -3002804.07045
                  21868317.9614                                   21868314.6054
                                                                        49.0004
        34.0004
   -682064.59048   -497903.43045
                  21706156.7194                                   21706150.7424
                                                                        49.5004
        35.0004
    562677.62547    462763.90645
                  22648610.3594                                   22648607.4964
                                                                        45.0004
        30.0004
    356222.69947    301836.71944
                  23723153.0784                                   23723149.3524
                                                                        44.5004
        28.5004
 09 10 10 23 30  0.0000000  0  7G02G04G12G13G23G30G31
  -3161352.32448  -2412016.61346
                  20710396.0784                                   20710390.7384
                                                                        51.7504
        41.7504
    287811.80948    250495.80546
                  20601606.0234                                   20601603.1644
                                                                        53.0004
        41.5004
   2503276.19147   1958082.28544
                  23784712.2894                                   23784708.1254
                                                                        44.7504
        29.2504
  -4084575.94548  -3128867.13745
                  21837532.3754                                   21837528.3284
                                                                        49.2504
        33.7504
   -760619.19148   -559114.83245
                  21691208.3674                                   21691202.2704
                                                                        48.7504
        35.5004
    515095.70347    425687.09845
                  22639555.4144                                   22639553.0474
                                                                        43.7504
        30.5004
    302094.55947    259658.96144
                  23712853.5634                                   23712848.9414
                                                                        43.0004
        28.2504
 09 10 10 23 30 30.0000000  0  7G02G04G12G13G23G30G31
  -3300632.11748  -2520546.30947
                  20683892.2034                                   20683886.3134
                                                                        51.5004
        42.7504
    233523.52048    208193.25446
                  20591275.1174                                   20591272.3444
                                                                        52.5004
        41.7504
   2499239.10547   1954936.47744
                  23783943.4064                                   23783939.8524
                                                                        44.0004
        29.0004
  -4245705.61348  -3254422.73045
                  21806870.2974                                   21806866.5124
                                                                        49.0004
        33.7504
   -838427.03948   -619744.34045
                  21676401.7974                                   21676396.1254
                                                                        49.0004
        34.2504
    468245.32847    389180.32044
                  22630640.4924                                   22630637.8324
                                                                        43.5004
        29.7504
    248637.36747    218004.03944
                  23702680.7734                                   23702676.7504
                                                                        42.5004
        28.2504
 09 10 10 23 31  0.0000000  0  8G02G04G12G13G29G23G30G31
  -1863871.96948  -1400992.96547
                  20957298.3204                                   20957292.9104
                                                                        51.5004
        42.5004
   1755303.38348   1393995.73847
                  20880860.2894                                   20880857.4964
                                                                        53.0004
        42.0004
   4071081.62147   3179748.79744
                  24083055.2894                                   24083051.9654
                                                                        43.5004
        29.0004
  -2830757.90248  -2151866.06645
                  22076125.3364                                   22076121.8134
                                                                        49.5004
        32.7504
   4486315.27056   3542363.14854
                  24544888.3674                                   24544886.0474
                                                                        41.0004
        25.0004
    659932.24648    547808.34845
                  21961530.2344                                   21961524.4024
                                                                        48.2504
        34.7504
   1997544.94547   1580842.37545
                  22921656.6024                                   22921654.6374
                                                                        44.0004
        30.0004
   1771270.34447   1404471.28944
                  23992428.0394                                   23992424.3634
                                                                        44.5004
        28.2504
 09 10 10 23 31 30.0000000  0  8G02G04G12G13G29G23G30G31
  -2001923.39548  -1508565.53547
                  20931028.0944                                   20931022.5044
                                                                        52.0004
        42.2504
   1702303.41448   1352697.02746
                  20870774.4304                                   20870771.4104
                                                                        53.0004
        41.5004
   4067956.63747   3177313.67644
                  24082460.9064                                   24082457.9104
                                                                        44.0004
        29.0004
  -2990584.73448  -2276406.46545
                  22045712.0944                                   22045708.1804
                                                                        50.0004
        34.0004
   4292146.77746   3391063.05544
                  24507939.9844                                   24507937.0354
                                                                        41.7504
        27.7504
    583609.82448    488336.28545
                  21947006.4844                                   21947000.9694
                                                                        49.5004
        35.7504
   1952145.47347   1545466.18045
                  22913017.6334                                   22913014.8794
                                                                        45.2504
        30.2504
   1719144.75047   1363853.95744
                  23982508.5864                                   23982504.3914
                                                                        44.0004
        27.2504
 09 10 10 23 32  0.0000000  0  8G02G04G12G13G29G23G30G31
  -2139376.93748  -1615672.16447
                  20904871.7034                                   20904866.0394
                                                                        51.0004
        42.0004
   1649926.96948   1311884.21146
                  20860807.6024                                   20860804.2774
                                                                        53.0004
        41.5004
   4065264.87947   3175216.15645
                  24081948.4304                                   24081944.9264
                                                                        43.2504
        30.0004
  -3149775.48048  -2400451.15245
                  22015418.5864                                   22015414.8364
                                                                        49.7504
        33.0004
   4098303.13346   3240016.09444
                  24471052.9454                                   24471049.9344
                                                                        41.2504
        26.0004
    508009.89848    429427.27045
                  21932620.3204                                   21932614.3674
                                                                        49.0004
        35.5004
   1907449.71547   1510638.32845
                  22904512.1884                                   22904509.7664
                                                                        44.5004
        31.2504
   1667663.75047   1323738.89144
                  23972712.5474                                   23972707.9964
                                                                        43.5004
        27.0004
 09 10 10 23 32 30.0000000  0  8G02G04G12G13G29G23G30G31
  -2276237.09848  -1722316.46547
                  20878827.7894                                   20878822.3674
                                                                        51.5004
        42.2504
   1598167.67648   1271552.30147
                  20850958.0784                                   20850955.0554
                                                                        52.7504
        42.0004
   4062998.02047   3173449.79345
                  24081517.1724                                   24081513.8524
                                                                        45.2504
        30.2504
  -3308333.34448  -2524002.73045
                  21985246.3284                                   21985242.2344
                                                                        49.5004
        33.5004
   3904781.12946   3089219.75044
                  24434225.5474                                   24434223.9534
                                                                        40.0004
        25.7504
    433126.62147    371076.64545
                  21918370.6414                                   21918364.5314
                                                                        47.7504
        34.2504
   1863449.94547   1476352.77045
                  22896139.2034                                   22896136.7194
                                                                        45.5004
        30.5004
   1616820.35247   1284120.66444
                  23963036.8134                                   23963032.9574
                                                                        44.0004
        26.5004
 09 10 10 23 33  0.0000000  0  8G02G04G12G13G29G23G30G31
  -2412502.19548  -1828497.03547
                  20852897.6174                                   20852892.2894
                                                                        51.0004
        42.5004
   1547023.92648   1231699.88346
                  20841226.0944                                   20841222.8094
                                                                        53.5004
        41.7504
   4061152.53947   3172011.70345
                  24081165.9774                                   24081162.8794
                                                                        45.2504
        30.0004
  -3466256.10548  -2647059.41845
                  21955194.6024                                   21955190.5164
                                                                        49.5004
        33.7504
   3711582.85946   2938675.74644
                  24397460.7974                                   24397459.7814
                                                                        38.0004
        24.5004
    358959.24648    313283.85245
                  21904256.9384                                   21904251.3364
                                                                        49.0004
        35.2504
   1820144.46947   1442608.24245
                  22887898.5314                                   22887896.0514
                                                                        46.0004
        30.2504
   1566613.02747   1244998.06344
                  23953482.5394                                   23953478.8594
                                                                        43.5004
        26.2504
 09 10 10 23 33 30.0000000  0  8G02G04G12G13G29G23G30G31
  -2548170.32848  -1934212.49247
                  20827080.9694                                   20827075.4264
                                                                        51.2504
        42.5004
   1496495.37548   1192326.96146
                  20831610.8834                                   20831607.8484
                                                                        52.2504
        41.2504
   4059726.54347   3170900.54745
                  24080894.9064                                   24080891.5354
                                                                        44.7504
        30.5004
  -3623541.18048  -2769619.18045
                  21925264.1414                                   21925260.1914
                                                                        49.5004
        33.5004
   3518711.76246   2788386.66844
                  24360759.2194                                   24360757.6994
                                                                        39.7504
        24.5004
    285507.47348    256048.67645
                  21890279.7664                                   21890273.7384
                                                                        48.5004
        35.0004
   1777531.64847   1409403.44545
                  22879789.7664                                   22879786.7854
                                                                        46.0004
        30.2504
   1517040.69546   1206370.21144
                  23944049.2894                                   23944045.7154
                                                                        40.5004
        26.5004
 09 10 10 23 34  0.0000000  0  8G02G04G12G13G29G23G30G31
  -2683236.85548  -2039459.12947
                  20801378.2344                                   20801373.2034
                                                                        50.5004
        42.2504
   1446583.66848   1153434.56646
                  20822112.9774                                   20822109.9344
                                                                        53.0004
        41.2504
   4058719.88347   3170116.16044
                  24080703.5864                                   24080699.6524
                                                                        45.2504
        29.5004
  -3780183.48848  -2891678.38345
                  21895456.2664                                   21895452.0124
                                                                        49.5004
        33.5004
   3326173.36346   2638356.80944
                  24324120.7344                                   24324118.3204
                                                                        41.7504
        27.0004
    212773.63348    199372.89545
                  21876439.0004                                   21876433.2894
                                                                        48.7504
        35.2504
   1735612.31347   1376739.03945
                  22871812.9144                                   22871809.6374
                                                                        45.5004
        30.5004
   1468104.62946   1168238.20344
                  23934736.3674                                   23934733.3324
                                                                        40.7504
        25.5004
 09 10 10 23 34 30.0000000  0  8G02G04G12G13G29G23G30G31
  -2817705.88348  -2144240.21147
                  20775789.8834                                   20775784.5664
                                                                        51.0004
        42.5004
   1397283.14548   1115018.66447
                  20812731.5634                                   20812728.5944
                                                                        53.2504
        42.0004
   4058124.00847   3169651.83244
                  24080589.6174                                   24080585.9614
                                                                        44.2504
        26.5004
  -3936185.25048  -3013238.38345
                  21865770.1334                                   21865766.3444
                                                                        50.0004
        34.2504
   3133964.39847   2488583.58644
                  24287545.0944                                   24287541.6524
                                                                        43.7504
        26.0004
    140752.10947    143252.23845
                  21862733.5704                                   21862727.5904
                                                                        47.5004
        34.5004
   1694379.00447   1344609.22745
                  22863966.0394                                   22863962.8094
                                                                        45.5004
        30.0004
   1419798.25447   1130596.84044
                  23925544.7114                                   23925541.0664
                                                                        42.7504
        25.2504
 09 10 10 23 35  0.0000000  0  8G02G04G12G13G29G23G30G31
  -2951577.52348  -2248555.79346
                  20750314.9384                                   20750309.4304
                                                                        51.5004
        41.7504
   1348589.83648   1077075.82446
                  20803465.3834                                   20803462.3324
                                                                        53.0004
        41.2504
   4057935.04747   3169504.55544
                  24080553.3754                                   24080550.0474
                                                                        43.5004
        27.0004
  -4091546.43048  -3134299.11745
                  21836206.2034                                   21836202.3834
                                                                        48.7504
        34.0004
   2942086.57847   2339068.41044
                  24251031.6954                                   24251028.5514
                                                                        43.2504
        26.5004
     69440.34448     87684.62145
                  21849163.4694                                   21849157.5314
                                                                        48.5004
        34.7504
   1653828.33647   1313011.28545
                  22856249.5164                                   22856246.3714
                                                                        45.0004
        30.0004
   1372118.24247   1093443.59044
                  23916471.8204                                   23916467.7074
                                                                        43.0004
        24.5004
 09 10 10 23 35 30.0000000  0  9G02G04G12G13G29G10G23G30G31
  -3084855.66048  -2352408.90247
                  20724952.7664                                   20724947.2774
                                                                        51.2504
        42.2504
   1300497.65648   1039601.37946
                  20794313.8914                                   20794310.9924
                                                                        53.0004
        41.7504
   4058144.50447   3169667.74244
                  24080592.9924                                   24080589.5354
                                                                        43.7504
        26.5004
  -4246269.85948  -3254862.74645
                  21806763.1564                                   21806759.1724
                                                                        49.0004
        34.2504
   2750536.55946   2189808.65244
                  24214580.8204                                   24214578.2194
                                                                        40.7504
        25.2504
   4467524.24257   3503005.09454
                  24123983.5394                                   24123981.1294
                                                                        42.2504
        25.5004
     -1168.12948     32665.00045
                  21835726.9844                                   21835721.2074
                                                                        48.0004
        34.2504
   1613952.57047   1281939.20344
                  22848661.1174                                   22848658.1484
                                                                        44.0004
        28.2504
   1325057.86347   1056773.18044
                  23907516.6254                                   23907512.1294
                                                                        42.5004
        25.7504
 09 10 10 23 36  0.0000000  0  9G02G04G12G13G29G10G23G30G31
  -3217538.77748  -2455798.36347
                  20699704.1564                                   20699698.8054
                                                                        51.7504
        42.2504
   1253005.89548   1002594.85546
                  20785276.3834                                   20785273.6294
                                                                        53.5004
        41.5004
   4058749.32847   3170139.02744
                  24080708.6804                                   24080705.1094
                                                                        45.0004
        29.0004
  -4400353.05948  -3374927.51645
                  21777442.0704                                   21777438.4414
                                                                        49.5004
        34.2504
   2559316.26246   2040805.90244
                  24178191.7504                                   24178190.4614
                                                                        39.0004
        24.2504
   4257875.87147   3339642.81644
                  24084088.9304                                   24084086.7894
                                                                        42.0004
        26.0004
    -71073.52048    -21806.72745
                  21822424.3364                                   21822419.0594
                                                                        48.5004
        34.5004
   1574749.32847   1251391.22744
                  22841201.2584                                   22841198.2774
                                                                        44.7504
        29.5004
   1278615.22347   1020584.12144
                  23898678.7814                                   23898674.8714
                                                                        42.5004
        25.7504
 09 10 10 23 36 30.0000000  0  9G02G04G12G13G29G10G23G30G31
  -3349636.57448  -2558731.71947
                  20674566.8524                                   20674561.4144
                                                                        51.5004
        42.5004
   1206101.39848    966045.93846
                  20776350.5864                                   20776347.3834
                                                                        53.5004
        41.5004
   4059735.98047   3170907.83244
                  24080897.1174                                   24080893.0554
                                                                        45.0004
        29.2504
  -4553805.82048  -3494501.00045
                  21748241.0474                                   21748236.9144
                                                                        49.5004
        34.7504
   2368417.79746   1892053.97344
                  24141865.0164                                   24141863.7504
                                                                        40.0004
        26.5004
   4048436.43847   3176443.32444
                  24044234.0474                                   24044230.8634
                                                                        43.2504
        24.0004
   -140288.58648    -75740.52045
                  21809253.5474                                   21809247.9064
                                                                        48.7504
        34.5004
   1536206.01247   1221357.49644
                  22833866.0944                                   22833863.8054
                                                                        44.5004
        28.7504
   1232777.37147    984866.31644
                  23889956.3364                                   23889952.1994
                                                                        43.0004
        26.0004
 09 10 10 23 37  0.0000000  0  9G02G04G12G13G29G10G23G30G31
  -3481144.45748  -2661205.38347
                  20649541.5554                                   20649536.4144
                                                                        51.5004
        42.7504
   1159786.89848    929956.77346
                  20767537.3284                                   20767534.1294
                                                                        53.0004
        41.7504
   4061104.44147   3171974.13345
                  24081156.9454                                   24081153.8874
                                                                        45.0004
        30.0004
  -4706621.64848  -3613578.13345
                  21719161.0084                                   21719156.9534
                                                                        49.0004
        35.0004
   2177846.92646   1743557.28544
                  24105601.0554                                   24105599.1844
                                                                        41.0004
        27.7504
   3839211.27747   3013410.77744
                  24004419.7504                                   24004416.4064
                                                                        44.0004
        25.7504
   -208810.08648   -129133.89145
                  21796214.0864                                   21796208.5084
                                                                        49.7504
        34.7504
   1498323.43047   1191838.61344
                  22826657.4844                                   22826654.9224
                                                                        45.0004
        28.5004
   1187546.48847    949621.48044
                  23881348.8914                                   23881345.0864
                                                                        42.2504
        26.7504
 09 10 10 23 37 30.0000000  0  9G02G04G12G13G29G10G23G30G31
  -3612058.25048  -2763216.09447
                  20624629.6334                                   20624624.4454
                                                                        51.5004
        42.7504
   1114063.24648    894328.04746
                  20758836.2504                                   20758833.2194
                                                                        53.0004
        41.5004
   4062854.63747   3173337.86745
                  24081490.2664                                   24081487.2934
                                                                        45.5004
        30.2504
  -4858796.88348  -3732156.10245
                  21690202.8594                                   21690198.8404
                                                                        48.7504
        35.0004
   1987608.79747   1595319.84044
                  24069400.5004                                   24069397.6564
                                                                        42.2504
        28.2504
   3630205.27047   2850548.97744
                  23964646.8594                                   23964643.6914
                                                                        43.0004
        24.5004
   -276636.73448   -181985.82045
                  21783307.0634                                   21783301.2664
                                                                        48.0004
        35.5004
   1461102.32847   1162835.16444
                  22819574.4844                                   22819571.6804
                                                                        45.2504
        28.5004
   1142923.27047    914850.13744
                  23872857.4774                                   23872853.3054
                                                                        43.0004
        27.5004
 09 10 10 23 38  0.0000000  0  9G02G04G12G13G29G10G23G30G31
  -3742376.55948  -2864762.85547
                  20599830.8524                                   20599825.4064
                                                                        51.5004
        42.5004
   1068929.84048    859159.17246
                  20750247.5864                                   20750244.3404
                                                                        53.2504
        41.0004
   4064983.93847   3174997.08245
                  24081895.8444                                   24081892.4064
                                                                        45.5004
        30.0004
  -5010328.39148  -3850232.56245
                  21661366.9614                                   21661363.2544
                                                                        48.7504
        35.0004
   1797706.34847   1447343.96144
                  24033262.8984                                   24033260.3054
                                                                        43.5004
        26.5004
   3421420.73447   2687859.79344
                  23924917.0704                                   23924914.0394
                                                                        42.5004
        26.0004
   -343768.43748   -234296.21145
                  21770532.6884                                   21770526.6764
                                                                        48.5004
        34.7504
   1424540.67647   1134345.58244
                  22812617.4304                                   22812614.8014
                                                                        45.2504
        29.5004
   1098906.37147    880551.23444
                  23864481.2504                                   23864477.5274
                                                                        42.0004
        25.7504
 09 10 10 23 38 30.0000000  0  9G02G04G12G13G29G10G23G30G31
  -3872097.75048  -2965844.30947
                  20575145.6254                                   20575140.3594
                                                                        51.7504
        43.0004
   1024385.11748    824449.00846
                  20741771.2504                                   20741768.3554
                                                                        53.0004
        41.7504
   4067489.30947   3176949.35544
                  24082371.8914                                   24082368.9574
                                                                        44.2504
        29.7504
  -5161214.42248  -3967806.04345
                  21632654.3914                                   21632650.9534
                                                                        49.2504
        34.5004
   1608141.58647   1299631.16844
                  23997190.1024                                   23997187.0124
                                                                        43.0004
        27.0004
   3212860.05546   2525345.10544
                  23885228.4304                                   23885226.3204
                                                                        40.7504
        25.5004
   -410206.87548   -286066.40645
                  21757889.8204                                   21757883.6724
                                                                        49.2504
        34.5004
   1388635.99647   1106367.91844
                  22805784.7664                                   22805782.4304
                                                                        45.2504
        29.5004
   1055493.79347    846723.24644
                  23856220.2664                                   23856216.4184
                                                                        43.0004
        28.5004
 09 10 10 23 39  0.0000000  0  9G02G04G12G13G29G10G23G30G31
  -4001218.14548  -3066457.60947
                  20550575.3674                                   20550569.4494
                                                                        51.7504
        43.0004
    980430.13748    790198.35246
                  20733407.1564                                   20733403.8914
                                                                        53.0004
        41.2504
   4070370.05146   3179194.05144
                  24082919.2974                                   24082917.0704
                                                                        41.0004
        27.7504
  -5311450.46548  -4084873.09045
                  21604065.6954                                   21604061.8594
                                                                        48.7504
        34.5004
   1418919.48846   1152185.40644
                  23961181.4384                                   23961179.1954
                                                                        41.5004
        24.2504
   3004527.12147   2363007.84844
                  23845584.2424                                   23845581.6644
                                                                        42.0004
        26.0004
   -475950.38348   -337295.06645
                  21745378.8134                                   21745373.1214
                                                                        48.2504
        34.5004
   1353388.34847   1078902.23845
                  22799077.7034                                   22799074.8364
                                                                        45.5004
        30.7504
   1012686.46547    813366.87944
                  23848074.1024                                   23848070.3284
                                                                        43.5004
        28.0004
 09 10 10 23 39 30.0000000  0  9G02G04G12G13G29G10G23G30G31
  -2554321.07048  -1939005.36747
                  20825910.4384                                   20825904.8444
                                                                        52.0004
        42.5004
   2512476.50848   1984000.75046
                  21024945.6884                                   21024942.6604
                                                                        52.7504
        41.0004
   5649034.72747   4409322.29744
                  24383329.7894                                   24383326.5084
                                                                        42.5004
        26.5004
  -3885618.18748  -2973834.96545
                  21875392.1254                                   21875388.3364
                                                                        49.0004
        34.7504
   2805460.52046   2232607.03944
                  24225031.8594                                   24225029.3874
                                                                        41.5004
        24.5004
   4371842.66847   3428448.60544
                  24105776.3054                                   24105773.1954
                                                                        43.7504
        28.7504
   1034413.62548    839611.94145
                  22032791.5634                                   22032785.9104
                                                                        49.0004
        35.5004
   2894208.27347   2279541.16445
                  23092286.3204                                   23092283.6844
                                                                        45.7504
        30.7504
   2545894.96947   2008074.80944
                  24139834.5864                                   24139830.6024
                                                                        43.0004
        28.2504
 09 10 10 23 40  0.0000000  0  9G02G04G12G13G29G10G23G30G31
  -2682251.79748  -2038691.61747
                  20801565.8674                                   20801560.2584
                                                                        51.2504
        42.5004
   2469681.42248   1950653.93446
                  21016801.8134                                   21016798.8874
                                                                        52.7504
        41.7504
   5652642.29347   4412133.43844
                  24384016.6884                                   24384013.0124
                                                                        42.7504
        26.7504
  -4034564.07448  -3089896.70345
                  21847048.6644                                   21847045.2774
                                                                        49.0004
        34.5004
   2616916.07847   2085689.36744
                  24189152.8524                                   24189150.8524
                                                                        42.5004
        27.2504
   4163956.99247   3266459.82444
                  24066216.6484                                   24066213.4924
                                                                        43.5004
        26.5004
    970041.16848    789451.57045
                  22020542.1564                                   22020535.9264
                                                                        49.0004
        34.7504
   2860252.74647   2253082.30945
                  23085824.4534                                   23085821.2854
                                                                        45.7504
        30.2504
   2504276.60947   1975644.91044
                  24131914.8054                                   24131910.6214
                                                                        43.2504
        27.7504
 09 10 10 23 40 30.0000000  0  9G02G04G12G13G29G10G23G30G31
  -2809584.46948  -2137911.86347
                  20777335.5314                                   20777329.7544
                                                                        52.0004
        43.0004
   2427465.97348   1917758.76246
                  21008768.5944                                   21008765.4774
                                                                        52.5004
        41.0004
   5656609.74647   4415224.98444
                  24384772.1254                                   24384767.1054
                                                                        44.0004
        26.5004
  -4182859.85948  -3205451.98045
                  21818828.8834                                   21818825.1174
                                                                        49.0004
        34.7504
   2428715.25447   1939039.39544
                  24153339.5634                                   24153336.9844
                                                                        43.0004
        28.0004
   3956299.47747   3104648.81344
                  24026700.3914                                   24026697.4384
                                                                        43.0004
        26.2504
    906354.44948    739825.49645
                  22008423.0164                                   22008417.0274
                                                                        48.7504
        34.2504
   2826940.97347   2227125.08645
                  23079485.3914                                   23079482.8834
                                                                        45.7504
        30.7504
   2463251.66447   1943677.43044
                  24124107.4534                                   24124103.3754
                                                                        43.0004
        26.7504
 09 10 10 23 41  0.0000000  0  9G02G04G12G13G29G10G23G30G31
  -2936319.20348  -2236666.16847
                  20753218.6094                                   20753213.2154
                                                                        51.7504
        42.7504
   2385826.97348   1885312.83646
                  21000844.9614                                   21000841.8324
                                                                        52.2504
        40.7504
   5660932.96147   4418593.73044
                  24385594.9224                                   24385590.8134
                                                                        44.5004
        29.2504
  -4330504.91448  -3320499.81645
                  21790733.3754                                   21790729.0434
                                                                        49.2504
        35.5004
   2240859.35947   1792658.23444
                  24117591.5084                                   24117589.4804
                                                                        42.2504
        26.0004
   3748870.36747   2943015.77344
                  23987227.5394                                   23987224.5234
                                                                        42.0004
        24.0004
    843350.56648    690731.57845
                  21996433.2584                                   21996427.7584
                                                                        48.5004
        34.5004
   2794269.12547   2201666.50045
                  23073268.5864                                   23073265.5634
                                                                        46.5004
        30.5004
   2422816.77347   1912169.70744
                  24116413.3754                                   24116409.6804
                                                                        43.7504
        27.2504
 09 10 10 23 41 30.0000000  0  9G02G04G12G13G29G10G23G30G31
  -3062457.05948  -2334955.43047
                  20729215.2274                                   20729209.5164
                                                                        51.5004
        42.7504
   2344760.07448   1853312.25846
                  20993030.4924                                   20993027.1374
                                                                        53.0004
        41.2504
   5665607.05947   4422235.88744
                  24386483.8984                                   24386480.6294
                                                                        43.5004
        29.0004
  -4477500.48848  -3435041.70745
                  21762760.7034                                   21762756.6454
                                                                        49.5004
        34.5004
   2053348.66046   1646546.08644
                  24081909.1094                                   24081907.6884
                                                                        40.2504
        27.0004
   3541669.89547   2781560.89844
                  23947798.9454                                   23947796.2194
                                                                        42.2504
        25.7504
    781026.34848    642167.16445
                  21984573.5864                                   21984568.0004
                                                                        48.5004
        34.2504
   2762232.60947   2176703.00045
                  23067171.8444                                   23067169.1684
                                                                        46.2504
        31.0004
   2382967.35947   1881118.20744
                  24108829.9614                                   24108826.0704
                                                                        42.0004
        25.7504
 09 10 10 23 42  0.0000000  0  9G02G04G12G13G29G10G23G30G31
  -3187996.93448  -2432778.70747
                  20705325.6954                                   20705320.2774
                                                                        51.0004
        42.5004
   2304264.37148   1821756.73846
                  20985324.6484                                   20985321.3014
                                                                        52.5004
        41.2504
   5670628.60547   4426148.80144
                  24387439.6564                                   24387435.8404
                                                                        44.0004
        29.5004
  -4623846.70348  -3549078.77045
                  21734912.9304                                   21734908.9964
                                                                        50.2504
        35.2504
   1866185.13746   1500704.39544
                  24046293.6564                                   24046291.0084
                                                                        40.7504
        27.7504
   3334700.55146   2620286.12144
                  23908413.3524                                   23908410.8444
                                                                        41.5004
        25.7504
    719380.54348    594131.41445
                  21972843.0394                                   21972837.3634
                                                                        49.5004
        34.2504
   2730828.77047   2152232.52044
                  23061196.1564                                   23061192.9844
                                                                        45.0004
        29.2504
   2343701.56646   1850521.45744
                  24101358.3444                                   24101353.8404
                                                                        41.2504
        26.2504
 09 10 10 23 42 30.0000000  0  9G02G04G12G13G29G10G23G30G31
  -3312940.96548  -2530137.72747
                  20681549.5784                                   20681544.5744
                                                                        52.5004
        42.7504
   2264336.37948   1790644.23846
                  20977726.5784                                   20977723.5824
                                                                        52.0004
        40.7504
   5675991.18047   4430327.41044
                  24388459.5314                                   24388456.2974
                                                                        42.2504
        28.5004
  -4769541.09048  -3662607.16845
                  21707187.9064                                   21707185.6374
                                                                        49.5004
        35.2504
   1679368.37146   1355132.91044
                  24010743.5784                                   24010740.3634
                                                                        41.5004
        27.5004
   3127960.38347   2459189.93844
                  23869072.2114                                   23869070.3914
                                                                        42.7504
        28.2504
    658408.57048    546620.82445
                  21961240.4304                                   21961234.2934
                                                                        50.0004
        34.7504
   2700052.41047   2128250.98044
                  23055339.3134                                   23055335.9184
                                                                        45.0004
        28.5004
   2305014.86746   1820375.97744
                  24093995.8444                                   24093992.1254
                                                                        39.2504
        25.5004
 09 10 10 23 43  0.0000000  0  9G02G04G12G13G29G10G23G30G31
  -3437288.02748  -2627031.54347
                  20657887.6414                                   20657881.9964
                                                                        52.2504
        43.0004
   2224974.07848   1759972.62946
                  20970235.9844                                   20970232.5044
                                                                        52.5004
        40.7504
   5681691.69546   4434769.33644
                  24389544.2504                                   24389541.1844
                                                                        41.0004
        25.7504
  -4914580.87548  -3775624.17245
                  21679587.7034                                   21679583.9534
                                                                        49.5004
        35.2504
   1492900.59446   1209833.31644
                  23975260.0004                                   23975257.2544
                                                                        40.7504
        27.2504
   2921451.81347   2298274.22344
                  23829775.2664                                   23829772.8014
                                                                        44.5004
        29.2504
    598109.56648    499634.52345
                  21949765.8524                                   21949759.6994
                                                                        49.5004
        34.0004
   2669900.57447   2104756.07844
                  23049601.3754                                   23049598.7304
                                                                        44.7504
        27.5004
   2266904.96946   1790679.94144
                  24086744.3914                                   24086740.0744
                                                                        40.0004
        25.2504
 09 10 10 23 43 30.0000000  0  9G02G04G12G13G29G10G23G30G31
  -3561036.78948  -2723459.19547
                  20634338.8444                                   20634333.3634
                                                                        52.0004
        42.5004
   2186174.97348   1729739.77046
                  20962852.3984                                   20962849.5784
                                                                        52.2504
        41.2504
   5687727.41847   4439472.49644
                  24390692.7194                                   24390689.5594
                                                                        42.5004
        26.7504
  -5058969.17248  -3888134.86745
                  21652111.3364                                   21652107.5124
                                                                        49.7504
        35.5004
   1306784.13746   1064807.48844
                  23939842.6884                                   23939840.4224
                                                                        39.7504
        27.5004
   2715177.40647   2137540.99244
                  23790522.5084                                   23790519.9534
                                                                        43.5004
        28.7504
    538482.04748    453171.48845
                  21938419.4924                                   21938413.6174
                                                                        48.5004
        34.0004
   2640370.97347   2081745.99244
                  23043982.1644                                   23043978.6914
                                                                        44.7504
        28.5004
   2229369.59446   1761431.61344
                  24079601.1024                                   24079597.2814
                                                                        41.2504
        25.2504
 09 10 10 23 44  0.0000000  0  9G02G04G12G13G29G10G23G30G31
  -3684188.90248  -2819421.88347
                  20610903.5704                                   20610898.1334
                                                                        52.2504
        42.7504
   2147934.78948   1699942.22746
                  20955575.4224                                   20955572.3794
                                                                        52.5004
        40.7504
   5694092.18847   4444432.01244
                  24391904.4384                                   24391901.0904
                                                                        44.2504
        27.2504
  -5202703.52048  -4000135.55545
                  21624759.5474                                   21624756.0864
                                                                        49.2504
        35.5004
   1121018.98046    920055.47344
                  23904492.9384                                   23904490.7114
                                                                        40.2504
        27.5004
   2509135.87147   1976989.23444
                  23751313.9534                                   23751310.9614
                                                                        42.0004
        29.2504
    479522.29748    407228.79745
                  21927199.8204                                   21927193.8014
                                                                        49.0004
        34.0004
   2611458.20747   2059216.56644
                  23038479.6884                                   23038477.2384
                                                                        43.5004
        27.5004
   2192404.10547   1732627.29344
                  24072567.3134                                   24072563.0234
                                                                        42.2504
        25.0004
 09 10 10 23 44 30.0000000  0  9G02G04G12G13G29G10G23G30G31
  -3806747.62548  -2914922.18447
                  20587581.3594                                   20587576.0824
                                                                        52.0004
        43.0004
   2110248.26248   1670576.07046
                  20948404.0864                                   20948400.9734
                                                                        52.5004
        40.5004
   5700778.93847   4449642.46944
                  24393177.2664                                   24393173.3284
                                                                        45.0004
        27.2504
  -5345787.39848  -4111629.35945
                  21597531.6564                                   21597527.6524
                                                                        49.5004
        34.7504
    935602.63346    775575.19144
                  23869209.5704                                   23869206.9184
                                                                        41.0004
        26.5004
   2303324.99646   1816617.25444
                  23712148.6484                                   23712146.2734
                                                                        40.5004
        27.0004
    421224.30948    361801.76245
                  21916105.3524                                   21916099.5824
                                                                        48.7504
        34.7504
   2583155.21547   2037162.29744
                  23033094.0234                                   23033091.2664
                                                                        44.5004
        28.0004
   2156002.09047   1704262.10244
                  24065640.6414                                   24065635.3554
                                                                        43.0004
        25.7504
 09 10 10 23 45  0.0000000  0  9G02G04G12G13G29G10G23G30G31
  -3928708.38748  -3009956.54347
                  20564372.8914                                   20564368.1724
                                                                        52.0004
        43.0004
   2073116.79348   1641642.26246
                  20941338.1564                                   20941335.4534
                                                                        52.0004
        40.7504
   5707787.91447   4455104.03144
                  24394511.1334                                   24394507.4024
                                                                        44.7504
        26.5004
  -5488215.14848  -4222611.70345
                  21570428.1564                                   21570424.0594
                                                                        49.5004
        35.0004
    750541.71947    631371.89544
                  23833993.6174                                   23833991.0204
                                                                        42.0004
        27.5004
   2097750.57047   1656429.40244
                  23673029.7504                                   23673026.7664
                                                                        42.2504
        26.0004
    363590.64848    316892.41445
                  21905138.3134                                   21905132.6214
                                                                        48.0004
        33.5004
   2555463.11747   2015584.04744
                  23027824.7584                                   23027821.7974
                                                                        44.5004
        28.5004
   2120165.09047   1676337.16844
                  24058821.1484                                   24058816.8404
                                                                        43.0004
        26.5004
 09 10 10 23 45 30.0000000  0  9G02G04G12G13G29G10G23G30G31
  -4050068.44948  -3104522.84047
                  20541279.1334                                   20541273.6844
                                                                        52.0004
        42.7504
   2036540.90648   1613141.47346
                  20934378.2504                                   20934375.2464
                                                                        51.5004
        40.7504
   5715117.95347   4460815.72744
                  24395905.6954                                   24395902.0434
                                                                        42.5004
        26.5004
  -5629985.78548  -4333082.91845
                  21543450.5394                                   21543447.1294
                                                                        49.2504
        35.7504
    565840.16447    487448.64844
                  23798846.4694                                   23798843.3244
                                                                        42.5004
        27.7504
   1892416.15246   1496428.49644
                  23633956.2344                                   23633953.3014
                                                                        41.2504
        27.5004
    306621.21148    272500.67645
                  21894297.7584                                   21894291.5084
                                                                        48.2504
        34.0004
   2528380.77347   1994480.93444
                  23022671.4614                                   23022668.2194
                                                                        45.5004
        28.7504
   2084892.70747   1648852.18844
                  24052109.1954                                   24052104.2274
                                                                        43.5004
        26.5004
 09 10 10 23 46  0.0000000  0  9G02G04G12G13G29G10G23G30G31
  -4170830.66448  -3198623.27047
                  20518298.8754                                   20518293.5124
                                                                        52.0004
        42.5004
   2000515.74648   1585070.02046
                  20927522.6254                                   20927519.9844
                                                                        52.2504
        41.0004
   5722761.93046   4466771.96144
                  24397360.7974                                   24397356.8134
                                                                        41.7504
        26.5004
  -5771097.60548  -4443039.82045
                  21516597.4844                                   21516593.7934
                                                                        49.7504
        35.5004
    381496.12147    343803.94544
                  23763767.1024                                   23763764.4144
                                                                        42.2504
        29.5004
   1687319.71947   1336613.09844
                  23594927.5634                                   23594924.0864
                                                                        43.5004
        27.0004
    250311.06348    228622.68445
                  21883582.2344                                   21883575.8054
                                                                        49.5004
        34.5004
   2501901.89547   1973848.05144
                  23017632.1254                                   23017629.1254
                                                                        44.5004
        28.5004
   2050179.15647   1621802.68444
                  24045503.0634                                   24045498.6914
                                                                        43.5004
        27.2504
 09 10 10 23 46 30.0000000  0  9G02G04G12G13G29G10G23G30G31
  -4290996.03148  -3292258.62547
                  20495432.4534                                   20495426.6604
                                                                        52.2504
        43.2504
   1965037.16048   1557424.47346
                  20920771.2584                                   20920768.6564
                                                                        51.7504
        41.0004
   5730715.05146   4472969.20744
                  24398873.2194                                   24398870.0474
                                                                        40.5004
        26.5004
  -5911552.90248  -4552485.25445
                  21489869.5394                                   21489866.1414
                                                                        50.0004
        35.5004
    197510.46547    200438.55545
                  23728755.3674                                   23728753.6994
                                                                        42.0004
        30.2504
   1482461.55547   1176983.33244
                  23555944.7734                                   23555941.5704
                                                                        44.5004
        28.5004
    194656.75848    185255.71545
                  21872991.2664                                   21872985.4804
                                                                        49.0004
        34.2504
   2476022.27747   1953682.09844
                  23012707.7664                                   23012705.1804
                                                                        44.7504
        28.0004
   2016020.23047   1595185.32444
                  24039002.3914                                   24038998.6884
                                                                        43.2504
        26.5004
 09 10 10 23 47  0.0000000  0  9G02G04G12G13G29G10G23G30G31
  -4410563.17648  -3385427.82047
                  20472679.4304                                   20472673.9264
                                                                        52.5004
        43.0004
   1930103.93848   1530203.82446
                  20914123.6724                                   20914120.7974
                                                                        52.5004
        41.5004
   5738974.40246   4479405.03544
                  24400445.3834                                   24400441.8014
                                                                        40.0004
        25.7504
  -6051349.57448  -4661417.68745
                  21463267.2894                                   21463263.4654
                                                                        50.0004
        35.7504
     13885.78147     57354.44544
                  23693812.0704                                   23693810.4384
                                                                        42.2504
        29.0004
   1277844.45347   1017541.48844
                  23517007.4614                                   23517004.6644
                                                                        45.0004
        29.5004
    139657.77048    142399.35245
                  21862525.2424                                   21862519.4184
                                                                        48.5004
        34.0004
   2450739.14547   1933980.95345
                  23007896.6804                                   23007893.4574
                                                                        45.7504
        30.0004
   1982414.09447   1568998.71544
                  24032607.1804                                   24032603.4454
                                                                        43.0004
        26.7504
 09 10 10 23 47 30.0000000  0  9G02G04G12G13G29G10G23G30G31
  -4529532.75048  -3478131.39547
                  20450040.0704                                   20450034.2544
                                                                        52.5004
        43.0004
   1895712.70348   1503405.46946
                  20907579.4844                                   20907576.3054
                                                                        52.5004
        40.7504
   5747535.09446   4486075.67644
                  24402074.2344                                   24402070.7774
                                                                        40.7504
        27.0004
  -6190487.87948  -4769837.13745
                  21436790.1254                                   21436786.1054
                                                                        50.2504
        35.5004
   -169377.63746    -85448.15644
                  23658938.0704                                   23658936.2584
                                                                        41.5004
        28.5004
   1073468.51247    858287.56344
                  23478115.8914                                   23478112.5234
                                                                        44.0004
        29.0004
     85310.56348    100050.91845
                  21852183.2734                                   21852177.7424
                                                                        49.7504
        34.5004
   2426048.26647   1914741.30545
                  23003198.3674                                   23003195.2504
                                                                        46.5004
        30.0004
   1949356.98047   1543239.91844
                  24026316.8594                                   24026313.0234
                                                                        42.0004
        26.7504
 09 10 10 23 48  0.0000000  0  8G02G04G13G29G10G23G30G31
  -4647905.20748  -3570369.67647
                  20427514.5084                                   20427509.0044
                                                                        52.5004
        43.0004
   1861860.16448   1477026.89546
                  20901137.2974                                   20901134.4264
                                                                        51.7504
        41.0004
  -6328967.64148  -4877743.40645
                  21410437.8674                                   21410434.5234
                                                                        50.0004
        35.5004
   -352278.52046   -227968.25444
                  23624133.0554                                   23624131.0044
                                                                        41.7504
        28.0004
    869334.21947    699221.90244
                  23439269.7894                                   23439266.9064
                                                                        42.7504
        28.0004
     31612.01248     58207.89845
                  21841964.9844                                   21841959.1684
                                                                        49.5004
        34.5004
   2401945.50047   1895959.94545
                  22998611.6884                                   22998608.8244
                                                                        46.2504
        30.0004
   1916845.27446   1517906.07544
                  24020130.0704                                   24020126.0984
                                                                        39.5004
        26.5004
 09 10 10 23 48 30.0000000  0  8G02G04G13G29G10G23G30G31
  -3190263.01648  -2434544.65647
                  20704894.8054                                   20704889.1844
                                                                        52.2504
        42.5004
   3403958.60548   2678662.07446
                  21194589.2034                                   21194585.7774
                                                                        51.7504
        40.5004
  -4891370.27048  -3757537.67645
                  21684003.6644                                   21684000.2854
                                                                        51.0004
        35.7504
   1040604.31647    857395.03544
                  23889190.4454                                   23889187.5004
                                                                        43.5004
        28.7504
   2240863.32847   1767945.88344
                  23700262.9694                                   23700260.2704
                                                                        42.7504
        27.0004
   1553974.77348   1244464.59045
                  22131660.8594                                   22131654.9494
                                                                        48.5004
        34.5004
   3953841.61347   3105229.65244
                  23293927.8134                                   23293924.6884
                                                                        43.7504
        28.5004
   3460290.64146   2720590.76644
                  24313837.3834                                   24313834.0664
                                                                        39.2504
        26.0004
 09 10 10 23 49  0.0000000  0  8G02G04G13G29G10G23G30G31
  -3307444.15648  -2525854.68747
                  20682595.8674                                   20682590.5314
                                                                        52.5004
        42.7504
   3371172.93448   2653114.72346
                  21188350.2034                                   21188347.1174
                                                                        52.5004
        41.0004
  -5028533.91048  -3864418.42245
                  21657902.9224                                   21657899.3364
                                                                        50.5004
        35.5004
    858429.97747    715441.00444
                  23854523.9454                                   23854520.6644
                                                                        44.5004
        28.2504
   2037212.83247   1609257.02744
                  23661509.5164                                   23661507.1454
                                                                        43.0004
        28.7504
   1501563.60548   1203624.71145
                  22121687.7344                                   22121681.8484
                                                                        48.7504
        34.5004
   3930900.89547   3087353.75044
                  23289561.6484                                   23289558.8364
                                                                        44.7504
        28.5004
   3428857.19546   2696097.18044
                  24307856.0554                                   24307852.3674
                                                                        41.2504
        25.7504
 09 10 10 23 49 30.0000000  0  8G02G04G13G29G10G23G30G31
  -3424020.58248  -2616693.46947
                  20660412.1884                                   20660406.8244
                                                                        51.7504
        42.7504
   3338926.30548   2627987.41846
                  21182213.6644                                   21182210.6334
                                                                        52.0004
        40.5004
  -5165029.23848  -3970778.43746
                  21631928.1024                                   21631924.5044
                                                                        50.5004
        36.0004
    676629.91447    573778.62944
                  23819928.5164                                   23819925.3244
                                                                        46.0004
        28.5004
   1833815.47347   1450765.50044
                  23622805.1804                                   23622801.5474
                                                                        43.2504
        29.5004
   1449802.02348   1163291.01245
                  22111837.3284                                   22111831.3284
                                                                        48.7504
        34.5004
   3908544.61747   3069933.28944
                  23285307.1094                                   23285304.6684
                                                                        42.7504
        27.5004
   3397967.58246   2672027.34043
                  24301978.7344                                   24301974.1604
                                                                        39.0004
        22.5004
 09 10 10 23 50  0.0000000  0  8G02G04G13G29G10G23G30G31
  -3539992.81648  -2707061.37547
                  20638343.3204                                   20638337.9384
                                                                        52.0004
        43.0004
   3307215.06348   2603277.34446
                  21176179.6414                                   21176176.5084
                                                                        52.7504
        40.7504
  -5300856.95348  -4076618.21145
                  21606081.0634                                   21606077.0824
                                                                        50.5004
        35.5004
    495205.26647    432408.78945
                  23785404.7114                                   23785401.6764
                                                                        46.2504
        30.0004
   1630671.17647   1292471.12544
                  23584147.7194                                   23584144.2154
                                                                        42.7504
        28.5004
   1398685.84448   1123460.21545
                  22102110.4534                                   22102104.8444
                                                                        49.5004
        34.0004
   3886768.42247   3052964.82444
                  23281162.6254                                   23281160.9964
                                                                        44.0004
        25.7504
   3367617.36746   2648377.82444
                  24296202.1484                                   24296198.7624
                                                                        40.2504
        25.5004
 09 10 10 23 50 30.0000000  0  9G02G04G05G13G29G10G23G30G31
  -3655363.62548  -2796960.70347
                  20616389.1334                                   20616383.4104
                                                                        52.0004
        43.0004
   3276034.25448   2578980.56646
                  21170246.1484                                   21170243.0164
                                                                        52.5004
        40.7504
   7625241.08256   5990573.18454
                  24395978.7034                                   24395976.2154
                                                                        40.7504
        27.7504
  -5436018.21148  -4181938.64845
                  21580361.2034                                   21580356.8794
                                                                        50.5004
        35.7504
    314154.85547    291330.58645
                  23750951.8444                                   23750949.2504
                                                                        45.5004
        30.7504
   1427778.71146   1134373.00044
                  23545538.1884                                   23545535.6054
                                                                        41.2504
        27.5004
   1348210.57448   1084128.75045
                  22092505.4534                                   22092499.4804
                                                                        49.2504
        34.0004
   3865566.34447   3036443.75044
                  23277129.3594                                   23277125.9224
                                                                        44.2504
        27.7504
   3337801.74247   2625144.89144
                  24290529.3134                                   24290524.9224
                                                                        42.7504
        26.5004
 09 10 10 23 51  0.0000000  0  9G02G04G05G13G29G10G23G30G31
  -3770140.26248  -2886397.01647
                  20594547.7974                                   20594542.5044
                                                                        52.7504
        43.2504
   3245374.00048   2555089.46946
                  21164411.5704                                   21164408.2344
                                                                        53.0004
        40.0004
   7421161.13747   5831549.92244
                  24357144.0634                                   24357141.1564
                                                                        43.0004
        28.5004
  -5570519.99248  -4286745.20746
                  21554765.9384                                   21554761.8984
                                                                        50.2504
        36.0004
    133472.57047    150539.25444
                  23716568.2894                                   23716566.2894
                                                                        44.5004
        29.0004
   1225131.87546    976466.43845
                  23506976.2664                                   23506973.7774
                                                                        41.0004
        30.0004
   1298366.89548   1045289.56645
                  22083020.2584                                   22083014.2774
                                                                        48.7504
        33.5004
   3844927.01247   3020361.14544
                  23273201.7504                                   23273198.2774
                                                                        43.7504
        28.0004
   3308509.59447   2602319.85244
                  24284955.1564                                   24284950.9184
                                                                        42.7504
        27.0004
 09 10 10 23 51 30.0000000  0  9G02G04G05G13G29G10G23G30G31
  -3884330.53948  -2975376.43047
                  20572818.0314                                   20572812.7304
                                                                        52.5004
        42.7504
   3215223.54348   2531595.65246
                  21158674.1484                                   21158670.8674
                                                                        52.7504
        40.5004
   7217237.53547   5672648.44144
                  24318338.3914                                   24318335.2074
                                                                        44.7504
        27.7504
  -5704370.00848  -4391043.90646
                  21529295.2504                                   21529291.2624
                                                                        51.0004
        36.0004
    -46847.83647     10029.88744
                  23682254.2194                                   23682252.2934
                                                                        43.0004
        28.0004
   1022724.53947    818746.60544
                  23468459.2034                                   23468456.6764
                                                                        43.0004
        29.2504
   1249143.77048   1006933.87545
                  22073653.3834                                   22073648.0124
                                                                        48.7504
        34.0004
   3824839.24247   3004708.34444
                  23269378.6644                                   23269375.6804
                                                                        43.7504
        27.5004
   3279729.96947   2579894.17644
                  24279478.9694                                   24279474.7304
                                                                        42.7504
        26.7504
 09 10 10 23 52  0.0000000  0  9G02G04G05G13G29G10G23G30G31
  -3997934.49648  -3063899.01647
                  20551199.5864                                   20551194.4224
                                                                        52.0004
        43.0004
   3185580.77348   2508497.37946
                  21153033.4454                                   21153030.1804
                                                                        52.5004
        40.7504
   7013471.30947   5513869.57844
                  24279563.0394                                   24279559.7934
                                                                        42.5004
        28.2504
  -5837567.22348  -4494833.94545
                  21503948.5394                                   21503944.6804
                                                                        50.5004
        35.7504
   -226804.76647   -130196.25844
                  23648009.9924                                   23648008.1214
                                                                        44.0004
        27.5004
    820557.57447    661214.00444
                  23429988.3204                                   23429984.8714
                                                                        42.5004
        29.5004
   1200539.50448    969060.43045
                  22064404.3284                                   22064398.9304
                                                                        49.0004
        33.5004
   3805299.22347   2989482.36344
                  23265660.5704                                   23265657.5164
                                                                        44.7504
        29.2504
   3251459.93447   2557865.59044
                  24274099.0234                                   24274094.9304
                                                                        43.7504
        28.5004
 09 10 10 23 52 30.0000000  0  9G02G04G05G13G29G10G23G30G31
  -4110948.05948  -3151961.53147
                  20529693.9144                                   20529688.4884
                                                                        52.0004
        43.0004
   3156446.92248   2485795.66846
                  21147489.2584                                   21147486.1644
                                                                        52.2504
        40.5004
   6809867.30547   5355217.11344
                  24240818.2034                                   24240814.8594
                                                                        44.0004
        27.7504
  -5970107.18748  -4598111.86746
                  21478726.9064                                   21478723.2544
                                                                        50.5004
        36.5004
   -406392.10947   -270134.40645
                  23613836.1024                                   23613833.4304
                                                                        45.2504
        31.0004
    618636.22747    503872.80544
                  23391563.1884                                   23391559.9144
                                                                        44.2504
        29.2504
   1152555.46548    931670.25845
                  22055273.3204                                   22055267.4304
                                                                        49.2504
        32.2504
   3786307.54747   2974683.65644
                  23262046.6414                                   23262043.5434
                                                                        43.7504
        28.5004
   3223700.50047   2536234.87544
                  24268816.0314                                   24268812.5514
                                                                        42.2504
        25.7504
 09 10 10 23 53  0.0000000  0  9G02G04G05G13G29G10G23G30G31
  -4223368.14148  -3239561.59447
                  20508301.4774                                   20508295.3954
                                                                        52.5004
        42.5004
   3127822.57448   2463490.97346
                  21142041.8524                                   21142039.1644
                                                                        53.0004
        40.7504
   6606429.85547   5196694.49244
                  24202105.8674                                   24202102.2854
                                                                        42.5004
        27.0004
  -6101986.07048  -4700874.57445
                  21453631.2734                                   21453627.1804
                                                                        50.5004
        35.5004
   -585605.85247   -409781.45745
                  23579732.7274                                   23579730.5044
                                                                        45.0004
        30.5004
    416964.60947    346726.20344
                  23353186.5394                                   23353183.4414
                                                                        44.7504
        29.0004
   1105192.12548    894763.75445
                  22046260.2974                                   22046254.3594
                                                                        49.0004
        33.5004
   3767863.52047   2960311.66044
                  23258537.1724                                   23258533.8404
                                                                        44.5004
        28.2504
   3196451.57447   2515001.94544
                  24263630.9304                                   24263627.3284
                                                                        42.5004
        26.7504
 09 10 10 23 53 30.0000000  0  9G02G04G05G13G29G10G23G30G31
  -4335191.06248  -3326696.35247
                  20487021.7974                                   20487016.5434
                                                                        52.7504
        43.2504
   3099708.67648   2441584.02746
                  21136692.2194                                   21136689.1724
                                                                        52.5004
        40.2504
   6403163.44947   5038305.11744
                  24163424.7424                                   24163422.1764
                                                                        42.0004
        28.2504
  -6233199.89148  -4803119.03146
                  21428662.1644                                   21428658.2154
                                                                        50.7504
        36.0004
   -764440.47747   -549133.09045
                  23545702.0554                                   23545698.5164
                                                                        45.2504
        30.0004
    215547.73847    189778.01244
                  23314858.2974                                   23314854.8324
                                                                        45.0004
        27.0004
   1058450.60548    858341.81345
                  22037365.8444                                   22037360.0164
                                                                        49.7504
        33.5004
   3749967.19947   2946366.48844
                  23255130.8524                                   23255128.1374
                                                                        44.7504
        28.7504
   3169713.52747   2494167.10544
                  24258543.5634                                   24258539.4144
                                                                        42.5004
        26.5004
 09 10 10 23 54  0.0000000  0  9G02G04G05G13G29G10G23G30G31
  -4446415.88748  -3413365.05147
                  20465856.9064                                   20465851.4654
                                                                        52.0004
        43.5004
   3072104.02348   2420073.91046
                  21131439.3054                                   21131436.3674
                                                                        52.0004
        40.5004
   6200069.78146   4880050.38744
                  24124777.4224                                   24124774.8094
                                                                        41.7504
        29.2504
  -6363746.89148  -4904843.96946
                  21403820.0314                                   21403815.8324
                                                                        50.5004
        36.0004
   -942893.85547   -688187.63344
                  23511743.0784                                   23511739.8754
                                                                        44.2504
        28.7504
     14387.97747     33030.19145
                  23276578.8674                                   23276575.8484
                                                                        46.5004
        30.0004
   1012329.47748    822403.27745
                  22028589.5784                                   22028583.6294
                                                                        50.0004
        33.0004
   3732615.27347   2932845.53144
                  23251829.2734                                   23251826.4304
                                                                        43.7504
        26.7504
   3143484.30946   2473728.75444
                  24253551.3054                                   24253548.1564
                                                                        41.7504
        24.2504
 09 10 10 23 54 30.0000000  0  9G02G04G05G13G29G10G23G30G31
  -4557042.38348  -3499567.51647
                  20444804.8524                                   20444799.5234
                                                                        51.5004
        43.2504
   3045005.92648   2398958.49246
                  21126282.7344                                   21126279.5124
                                                                        51.5004
        40.5004
   5997150.65247   4721931.63344
                  24086163.1724                                   24086159.7664
                                                                        42.0004
        29.7504
  -6493626.89148  -5006049.19945
                  21379104.5634                                   21379100.8674
                                                                        51.2504
        35.7504
  -1120963.79747   -826943.37944
                  23477857.5164                                   23477854.9384
                                                                        43.0004
        28.7504
   -186513.13347   -123516.02745
                  23238348.9064                                   23238346.0394
                                                                        45.0004
        30.7504
    966826.26248    786946.20345
                  22019930.5634                                   22019924.5744
                                                                        49.2504
        33.2504
   3715804.85547   2919746.48844
                  23248630.5314                                   23248627.6134
                                                                        44.5004
        26.5004
   3117761.00446   2453684.60244
                  24248657.0314                                   24248652.8404
                                                                        39.7504
        25.2504
 09 10 10 23 55  0.0000000  0  9G02G04G05G13G29G10G23G30G31
  -4667069.37948  -3585302.84047
                  20423867.4924                                   20423862.1884
                                                                        52.5004
        43.2504
   3018412.85248   2378236.60546
                  21121222.2114                                   21121219.4344
                                                                        52.2504
        40.7504
   5794407.61746   4563950.05544
                  24047583.1334                                   24047579.7154
                                                                        41.7504
        29.5004
  -6622837.95348  -5106733.15246
                  21354516.9534                                   21354512.7624
                                                                        51.0004
        36.0004
  -1298647.75047   -965398.31644
                  23444044.7664                                   23444042.6724
                                                                        43.0004
        29.5004
   -387153.81247   -279859.37945
                  23200167.8834                                   23200165.1524
                                                                        46.2504
        30.0004
    921939.62148    751969.63345
                  22011388.8134                                   22011382.7304
                                                                        49.5004
        33.5004
   3699533.07047   2907067.16444
                  23245534.5164                                   23245530.4614
                                                                        43.5004
        27.7504
   3092541.55546   2434033.06344
                  24243857.6174                                   24243853.6804
                                                                        40.0004
        25.7504
 09 10 10 23 55 30.0000000  0  9G02G04G05G13G29G10G23G30G31
  -4776498.48048  -3670572.24647
                  20403044.0784                                   20403038.5664
                                                                        52.0004
        43.0004
   2992321.09448   2357905.35246
                  21116257.2344                                   21116254.4024
                                                                        52.7504
        40.5004
   5591840.65247   4406105.72744
                  24009035.4614                                   24009032.3204
                                                                        43.0004
        29.7504
  -6751380.92648  -5206896.48446
                  21330055.5634                                   21330051.4654
                                                                        51.0004
        36.0004
  -1475945.90247  -1103552.69945
                  23410306.1484                                   23410304.1094
                                                                        43.7504
        30.5004
   -587533.50847   -435999.34045
                  23162037.2974                                   23162034.1214
                                                                        45.0004
        31.0004
    877665.62948    717470.37545
                  22002963.7114                                   22002958.0634
                                                                        49.5004
        33.2504
   3683794.87947   2894803.63744
                  23242539.7114                                   23242536.4104
                                                                        43.7504
        27.5004
   3067821.23846   2414770.48444
                  24239152.9614                                   24239148.9024
                                                                        41.5004
        26.0004
 09 10 10 23 56  0.0000000  0  9G02G04G05G13G29G10G23G30G31
  -4885328.69948  -3755375.00847
                  20382334.3284                                   20382328.9344
                                                                        51.2504
        43.0004
   2966729.13348   2337963.55946
                  21111387.3444                                   21111384.4144
                                                                        52.0004
        40.5004
   5389451.60247   4248400.05144
                  23970522.5234                                   23970518.5004
                                                                        43.0004
        29.5004
  -6879254.21148  -5306537.98046
                  21305722.1414                                   21305717.7704
                                                                        51.0004
        36.2504
  -1652855.35247  -1241404.17645
                  23376641.3674                                   23376639.1374
                                                                        44.0004
        30.5004
   -787650.03947   -591934.25444
                  23123955.8524                                   23123952.7114
                                                                        42.5004
        29.0004
    834003.27048    683447.77045
                  21994654.5704                                   21994649.4734
                                                                        49.0004
        33.0004
   3668587.55147   2882953.74644
                  23239645.4774                                   23239642.4574
                                                                        43.5004
        27.5004
   3043598.27347   2395895.44543
                  24234543.6804                                   24234539.4024
                                                                        42.0004
        23.5004
 09 10 10 23 56 30.0000000  0  9G02G04G05G13G29G10G23G30G31
  -4993557.52748  -3839709.17247
                  20361739.2344                                   20361733.7114
                                                                        52.2504
        43.2504
   2941636.60248   2318410.93846
                  21106612.2504                                   21106609.4964
                                                                        51.0004
        40.5004
   5187244.58646   4090836.21144
                  23932042.1484                                   23932039.5824
                                                                        41.0004
        27.7504
  -7006455.40248  -5405655.75846
                  21281516.6254                                   21281512.3714
                                                                        51.0004
        36.0004
  -1829371.73847  -1378949.32045
                  23343052.0234                                   23343049.6994
                                                                        43.2504
        30.7504
   -987499.72347   -747661.28944
                  23085925.3134                                   23085922.7624
                                                                        43.2504
        27.7504
    790951.64148    649901.06345
                  21986462.8134                                   21986457.2114
                                                                        48.0004
        33.5004
   3653910.19947   2871516.81344
                  23236852.6094                                   23236849.6094
                                                                        42.5004
        29.2504
   3019871.71546   2377407.22744
                  24230029.0004                                   24230025.0164
                                                                        40.2504
        26.2504
 09 10 10 23 57  0.0000000  0  9G02G04G05G13G29G10G23G30G31
  -3525762.03548  -2695972.40647
                  20641051.3444                                   20641046.1804
                                                                        52.5004
        43.5004
   4492461.50848   3526845.96146
                  21401724.2424                                   21401721.2194
                                                                        51.2504
        40.7504
   6560646.26247   5161019.37144
                  24193392.6884                                   24193389.5434
                                                                        42.2504
        28.7504
  -5557560.04748  -4276646.39546
                  21557232.3204                                   21557228.4384
                                                                        51.0004
        36.2504
   -430068.43747   -288583.05945
                  23609330.3364                                   23609327.7774
                                                                        43.0004
        31.2504
    388345.24247    324425.73044
                  23347740.0784                                   23347737.1524
                                                                        43.7504
        29.0004
   2323929.39148   1844429.13345
                  22278178.6024                                   22278173.0554
                                                                        48.7504
        34.0004
   5215178.77047   4088089.71144
                  23533951.6094                                   23533948.6724
                                                                        42.0004
        26.5004
   4572058.94947   3586903.76644
                  24525400.5314                                   24525396.4024
                                                                        42.2504
        25.5004
 09 10 10 23 57 30.0000000  0  9G02G04G05G13G29G10G23G30G31
  -3632791.22748  -2779371.75847
                  20620684.5704                                   20620679.0704
                                                                        51.7504
        43.0004
   4468357.71548   3508063.80546
                  21397137.4144                                   21397134.7544
                                                                        52.0004
        39.7504
   6358802.38747   5003738.46544
                  24154983.5234                                   24154979.8364
                                                                        42.7504
        29.2504
  -5683417.75848  -4374717.32846
                  21533282.1724                                   21533278.5634
                                                                        51.5004
        37.0004
   -605797.57847   -425514.82844
                  23575890.3984                                   23575887.4534
                                                                        44.2504
        29.7504
    189030.47347    169115.52345
                  23309812.1094                                   23309808.8874
                                                                        43.0004
        30.7504
   2282089.81648   1811826.89545
                  22270216.7734                                   22270211.0594
                                                                        49.2504
        32.5004
   5201546.47747   4077467.11344
                  23531357.8834                                   23531354.6564
                                                                        42.0004
        27.0004
   4549313.10947   3569179.70744
                  24521072.0004                                   24521068.4144
                                                                        43.0004
        24.0004
 09 10 10 23 58  0.0000000  0  9G02G04G05G13G29G10G23G30G31
  -3739220.80948  -2862303.94947
                  20600431.2974                                   20600426.1374
                                                                        52.5004
        43.0004
   4444744.19948   3489663.68846
                  21392643.8754                                   21392641.0164
                                                                        52.0004
        40.2504
   6157141.46547   4846600.05545
                  24116608.0004                                   24116605.2114
                                                                        43.2504
        30.2504
  -5808603.44548  -4472264.59846
                  21509460.4224                                   21509456.2034
                                                                        51.0004
        36.7504
   -781130.43447   -562137.81244
                  23542525.2974                                   23542522.0664
                                                                        43.2504
        28.0004
    -10015.10547     14015.10945
                  23271935.1334                                   23271932.4384
                                                                        44.2504
        31.2504
   2240852.02348   1779693.56645
                  22262369.3134                                   22262363.9534
                                                                        50.2504
        32.5004
   5188431.09047   4067247.21944
                  23528862.0944                                   23528859.0594
                                                                        43.0004
        27.0004
   4527052.55147   3551833.80943
                  24516835.9844                                   24516832.6294
                                                                        42.2504
        22.2504
 09 10 10 23 58 30.0000000  0  9G02G04G05G13G29G10G23G30G31
  -3845047.41048  -2944766.25847
                  20580293.0234                                   20580288.1564
                                                                        52.2504
        43.0004
   4421621.69148   3471646.19546
                  21388244.0164                                   21388240.5634
                                                                        51.0004
        40.2504
   5955668.22346   4689607.89845
                  24078269.5704                                   24078266.5664
                                                                        41.7504
        30.7504
  -5933113.50048  -4569285.43446
                  21485766.4774                                   21485762.6524
                                                                        51.0004
        36.7504
   -956062.25447   -698448.28144
                  23509236.4224                                   23509233.6564
                                                                        42.2504
        29.2504
   -208786.74247   -140871.85945
                  23234110.2114                                   23234107.1724
                                                                        44.2504
        31.5004
   2200217.21548   1748030.12145
                  22254636.8674                                   22254630.8714
                                                                        49.2504
        33.5004
   5175832.36747   4057429.92644
                  23526464.4534                                   23526461.7274
                                                                        43.2504
        27.0004
   4505277.60946   3534866.31344
                  24512691.7504                                   24512688.5234
                                                                        41.0004
        26.2504
 09 10 10 23 59  0.0000000  0  9G02G04G05G13G29G10G23G30G31
  -3950273.89848  -3026760.98447
                  20560269.2894                                   20560263.9224
                                                                        52.7504
        43.2504
   4398985.29348   3454007.46946
                  21383936.3984                                   21383933.2934
                                                                        51.0004
        39.5004
   5754380.73047   4532760.41444
                  24039965.5314                                   24039962.8914
                                                                        42.2504
        29.7504
  -6056949.65248  -4665781.14546
                  21462201.6024                                   21462197.7584
                                                                        50.5004
        36.0004
  -1130594.48847   -834447.37545
                  23476024.3594                                   23476021.9494
                                                                        43.0004
        31.0004
   -407285.61747   -295546.34845
                  23196337.1564                                   23196333.7704
                                                                        44.2504
        31.7504
   2160179.77048   1716832.12545
                  22247017.6024                                   22247012.3284
                                                                        48.5004
        33.0004
   5163743.54347   4048009.95344
                  23524164.2114                                   23524161.3554
                                                                        43.0004
        28.0004
   4483982.41446   3518272.62944
                  24508639.6884                                   24508636.6914
                                                                        41.7504
        27.2504
 09 10 10 23 59 30.0000000  0  9G02G04G05G13G29G10G23G30G31
  -4054901.35248  -3108288.86747
                  20540359.5944                                   20540354.0354
                                                                        52.2504
        43.2504
   4376830.47748   3436743.97346
                  21379720.4614                                   21379717.7074
                                                                        50.7504
        39.7504
   5553279.52747   4376058.09844
                  24001697.4144                                   24001694.3404
                                                                        44.0004
        29.7504
  -6180113.59848  -4761753.07846
                  21438764.0554                                   21438760.1094
                                                                        50.7504
        36.7504
  -1304726.05147   -970134.23845
                  23442888.0944                                   23442885.9224
                                                                        43.2504
        31.5004
   -605511.97747   -450008.46145
                  23158615.4774                                   23158612.8634
                                                                        43.5004
        30.5004
   2120735.23848   1686096.12145
                  22239511.7194                                   22239505.9414
                                                                        48.5004
        32.7504
   5152160.25847   4038983.96944
                  23521959.8364                                   23521956.8954
                                                                        42.5004
        26.7504
   4463162.59446   3502049.38344
                  24504678.1024                                   24504674.9144
                                                                        41.7504
        27.5004
