     2.11           OBSERVATION DATA    G (GPS)             RINEX VERSION / TYPE
teqc  2019Feb25                         20221121 12:28:24UTCPGM / RUN BY / DATE
OSX ker:10.11.6|Core i5|gcc 4.3 -m64|OSX ker:10.10+|=+      COMMENT
BIT 2 OF LLI FLAGS DATA COLLECTED UNDER A/S CONDITION       COMMENT
04712881                                                    MARKER NAME
2881                                                        MARKER NUMBER
-Unknown-           -Unknown-                               OBSERVER / AGENCY
0220400471          TRIMBLE R7          2.30                REC # / TYPE / VERS
-Unknown-           TRM39105.00     NONE                    ANT # / TYPE
  1449460.7045 -1709241.4146  5952439.8719                  APPROX POSITION XYZ
        0.0000        0.0000        0.0000                  ANTENNA: DELTA H/E/N
     1     1                                                WAVELENGTH FACT L1/2
    20    L1    L2    L5    L6    L7    L8    C1    P1    C2# / TYPES OF OBSERV
          P2    C5    C6    C7    C8    S1    S2    S5    S6# / TYPES OF OBSERV
          S7    S8                                          # / TYPES OF OBSERV
    30.0000                                                 INTERVAL
    15                                                      LEAP SECONDS
Forced Modulo Decimation to 30 seconds                      COMMENT
 SNR is mapped to RINEX snr flag value [0-9]                COMMENT
  L1 & L2: min(max(int(snr_dBHz/6), 0), 9)                  COMMENT
teqc edited: Beidou # 1 - 37 excluded                       COMMENT
  2009    10    15    23    10   30.0000000     GPS         TIME OF FIRST OBS
                                                            END OF HEADER
 09 10 15 23 10 30.0000000  0  7G02G04G12G13G23G30G31
   -243209.47758   -163857.62557
                  20888564.7664                                   20888558.9184
                                                                        51.5004
        42.5004
    -95562.54758    -66294.00456
                  20817869.1414                                   20817865.7894
                                                                        52.7504
        41.0004
    -10419.69557     -7415.56654
                  24020552.7194                                   24020548.6334
                                                                        45.0004
        29.7504
   -279086.97758   -187890.00855
                  22003103.6954                                   22003099.6684
                                                                        48.7504
        32.7504
   -137691.99657    -93336.97755
                  21884149.5394                                   21884143.4304
                                                                        47.5004
        34.0004
    -84186.10257    -56708.35955
                  22848184.3914                                   22848181.8404
                                                                        46.0004
        31.2504
    -81470.82057    -56472.28154
                  23927315.4454                                   23927311.1454
                                                                        42.2504
        27.2504
 09 10 15 23 11  0.0000000  0  8G02G04G29G12G13G23G30G31
   -385482.44948   -274719.59447
                  20861490.8834                                   20861485.3404
                                                                        51.0004
        42.0004
   -151901.02048   -110194.10946
                  20807148.2424                                   20807145.0554
                                                                        52.5004
        41.0004
   -293214.63357   -214059.30154
                  24421355.2274                                   24421350.9804
                                                                        43.0004
        26.0004
    -17226.91347    -12719.92745
                  24019257.4224                                   24019253.8204
                                                                        44.5004
        30.0004
   -442859.20748   -315504.80545
                  21971939.0394                                   21971934.8674
                                                                        49.5004
        33.2504
   -218560.27747   -156351.20745
                  21868760.5164                                   21868754.5434
                                                                        47.2504
        34.2504
   -133559.22447    -95180.94445
                  22838788.9774                                   22838786.0984
                                                                        44.5004
        31.5004
   -137101.34046    -99820.76644
                  23916729.2584                                   23916725.2934
                                                                        41.7504
        28.0004
 09 10 15 23 11 30.0000000  0  8G02G04G29G12G13G23G30G31
   -526773.78548   -384816.69947
                  20834603.9924                                   20834598.3364
                                                                        50.5004
        42.7504
   -207232.35548   -153309.47746
                  20796619.3444                                   20796615.8914
                                                                        51.2504
        40.5004
   -490542.21147   -367821.04744
                  24383804.6724                                   24383801.1174
                                                                        42.0004
        27.2504
    -23219.07047    -17389.19945
                  24018116.5944                                   24018112.9264
                                                                        45.2504
        30.5004
   -605610.25048   -442323.84445
                  21940968.9534                                   21940964.8554
                                                                        49.0004
        33.0004
   -298320.68448   -218502.19945
                  21853582.6484                                   21853576.6254
                                                                        48.2504
        34.7504
   -181844.16447   -132805.60945
                  22829600.6484                                   22829597.9184
                                                                        46.2504
        30.5004
   -191703.51247   -142367.93744
                  23906338.8674                                   23906334.4574
                                                                        43.0004
        28.2504
 09 10 15 23 12  0.0000000  0  8G02G04G29G12G13G23G30G31
   -666933.50048   -494032.00847
                  20807932.6094                                   20807926.8094
                                                                        51.0004
        42.5004
   -261409.19148   -195525.19946
                  20786309.4304                                   20786306.5314
                                                                        53.2504
        40.7504
   -687008.48846   -520911.60244
                  24346418.1564                                   24346415.5664
                                                                        41.2504
        27.5004
    -28250.26247    -21309.63745
                  24017159.8754                                   24017155.8404
                                                                        45.5004
        31.0004
   -767189.43048   -568229.72345
                  21910221.3134                                   21910216.5164
                                                                        48.7504
        32.5004
   -376825.25448   -279674.58645
                  21838644.0704                                   21838637.8754
                                                                        48.5004
        35.2504
   -228894.32847   -169468.15645
                  22820647.1954                                   22820644.4614
                                                                        44.0004
        31.0004
   -245131.13747   -183999.86744
                  23896171.5474                                   23896167.7424
                                                                        43.2504
        27.0004
 09 10 15 23 12 30.0000000  0  8G02G04G29G12G13G23G30G31
   -805918.86748   -602332.28147
                  20781484.3674                                   20781479.0514
                                                                        50.0004
        42.5004
   -314390.78548   -236809.54746
                  20776227.3984                                   20776224.5124
                                                                        52.0004
        40.5004
   -882569.48046   -673296.74644
                  24309204.3364                                   24309201.4534
                                                                        39.7504
        28.0004
    -32282.16847    -24451.39145
                  24016392.2504                                   24016388.5824
                                                                        45.5004
        31.2504
   -927552.17648   -693187.68445
                  21879704.8284                                   21879700.9924
                                                                        48.7504
        31.5004
   -454032.77047   -339836.32445
                  21823952.2504                                   21823946.0784
                                                                        46.0004
        33.7504
   -274670.73847   -205138.16445
                  22811936.4694                                   22811933.8364
                                                                        46.0004
        31.7504
   -297343.80147   -224685.07444
                  23886236.0474                                   23886232.2504
                                                                        42.2504
        29.0004
 09 10 15 23 13  0.0000000  0  8G02G04G29G12G13G23G30G31
   -943728.66848   -709716.51647
                  20755259.8284                                   20755254.3834
                                                                        50.5004
        42.5004
   -366179.96148   -277164.78546
                  20766372.4694                                   20766369.0084
                                                                        52.0004
        40.5004
  -1077221.76646   -824973.84044
                  24272162.0864                                   24272160.4304
                                                                        40.0004
        26.7504
    -35317.25847    -26816.42645
                  24015814.5784                                   24015810.8954
                                                                        46.0004
        31.2504
  -1086698.65648   -817197.93045
                  21849420.6024                                   21849416.1604
                                                                        49.2504
        32.7504
   -529945.55147   -398989.15645
                  21809506.2114                                   21809500.1094
                                                                        47.5004
        34.5004
   -319174.04747   -239816.02045
                  22803467.9454                                   22803464.9184
                                                                        45.5004
        31.0004
   -348343.10546   -264424.80144
                  23876531.1954                                   23876526.9734
                                                                        40.7504
        28.5004
 09 10 15 23 13 30.0000000  0  8G02G04G29G12G13G23G30G31
  -1080381.72348   -816199.43047
                  20729255.7194                                   20729249.9774
                                                                        51.0004
        42.5004
   -416796.79748   -316606.42246
                  20756740.1724                                   20756736.6954
                                                                        51.5004
        40.5004
  -1270985.48446   -975958.54744
                  24235290.7664                                   24235288.3954
                                                                        40.2504
        26.5004
    -37380.50047    -28424.23044
                  24015422.4774                                   24015418.1684
                                                                        45.2504
        29.2504
  -1244644.85248   -940272.90245
                  21819364.4144                                   21819359.9494
                                                                        49.0004
        31.2504
   -604583.14848   -457148.31645
                  21795302.7194                                   21795296.9104
                                                                        48.2504
        34.0004
   -362429.11747   -273521.28945
                  22795236.7894                                   22795233.6644
                                                                        45.0004
        30.2504
   -398152.30147   -303237.16844
                  23867053.2034                                   23867048.8284
                                                                        42.0004
        28.5004
 09 10 15 23 14  0.0000000  0  9G02G04G29G12G13G10G23G30G31
  -1215908.89148   -921805.03547
                  20703465.8284                                   20703460.4224
                                                                        50.5004
        42.5004
   -466276.09848   -355161.69946
                  20747324.5234                                   20747321.3284
                                                                        52.2504
        40.7504
  -1463888.43047  -1126272.48844
                  24198583.0314                                   24198579.1374
                                                                        43.0004
        29.0004
    -38505.29047    -29300.75744
                  24015208.1334                                   24015203.9144
                                                                        45.0004
        28.7504
  -1401422.59448  -1062437.38745
                  21789530.1954                                   21789526.0434
                                                                        48.2504
        32.5004
   -312044.09057   -227765.30154
                  24065471.7034                                   24065468.3554
                                                                        43.0004
        24.7504
   -677979.77047   -514340.48045
                  21781335.9614                                   21781330.1024
                                                                        47.0004
        33.7504
   -404468.36747   -306279.14845
                  22787237.0944                                   22787234.0124
                                                                        44.0004
        30.7504
   -446803.85547   -341147.44544
                  23857794.7274                                   23857790.8164
                                                                        42.5004
        28.0004
 09 10 15 23 14 30.0000000  0  9G02G04G29G12G13G10G23G30G31
  -1350343.65248  -1026559.39547
                  20677883.6884                                   20677877.9654
                                                                        50.0004
        43.0004
   -514653.54348   -392858.47746
                  20738118.8054                                   20738115.6454
                                                                        51.7504
        41.2504
  -1655963.45347  -1275941.34844
                  24162032.2894                                   24162028.6604
                                                                        43.5004
        26.7504
    -38729.81647    -29475.73444
                  24015164.9534                                   24015160.9224
                                                                        44.0004
        28.7504
  -1557063.94148  -1183716.36345
                  21759912.8674                                   21759908.4964
                                                                        48.2504
        33.0004
   -522092.29747   -391439.18744
                  24025499.8914                                   24025497.6454
                                                                        42.0004
        24.5004
   -750170.90647   -570593.29745
                  21767598.3984                                   21767592.4414
                                                                        47.0004
        33.5004
   -445329.38747   -338118.88745
                  22779460.7114                                   22779457.9024
                                                                        45.0004
        30.5004
   -494335.03947   -378184.72744
                  23848750.1564                                   23848745.4804
                                                                        43.2504
        27.5004
 09 10 15 23 15  0.0000000  0  9G02G04G29G12G13G10G23G30G31
  -1483712.91848  -1130483.49647
                  20652504.2894                                   20652498.7154
                                                                        50.0004
        42.7504
   -561957.96548   -429719.02746
                  20729117.2274                                   20729113.7624
                                                                        52.0004
        41.0004
  -1847237.33647  -1424985.97344
                  24125634.0474                                   24125629.9804
                                                                        42.7504
        26.2504
    -38086.39847    -28974.45744
                  24015287.9064                                   24015283.8634
                                                                        44.5004
        29.0004
  -1711593.83648  -1304129.25845
                  21730506.9304                                   21730502.4574
                                                                        49.2504
        33.0004
   -731446.71147   -554572.50044
                  23985661.2814                                   23985658.3014
                                                                        43.0004
        26.0004
   -821184.60547   -625928.64145
                  21754085.1094                                   21754079.1174
                                                                        47.0004
        33.5004
   -485043.21947   -369064.75445
                  22771903.5784                                   22771900.5664
                                                                        45.5004
        30.2504
   -540775.58647   -414372.16044
                  23839912.6804                                   23839907.8834
                                                                        43.0004
        28.0004
 09 10 15 23 15 30.0000000  0  9G02G04G29G12G13G10G23G30G31
  -1616045.91048  -1233600.10247
                  20627322.2894                                   20627316.4414
                                                                        51.0004
        42.7504
   -608222.59048   -465769.39846
                  20720313.3524                                   20720310.1334
                                                                        51.7504
        40.5004
  -2037737.55547  -1573427.66444
                  24089382.5004                                   24089379.5744
                                                                        43.0004
        26.5004
    -36607.72347    -27822.27344
                  24015568.9924                                   24015565.4734
                                                                        45.5004
        29.7504
  -1865042.80948  -1423699.89145
                  21701306.2584                                   21701302.2774
                                                                        48.5004
        33.5004
   -940135.59847   -717187.17644
                  23945949.5474                                   23945946.2974
                                                                        44.0004
        26.0004
   -891054.08647   -680372.36345
                  21740789.1564                                   21740783.8524
                                                                        47.5004
        34.0004
   -523641.91047   -399141.64145
                  22764558.8204                                   22764555.2584
                                                                        45.5004
        30.0004
   -586158.39147   -449735.40644
                  23831276.7424                                   23831272.1764
                                                                        42.2504
        27.0004
 09 10 15 23 16  0.0000000  0  9G02G04G29G12G13G10G23G30G31
  -1747360.42648  -1335923.10547
                  20602333.9924                                   20602327.9264
                                                                        50.0004
        42.5004
   -653466.82848   -501024.60946
                  20711703.5394                                   20711700.2464
                                                                        51.5004
        40.5004
  -2227480.77746  -1721279.49644
                  24053274.8284                                   24053272.6024
                                                                        40.2504
        26.0004
    -34315.69547    -26036.23045
                  24016005.7584                                   24016001.8874
                                                                        46.2504
        30.7504
  -2017426.59848  -1542440.48045
                  21672309.1414                                   21672304.8014
                                                                        49.2504
        33.7504
  -1148175.55147   -879296.09044
                  23906360.1564                                   23906357.7074
                                                                        44.2504
        26.5004
   -959797.98047   -733939.00845
                  21727708.0944                                   21727702.0084
                                                                        45.7504
        33.5004
   -561146.60547   -428365.99245
                  22757421.7734                                   22757419.0394
                                                                        45.0004
        30.0004
   -630503.48047   -484290.02744
                  23822837.5314                                   23822833.7344
                                                                        42.5004
        26.5004
 09 10 15 23 16 30.0000000  0  9G02G04G29G12G13G10G23G30G31
  -1877676.71948  -1437468.29747
                  20577535.3524                                   20577529.8404
                                                                        49.7504
        42.5004
   -697713.52748   -535502.50846
                  20703283.5164                                   20703280.2344
                                                                        50.7504
        41.0004
  -2416486.08246  -1868556.27044
                  24017308.5554                                   24017306.5124
                                                                        39.0004
        25.5004
    -31235.15647    -23635.77345
                  24016591.6094                                   24016588.3324
                                                                        47.0004
        31.0004
  -2168764.28148  -1660365.88745
                  21643510.2114                                   21643506.0514
                                                                        48.7504
        34.0004
  -1355586.40647  -1040914.87544
                  23866891.7894                                   23866888.6604
                                                                        43.2504
        27.5004
  -1027438.39547   -786645.76245
                  21714836.4304                                   21714830.0164
                                                                        46.2504
        33.5004
   -597581.66847   -456757.00045
                  22750488.3284                                   22750485.6134
                                                                        45.5004
        30.5004
   -673833.93046   -518054.01644
                  23814592.3674                                   23814587.4574
                                                                        40.5004
        25.7504
 09 10 15 23 17  0.0000000  0  9G02G04G29G12G13G10G23G30G31
   -431590.17248   -310647.63347
                  20852716.4694                                   20852710.4184
                                                                        52.0004
        42.0004
    834435.91448    658380.22746
                  20994842.0164                                   20994838.5944
                                                                        52.0004
        41.0004
  -1029346.39146   -787668.17244
                  24281272.7894                                   24281270.5904
                                                                        40.7504
        26.0004
   1548029.19947   1206959.82045
                  24317115.9694                                   24317112.1994
                                                                        45.7504
        30.7504
   -743650.61748   -549887.69945
                  21914700.1254                                   21914695.8404
                                                                        49.2504
        34.0004
     13039.45747     25546.89844
                  24127332.4224                                   24127329.5084
                                                                        42.5004
        24.7504
    481424.02048    389091.22745
                  22001963.4844                                   22001956.9964
                                                                        48.5004
        34.7504
    942450.53947    743268.08245
                  23043546.6724                                   23043544.2154
                                                                        44.0004
        30.0004
    859247.82446    676555.14544
                  24106328.5634                                   24106323.6454
                                                                        40.5004
        26.0004
 09 10 15 23 17 30.0000000  0  9G02G04G29G12G13G10G23G30G31
   -559970.00448   -410683.85547
                  20828286.7894                                   20828280.9694
                                                                        51.0004
        42.0004
    792114.88748    625402.82846
                  20986788.5164                                   20986784.9184
                                                                        51.5004
        40.7504
  -1216932.24647   -933838.85544
                  24245576.9384                                   24245574.2234
                                                                        42.0004
        28.7504
   1552613.55947   1210532.02044
                  24317987.8984                                   24317984.1804
                                                                        44.0004
        29.2504
   -892956.00948   -666229.53645
                  21886287.9924                                   21886284.0434
                                                                        48.7504
        34.0004
   -193170.84847   -135136.38744
                  24088091.7034                                   24088088.7734
                                                                        42.5004
        26.0004
    415921.39847    338050.23845
                  21989498.3594                                   21989492.4384
                                                                        47.7504
        33.2504
    908084.65647    716489.41645
                  23037006.9224                                   23037003.8404
                                                                        45.0004
        30.0004
    817875.89847    644317.26244
                  24098455.1484                                   24098450.3324
                                                                        42.2504
        26.0004
 09 10 15 23 18  0.0000000  0  9G02G04G29G12G13G10G23G30G31
   -687409.60548   -509987.37147
                  20804035.8444                                   20804030.2934
                                                                        51.7504
        42.2504
    750725.65648    593151.50846
                  20978912.2734                                   20978909.0704
                                                                        52.2504
        41.5004
  -1403836.16447  -1079478.22744
                  24210010.2424                                   24210006.7424
                                                                        43.0004
        29.5004
   1557914.73447   1214662.73844
                  24318996.2664                                   24318993.0274
                                                                        43.0004
        28.0004
  -1041270.75047   -781799.44945
                  21858064.8054                                   21858060.5394
                                                                        47.5004
        33.7504
   -398807.65247   -295372.82444
                  24048959.9774                                   24048957.3404
                                                                        43.2504
        27.0004
    351457.50047    287818.65645
                  21977231.3134                                   21977225.5314
                                                                        47.7504
        34.0004
    874719.07847    690490.28545
                  23030657.9774                                   23030654.8404
                                                                        46.2504
        30.2504
    777450.10247    612816.68044
                  24090761.8914                                   24090757.9144
                                                                        42.7504
        25.5004
 09 10 15 23 18 30.0000000  0  9G02G04G29G12G13G10G23G30G31
   -813926.90648   -608572.25047
                  20779960.2664                                   20779954.8094
                                                                        51.7504
        42.5004
    710246.55548    561609.32446
                  20971209.3364                                   20971205.9304
                                                                        51.5004
        40.0004
  -1590072.63747  -1224597.54344
                  24174570.2424                                   24174567.2934
                                                                        44.5004
        29.2504
   1563912.06647   1219335.96544
                  24320137.4614                                   24320134.3794
                                                                        42.5004
        27.0004
  -1188613.67248   -896612.05145
                  21830026.4064                                   21830022.2274
                                                                        48.2504
        33.2504
   -603888.02347   -455175.63344
                  24009935.0004                                   24009932.0664
                                                                        43.5004
        26.5004
    288010.96147    238379.82045
                  21965157.9924                                   21965151.9614
                                                                        47.5004
        34.2504
    842333.93447    665255.11345
                  23024495.2974                                   23024492.0864
                                                                        46.0004
        30.0004
    737950.85547    582038.03944
                  24083245.9064                                   24083241.0554
                                                                        42.0004
        25.2504
 09 10 15 23 19  0.0000000  0  9G02G04G29G12G13G10G23G30G31
   -939537.80548   -706450.85947
                  20756057.5084                                   20756051.6024
                                                                        50.7504
        42.2504
    670659.87148    530762.57446
                  20963676.0634                                   20963673.0124
                                                                        52.0004
        40.5004
  -1775658.31647  -1369209.76644
                  24139254.7344                                   24139251.2034
                                                                        43.5004
        28.5004
   1570584.19147   1224534.96544
                  24321407.6094                                   24321404.1254
                                                                        43.5004
        27.5004
  -1334998.77748  -1010678.35545
                  21802170.4614                                   21802166.1374
                                                                        48.5004
        33.7504
   -808427.14547   -614556.70744
                  23971012.0784                                   23971009.2974
                                                                        43.2504
        26.7504
    225564.33647    189720.12945
                  21953274.3524                                   21953268.3094
                                                                        47.5004
        33.0004
    810907.93447    640767.31645
                  23018514.8984                                   23018512.1214
                                                                        45.2504
        30.0004
    699357.67646    551965.41444
                  24075902.3054                                   24075897.1524
                                                                        41.5004
        25.5004
 09 10 15 23 19 30.0000000  0  9G02G04G29G12G13G10G23G30G31
  -1064257.75448   -803635.27747
                  20732324.0474                                   20732318.1024
                                                                        51.7504
        42.5004
    631947.27348    500596.94946
                  20956309.4454                                   20956306.0824
                                                                        51.2504
        40.2504
  -1960606.42647  -1513325.18744
                  24104059.3984                                   24104056.5274
                                                                        43.5004
        26.5004
   1577912.03547   1230244.94144
                  24322802.5474                                   24322798.0744
                                                                        45.0004
        28.5004
  -1480440.93448  -1124009.90245
                  21774493.5554                                   21774489.2464
                                                                        48.2504
        33.2504
  -1012439.40647   -773527.23444
                  23932190.0784                                   23932186.8634
                                                                        44.0004
        27.0004
    164100.09048    141825.93045
                  21941578.5084                                   21941572.0594
                                                                        48.0004
        33.5004
    780423.04747    617012.86745
                  23012713.8134                                   23012711.1604
                                                                        45.7504
        30.0004
    661653.12146    522585.23844
                  24068727.4144                                   24068722.4804
                                                                        40.0004
        25.0004
 09 10 15 23 20  0.0000000  0  9G02G04G29G12G13G10G23G30G31
  -1188095.33248   -900132.07047
                  20708758.2974                                   20708752.7074
                                                                        51.0004
        43.0004
    594096.91848    471103.19946
                  20949106.7034                                   20949103.2194
                                                                        51.7504
        40.5004
  -2144924.29347  -1656949.54344
                  24068985.2814                                   24068981.9064
                                                                        42.0004
        24.0004
   1585882.29347   1236455.50044
                  24324318.9454                                   24324314.8634
                                                                        45.2504
        28.5004
  -1624948.81247  -1236613.35945
                  21746994.6484                                   21746989.9344
                                                                        47.7504
        33.0004
  -1215932.57047   -932093.34044
                  23893466.4224                                   23893463.5744
                                                                        43.7504
        27.0004
    103606.35548     94687.96145
                  21930066.8984                                   21930060.6954
                                                                        48.2504
        33.5004
    750867.19947    593982.37945
                  23007089.3834                                   23007087.1134
                                                                        45.7504
        31.0004
    624824.69946    493887.75444
                  24061719.2274                                   24061714.0824
                                                                        40.2504
        27.5004
 09 10 15 23 20 30.0000000  0  9G02G04G29G12G13G10G23G30G31
  -1311065.41848   -995952.93747
                  20685358.2894                                   20685352.3674
                                                                        52.2504
        42.5004
    557092.00448    442268.19946
                  20942065.0394                                   20942061.5084
                                                                        52.0004
        40.2504
  -2328625.88746  -1800093.66844
                  24034027.8444                                   24034024.9924
                                                                        40.7504
        25.5004
   1594476.30147   1243152.12944
                  24325954.2424                                   24325950.0944
                                                                        45.2504
        29.5004
  -1768536.00848  -1348499.39845
                  21719670.4694                                   21719666.3054
                                                                        48.5004
        33.7504
  -1418920.42247  -1090265.60944
                  23854838.8204                                   23854835.7384
                                                                        43.5004
        27.2504
     44066.41847     48293.21145
                  21918736.6254                                   21918730.1884
                                                                        47.5004
        33.0004
    722221.55147    571661.05145
                  23001638.6174                                   23001635.6994
                                                                        46.5004
        31.0004
    588854.96547    465859.39544
                  24054874.1174                                   24054869.6994
                                                                        42.5004
        27.0004
 09 10 15 23 21  0.0000000  0  9G02G04G29G12G13G10G23G30G31
  -1433187.52748  -1091113.02747
                  20662119.1334                                   20662112.9384
                                                                        51.2504
        42.5004
    520909.98848    414074.44546
                  20935179.7974                                   20935176.3094
                                                                        51.7504
        40.2504
  -2511729.09446  -1942771.48044
                  23999184.8914                                   23999181.8674
                                                                        41.5004
        28.0004
   1603669.93047   1250315.93044
                  24327704.0314                                   24327700.0514
                                                                        43.7504
        29.5004
  -1911221.53948  -1459682.88745
                  21692518.1174                                   21692513.6884
                                                                        48.2504
        33.0004
  -1621421.80547  -1248058.81244
                  23816304.6414                                   23816300.8594
                                                                        43.5004
        27.5004
    -14541.33248      2624.83645
                  21907583.6334                                   21907577.8014
                                                                        48.0004
        34.0004
    694463.24247    550031.20345
                  22996356.4064                                   22996353.5084
                                                                        47.0004
        30.7504
    553721.24247    438482.45744
                  24048187.8284                                   24048184.1484
                                                                        42.2504
        27.0004
 09 10 15 23 21 30.0000000  0  9G02G04G29G12G13G10G23G30G31
  -1554472.73448  -1185620.96547
                  20639039.0864                                   20639033.2234
                                                                        51.7504
        42.2504
    485537.04348    386511.11746
                  20928448.5084                                   20928445.3914
                                                                        51.7504
        40.2504
  -2694244.32846  -2084991.10244
                  23964453.1414                                   23964450.4804
                                                                        41.7504
        29.5004
   1613447.98047   1257935.11344
                  24329564.3594                                   24329561.3364
                                                                        43.5004
        29.5004
  -2053015.98448  -1570172.06645
                  21665535.9534                                   21665531.4104
                                                                        49.5004
        33.0004
  -1823447.21547  -1405481.16444
                  23777860.0314                                   23777857.1994
                                                                        43.5004
        27.7504
    -72230.57848    -42327.80545
                  21896606.1804                                   21896600.1094
                                                                        48.0004
        33.5004
    667577.04347    529080.94145
                  22991240.4534                                   22991237.4804
                                                                        46.2504
        30.5004
    519409.05147    411745.68044
                  24041659.0474                                   24041654.9104
                                                                        42.0004
        27.0004
 09 10 15 23 22  0.0000000  0  9G02G04G29G12G13G10G23G30G31
  -1674931.42248  -1279484.87947
                  20616116.8204                                   20616111.1414
                                                                        51.0004
        42.5004
    450960.42648    359568.29746
                  20921868.5234                                   20921865.1524
                                                                        52.0004
        40.0004
  -2876180.25447  -2226759.33245
                  23929832.1024                                   23929829.5394
                                                                        42.0004
        31.5004
   1623795.81347   1265998.24244
                  24331533.5864                                   24331530.6054
                                                                        42.5004
        27.5004
  -2193928.43448  -1679973.94145
                  21638721.1644                                   21638716.8484
                                                                        49.0004
        33.5004
  -2025006.20347  -1562540.03544
                  23739504.5084                                   23739501.4774
                                                                        43.5004
        27.0004
   -129013.97348    -86574.60945
                  21885800.6094                                   21885794.1294
                                                                        48.5004
        33.0004
    641549.00447    508799.37545
                  22986287.1254                                   22986284.4844
                                                                        45.0004
        30.2504
    485904.75047    385638.40644
                  24035283.1804                                   24035279.0314
                                                                        42.0004
        27.2504
 09 10 15 23 22 30.0000000  0  9G02G04G29G12G13G10G23G30G31
  -1794578.09048  -1372716.05147
                  20593348.5554                                   20593343.0314
                                                                        51.5004
        42.2504
    417162.85948    333232.54346
                  20915437.0474                                   20915433.7814
                                                                        51.5004
        40.0004
  -3057550.59446  -2368086.82844
                  23895318.2734                                   23895315.8444
                                                                        41.5004
        29.7504
   1634694.82446   1274490.82444
                  24333607.3834                                   24333604.6024
                                                                        41.7504
        27.0004
  -2333973.07848  -1789099.63345
                  21612071.8054                                   21612067.3244
                                                                        49.2504
        34.5004
  -2226111.93747  -1719245.77344
                  23701235.3914                                   23701232.2704
                                                                        42.5004
        26.5004
   -184908.25448   -130128.60945
                  21875164.1954                                   21875158.0594
                                                                        48.5004
        34.5004
    616360.79347    489172.09844
                  22981493.3674                                   22981491.1764
                                                                        45.2504
        29.5004
    453190.89147    360147.10244
                  24029058.6174                                   24029054.3284
                                                                        42.0004
        29.5004
 09 10 15 23 23  0.0000000  0  9G02G04G29G12G13G10G23G30G31
  -1913422.23448  -1465321.86747
                  20570733.4224                                   20570727.7154
                                                                        51.5004
        42.5004
    384132.02048    307494.20746
                  20909151.7664                                   20909148.0314
                                                                        51.0004
        40.0004
  -3238362.84846  -2508979.41044
                  23860910.5474                                   23860908.0434
                                                                        40.7504
        28.2504
   1646131.75047   1283402.71144
                  24335784.1174                                   24335780.6334
                                                                        43.5004
        27.2504
  -2473158.75448  -1897555.99245
                  21585585.7894                                   21585581.3134
                                                                        49.5004
        34.7504
  -2426772.70347  -1875604.76244
                  23663051.2034                                   23663048.1214
                                                                        43.7504
        27.7504
   -239925.10548   -172998.91045
                  21864694.8984                                   21864688.3054
                                                                        49.2504
        34.7504
    592000.17647    470189.80544
                  22976858.2424                                   22976855.1604
                                                                        45.5004
        28.7504
    421255.30547    335262.21544
                  24022981.3054                                   24022976.8014
                                                                        42.2504
        28.0004
 09 10 15 23 23 30.0000000  0  9G02G04G29G12G13G10G23G30G31
  -2031473.65648  -1557309.99647
                  20548268.7664                                   20548262.9104
                                                                        51.7504
        42.5004
    351855.48448    282343.63346
                  20903009.5554                                   20903006.1334
                                                                        51.5004
        40.2504
  -3418626.34846  -2649444.37544
                  23826608.5944                                   23826604.6644
                                                                        40.7504
        27.5004
   1658092.16047   1292722.49644
                  24338060.5864                                   24338056.3794
                                                                        44.7504
        27.7504
  -2611494.80948  -2005350.31245
                  21559260.6094                                   21559256.4734
                                                                        49.0004
        34.5004
  -2626997.38347  -2031623.94944
                  23624949.6884                                   23624946.7704
                                                                        43.0004
        28.2504
   -294077.29747   -215195.39545
                  21854390.0944                                   21854383.6524
                                                                        47.7504
        34.0004
    568452.65647    451841.04345
                  22972377.8594                                   22972374.7584
                                                                        45.7504
        30.5004
    390084.04747    310972.91444
                  24017049.7814                                   24017045.1374
                                                                        42.5004
        28.0004
 09 10 15 23 24  0.0000000  0  9G02G04G29G12G13G10G23G30G31
  -2148742.48448  -1648688.32447
                  20525953.1414                                   20525947.7344
                                                                        52.0004
        43.0004
    320321.28548    257771.52746
                  20897008.8674                                   20897005.8134
                                                                        52.0004
        40.2504
  -3598350.14847  -2789488.84444
                  23792407.0554                                   23792404.1524
                                                                        42.2504
        26.5004
   1670561.01647   1302438.48844
                  24340433.3134                                   24340428.9614
                                                                        45.7504
        27.0004
  -2748989.40248  -2112488.93445
                  21533096.6564                                   21533092.4344
                                                                        49.0004
        34.7504
  -2826795.97747  -2187311.06244
                  23586928.7034                                   23586925.6914
                                                                        42.5004
        28.7504
   -347376.34048   -256727.12945
                  21844247.7504                                   21844241.1134
                                                                        48.0004
        34.0004
    545704.46947    434115.18845
                  22968048.2814                                   22968046.3134
                                                                        45.5004
        30.2504
    359664.25047    287269.19144
                  24011260.5554                                   24011256.1054
                                                                        42.2504
        27.0004
 09 10 15 23 24 30.0000000  0  9G02G04G29G12G13G10G23G30G31
  -2265232.12948  -1739459.46947
                  20503786.1174                                   20503780.5984
                                                                        52.0004
        43.0004
    289522.35548    233772.36746
                  20891148.2424                                   20891144.5704
                                                                        51.5004
        40.0004
  -3777534.97747  -2929113.38344
                  23758309.7114                                   23758305.8874
                                                                        42.7504
        26.5004
   1683532.31647   1312546.04744
                  24342901.4694                                   24342897.3094
                                                                        45.0004
        26.0004
  -2885647.10548  -2218975.47745
                  21507091.5234                                   21507087.2814
                                                                        48.7504
        34.0004
  -3026170.22347  -2342667.58244
                  23548988.7814                                   23548986.2154
                                                                        42.5004
        27.2504
   -399828.80948   -297599.15645
                  21834266.1954                                   21834260.0474
                                                                        48.0004
        33.5004
    523749.88747    417007.71544
                  22963870.5474                                   22963867.4804
                                                                        45.7504
        28.7504
    329990.01247    264146.40244
                  24005613.8054                                   24005609.6024
                                                                        43.0004
        25.7504
 09 10 15 23 25  0.0000000  0  9G02G04G29G12G13G10G23G30G31
  -2380952.62148  -1829631.30547
                  20481765.0784                                   20481759.7664
                                                                        51.5004
        42.7504
    259446.28148    210336.46546
                  20885425.0864                                   20885421.5904
                                                                        51.5004
        39.7504
  -3956190.19147  -3068325.27344
                  23724312.7814                                   23724309.3874
                                                                        42.7504
        29.2504
   1696991.03947   1323033.36744
                  24345462.3524                                   24345458.6604
                                                                        42.7504
        28.0004
  -3021476.48448  -2324816.55145
                  21481244.2894                                   21481239.7464
                                                                        48.7504
        34.0004
  -3225129.15247  -2497700.45744
                  23511128.5234                                   23511125.1524
                                                                        42.7504
        28.0004
   -451446.98848   -337821.10545
                  21824443.5554                                   21824437.7504
                                                                        48.0004
        33.0004
    502574.24647    400507.18444
                  22959841.1724                                   22959838.0784
                                                                        46.0004
        29.7504
    301047.61347    241593.90644
                  24000105.3284                                   24000101.7774
                                                                        43.0004
        25.7504
 09 10 15 23 25 30.0000000  0  9G02G04G29G12G13G10G23G30G31
  -2495911.59448  -1919209.72747
                  20459889.2974                                   20459883.8094
                                                                        51.7504
        42.5004
    230082.76648    187455.79746
                  20879837.0474                                   20879833.8404
                                                                        52.0004
        39.5004
  -4134321.94547  -3207129.27744
                  23690415.4454                                   23690412.5084
                                                                        43.2504
        29.7504
   1710925.39146   1333891.21144
                  24348114.0704                                   24348110.8204
                                                                        41.7504
        26.7504
  -3156484.62548  -2430017.70745
                  21455552.7894                                   21455548.6884
                                                                        49.2504
        33.7504
  -3423679.33247  -2652414.80944
                  23473345.6564                                   23473341.9144
                                                                        43.7504
        28.0004
   -502240.68448   -377400.58645
                  21814777.7114                                   21814771.5984
                                                                        48.0004
        33.5004
    482166.41847    384605.05144
                  22955957.4534                                   22955954.5594
                                                                        44.5004
        27.7504
    272826.53946    219603.47744
                  23994736.1564                                   23994731.2234
                                                                        41.5004
        25.5004
 09 10 15 23 26  0.0000000  0  9G02G04G29G12G13G10G23G30G31
  -1034691.79348   -780596.89147
                  20737950.2344                                   20737944.2934
                                                                        52.0004
        43.0004
   1776843.64148   1392724.01646
                  21174175.8674                                   21174172.5004
                                                                        51.5004
        40.2504
  -2736509.96547  -2117925.19145
                  23956410.4534                                   23956407.3794
                                                                        43.7504
        31.7504
   3300744.41047   2572711.17244
                  24650646.3054                                   24650643.3094
                                                                        42.0004
        27.5004
  -1715252.91048  -1306979.99245
                  21729810.0634                                   21729806.2704
                                                                        49.7504
        34.5004
  -2046399.86747  -1579209.97744
                  23735433.3284                                   23735429.6804
                                                                        44.5004
        28.2504
   1023202.53148    811256.46945
                  22105060.1414                                   22105053.8094
                                                                        48.7504
        33.5004
   2037936.57447   1596893.53944
                  23252010.1884                                   23252007.1954
                                                                        45.2504
        27.5004
   1820737.44946   1425767.82844
                  24289293.3754                                   24289289.0084
                                                                        41.2504
        24.5004
 09 10 15 23 26 30.0000000  0  9G02G04G29G12G13G10G23G30G31
  -1148150.65248   -869006.39547
                  20716359.5704                                   20716353.7624
                                                                        52.2504
        43.2504
   1748874.34448   1370929.75446
                  21168853.4454                                   21168850.3204
                                                                        52.0004
        40.2504
  -2913614.21947  -2255928.59045
                  23922708.7974                                   23922705.8204
                                                                        42.7504
        31.0004
   3315595.37547   2584283.28944
                  24653473.5864                                   24653469.9304
                                                                        42.2504
        29.0004
  -1848639.52048  -1410917.60245
                  21704427.4844                                   21704422.9694
                                                                        49.7504
        34.7504
  -2244152.34447  -1733302.76644
                  23697801.7894                                   23697798.7544
                                                                        42.5004
        27.7504
    974027.23848    772938.05945
                  22095702.0944                                   22095696.1994
                                                                        48.5004
        34.0004
   2019030.12947   1582161.20744
                  23248413.5084                                   23248409.6484
                                                                        47.0004
        28.5004
   1793926.03146   1404875.80143
                  24284191.0784                                   24284186.3714
                                                                        39.0004
        22.5004
 09 10 15 23 27  0.0000000  0  8G02G04G29G13G10G23G30G31
  -1260868.44148   -956838.44947
                  20694910.0394                                   20694904.4804
                                                                        52.2504
        42.5004
   1721589.69148   1349668.98046
                  21163661.3524                                   21163657.8674
                                                                        52.0004
        40.2504
  -3090212.15247  -2393537.48044
                  23889103.2424                                   23889100.0004
                                                                        43.5004
        29.7504
  -1981222.78148  -1514229.21145
                  21679197.2814                                   21679193.6684
                                                                        49.2504
        34.5004
  -2441513.94147  -1887090.93744
                  23660245.0944                                   23660242.4924
                                                                        43.2504
        28.7504
    925648.98447    735240.71945
                  22086496.0944                                   22086490.0274
                                                                        47.7504
        33.2504
   2000859.43447   1568002.25444
                  23244954.8914                                   23244952.0124
                                                                        45.7504
        29.2504
   1767805.43046   1384522.07443
                  24279220.3984                                   24279215.7894
                                                                        40.7504
        23.2504
 09 10 15 23 27 30.0000000  0  8G02G04G29G13G10G23G30G31
  -1372851.53548  -1044098.00447
                  20673600.4924                                   20673594.8674
                                                                        51.7504
        43.2504
   1694980.49648   1328934.53946
                  21158597.7274                                   21158594.2854
                                                                        52.0004
        39.7504
  -3266307.86247  -2530754.95544
                  23855593.0474                                   23855590.3954
                                                                        44.0004
        29.2504
  -2113009.21348  -1616919.92745
                  21654119.0474                                   21654115.3484
                                                                        49.7504
        34.0004
  -2638489.17647  -2040578.07044
                  23622761.9304                                   23622758.9964
                                                                        44.2504
        29.5004
    878058.42648    698157.17645
                  22077440.1334                                   22077434.1454
                                                                        48.7504
        33.5004
   1983414.99047   1554409.18545
                  23241636.1414                                   23241633.1174
                                                                        47.0004
        31.5004
   1742366.56346   1364699.57844
                  24274379.8524                                   24274375.3794
                                                                        41.0004
        24.0004
 09 10 15 23 28  0.0000000  0  8G02G04G29G13G10G23G30G31
  -1484103.83648  -1130788.10247
                  20652429.7424                                   20652424.2154
                                                                        52.5004
        42.5004
   1669040.03548   1308721.18446
                  21153661.5634                                   21153658.0554
                                                                        51.0004
        39.7504
  -3441903.93447  -2667583.12544
                  23822178.1884                                   23822175.5124
                                                                        44.5004
        29.0004
  -2244001.98048  -1718992.20345
                  21629192.3914                                   21629188.2424
                                                                        49.2504
        34.7504
  -2835080.95347  -2193766.41444
                  23585352.4304                                   23585348.9144
                                                                        45.0004
        28.7504
    831249.46948    661682.66445
                  22068532.5554                                   22068526.8134
                                                                        48.5004
        33.2504
   1966689.46947   1541376.36345
                  23238453.0084                                   23238450.4884
                                                                        44.5004
        30.0004
   1717602.33247   1345402.78544
                  24269667.3054                                   24269663.0634
                                                                        42.5004
        24.5004
 09 10 15 23 28 30.0000000  0  8G02G04G29G13G10G23G30G31
  -1594628.50048  -1216911.23847
                  20631397.3364                                   20631392.0434
                                                                        52.0004
        42.7504
   1643762.59848   1289024.50046
                  21148851.4924                                   21148847.7854
                                                                        51.7504
        39.0004
  -3617002.23447  -2804023.37145
                  23788857.7974                                   23788855.6214
                                                                        44.7504
        30.0004
  -2374203.50848  -1820447.93745
                  21604415.4064                                   21604411.4884
                                                                        49.7504
        35.0004
  -3031291.42247  -2346657.69544
                  23548014.7504                                   23548011.1334
                                                                        45.0004
        29.7504
    785216.61348    625812.91045
                  22059772.8444                                   22059766.4064
                                                                        48.2504
        32.5004
   1950675.63347   1528898.07845
                  23235405.9384                                   23235403.0124
                                                                        46.5004
        30.5004
   1693506.30546   1326626.66044
                  24265082.4844                                   24265077.7034
                                                                        40.7504
        27.0004
 09 10 15 23 29  0.0000000  0  8G02G04G29G13G10G23G30G31
  -1704431.40648  -1302471.92647
                  20610502.9384                                   20610497.1294
                                                                        52.0004
        42.7504
   1619139.68448   1269837.82446
                  21144165.7734                                   21144162.4774
                                                                        51.2504
        39.2504
  -3791607.53947  -2940079.55544
                  23755632.0004                                   23755629.0394
                                                                        45.5004
        29.2504
  -2503619.14848  -1921291.28545
                  21579789.0634                                   21579784.4884
                                                                        49.2504
        34.2504
  -3227125.51247  -2499255.65244
                  23510748.1724                                   23510745.1134
                                                                        44.0004
        28.5004
    739951.50048    590541.39545
                  22051159.0394                                   22051152.7704
                                                                        48.7504
        32.5004
   1935363.53547   1516966.57845
                  23232491.8204                                   23232488.9614
                                                                        45.0004
        30.0004
   1670069.44147   1308364.15244
                  24260623.0314                                   24260618.2544
                                                                        42.5004
        27.2504
 09 10 15 23 29 30.0000000  0  9G02G04G29G05G13G10G23G30G31
  -1813520.21948  -1387476.19147
                  20589743.9924                                   20589738.4694
                                                                        52.0004
        43.2504
   1595160.49648   1251152.74246
                  21139602.6804                                   21139599.6684
                                                                        51.5004
        39.2504
  -3965725.32047  -3075755.82445
                  23722499.0394                                   23722495.9264
                                                                        46.0004
        30.5004
   2859041.02756   2242186.63354
                  24361954.3134                                   24361951.2464
                                                                        41.5004
        28.2504
  -2632256.56648  -2021528.24245
                  21555310.3204                                   21555305.7504
                                                                        50.0004
        34.5004
  -3422589.51247  -2651565.26644
                  23473552.5394                                   23473549.6564
                                                                        42.7504
        28.7504
    695443.62548    555859.93045
                  22042689.7274                                   22042683.2464
                                                                        48.0004
        33.2504
   1920742.35947   1505573.39844
                  23229709.6024                                   23229706.6684
                                                                        44.5004
        29.7504
   1647281.15647   1290607.03544
                  24256286.7344                                   24256281.4184
                                                                        44.0004
        29.0004
 09 10 15 23 30  0.0000000  0  9G02G04G29G05G13G10G23G30G31
  -1921905.40248  -1471932.16847
                  20569118.8754                                   20569113.4774
                                                                        52.0004
        42.7504
   1571812.39848   1232959.42646
                  21135159.5084                                   21135156.2504
                                                                        52.0004
        40.5004
  -4139364.58647  -3211059.13344
                  23689456.3054                                   23689453.4144
                                                                        45.5004
        29.7504
   2662152.45746   2088767.06344
                  24324487.3674                                   24324484.5004
                                                                        40.2504
        27.5004
  -2760125.25848  -2121166.17645
                  21530977.3914                                   21530973.2894
                                                                        50.5004
        35.2504
  -3617692.84047  -2803593.81644
                  23436425.9614                                   23436422.7344
                                                                        42.0004
        28.5004
    651680.34048    521758.66045
                  22034361.5394                                   22034355.6254
                                                                        48.0004
        33.5004
   1906797.81347   1494707.48044
                  23227055.7504                                   23227053.2584
                                                                        43.2504
        28.0004
   1625127.65247   1273344.56644
                  24252070.4304                                   24252065.9264
                                                                        42.7504
        27.7504
 09 10 15 23 30 30.0000000  0  9G02G04G29G05G13G10G23G30G31
  -2029592.19548  -1555843.97347
                  20548626.8284                                   20548621.0744
                                                                        52.2504
        42.5004
   1549087.93848   1215252.03546
                  21130835.3754                                   21130831.9614
                                                                        52.7504
        40.0004
  -4312529.73047  -3345992.93945
                  23656503.7664                                   23656501.1374
                                                                        45.0004
        30.0004
   2465533.28546   1935557.43444
                  24287072.1414                                   24287068.9574
                                                                        41.0004
        27.2504
  -2887229.33648  -2220208.30945
                  21506790.1724                                   21506785.8554
                                                                        50.0004
        34.7504
  -3812439.94547  -2955344.76644
                  23399366.9534                                   23399363.3674
                                                                        42.5004
        28.2504
    608654.66447    488232.17245
                  22026174.2584                                   22026167.7974
                                                                        47.7504
        32.5004
   1893520.67247   1484361.63344
                  23224529.4924                                   23224526.8244
                                                                        43.5004
        28.7504
   1603600.68847   1256570.30144
                  24247973.7734                                   24247969.6914
                                                                        42.5004
        27.5004
 09 10 15 23 31  0.0000000  0  9G02G04G29G05G13G10G23G30G31
  -2136586.95748  -1639216.48847
                  20528266.3284                                   20528260.4734
                                                                        52.5004
        43.2504
   1526978.00448   1198023.52046
                  21126628.1254                                   21126624.7154
                                                                        52.0004
        39.7504
  -4485226.07047  -3480561.48445
                  23623640.9694                                   23623638.1174
                                                                        45.0004
        30.2504
   2269178.72747   1782553.98044
                  24249707.1724                                   24249704.1804
                                                                        44.7504
        29.0004
  -3013574.92648  -2318659.41845
                  21482747.4224                                   21482743.3054
                                                                        50.5004
        34.5004
  -4006835.61747  -3106821.91044
                  23362374.5864                                   23362371.5824
                                                                        43.5004
        28.5004
    566356.64848    455272.67245
                  22018125.0474                                   22018118.8594
                                                                        48.2504
        32.2504
   1880900.62147   1474527.76644
                  23222127.3444                                   23222124.9574
                                                                        44.2504
        28.5004
   1582689.98047   1240276.21944
                  24243995.2814                                   24243990.4224
                                                                        42.0004
        27.2504
 09 10 15 23 31 30.0000000  0  9G02G04G29G05G13G10G23G30G31
  -2242889.29748  -1722049.49647
                  20508037.9304                                   20508032.2584
                                                                        52.5004
        43.5004
   1505480.17648   1181271.96146
                  21122537.1334                                   21122533.5124
                                                                        52.2504
        39.7504
  -4657450.51947  -3614762.30245
                  23590867.3524                                   23590865.0124
                                                                        45.5004
        30.5004
   2073089.80147   1629757.43044
                  24212392.8594                                   24212389.4494
                                                                        43.5004
        28.5004
  -3139161.18448  -2416518.84045
                  21458848.9144                                   21458844.7854
                                                                        50.0004
        34.5004
  -4200878.09447  -3258023.79745
                  23325449.2584                                   23325445.7464
                                                                        43.0004
        30.0004
    524785.09048    422879.24645
                  22010214.6724                                   22010208.1684
                                                                        48.0004
        32.5004
   1868935.46147   1465204.26244
                  23219851.3364                                   23219848.3794
                                                                        44.5004
        28.5004
   1562394.19946   1224461.32044
                  24240132.4844                                   24240128.7734
                                                                        41.0004
        26.7504
 09 10 15 23 32  0.0000000  0  9G02G04G29G05G13G10G23G30G31
  -2348498.47748  -1804342.34047
                  20487941.0004                                   20487935.5004
                                                                        52.5004
        42.7504
   1484592.10248   1164995.52746
                  21118562.2584                                   21118558.7544
                                                                        52.2504
        39.5004
  -4829201.16447  -3748593.89845
                  23558184.4844                                   23558181.8364
                                                                        44.5004
        31.0004
   1877268.52347   1477169.48044
                  24175129.6024                                   24175126.2934
                                                                        44.5004
        28.0004
  -3263987.24248  -2513785.89145
                  21435095.3754                                   21435091.3554
                                                                        50.7504
        35.2504
  -4394565.53547  -3408949.05944
                  23288591.4224                                   23288588.1414
                                                                        43.0004
        28.5004
    483937.63348    391050.05945
                  22002441.5084                                   22002434.7424
                                                                        48.2504
        33.0004
   1857621.89847   1456388.46944
                  23217698.2504                                   23217695.1684
                                                                        44.5004
        28.5004
   1542710.19146   1209123.12144
                  24236386.8284                                   24236382.9844
                                                                        40.0004
        26.5004
 09 10 15 23 32 30.0000000  0  9G02G04G29G05G13G10G23G30G31
  -2453415.98848  -1886096.24247
                  20467975.8984                                   20467969.8284
                                                                        52.7504
        43.0004
   1464310.89848   1149191.98846
                  21114703.0314                                   21114699.8054
                                                                        51.2504
        40.0004
  -5000478.64847  -3882056.90244
                  23525591.6564                                   23525588.2504
                                                                        45.0004
        29.2504
   1681713.61747   1324789.05144
                  24137916.0004                                   24137913.2974
                                                                        43.5004
        28.5004
  -3388053.04348  -2610460.53545
                  21411486.9144                                   21411482.2734
                                                                        50.0004
        34.5004
  -4587898.19147  -3559597.88345
                  23251801.8914                                   23251798.1254
                                                                        45.0004
        30.5004
    443810.91448    359782.48045
                  21994805.4454                                   21994799.1644
                                                                        49.0004
        32.5004
   1846953.91447   1448075.72344
                  23215668.0164                                   23215664.5634
                                                                        45.5004
        26.7504
   1523632.97346   1194257.73844
                  24232756.3204                                   24232752.2814
                                                                        41.0004
        24.5004
 09 10 15 23 33  0.0000000  0  9G02G04G29G05G13G10G23G30G31
  -2557646.16848  -1967314.53147
                  20448141.6724                                   20448136.0204
                                                                        52.0004
        43.2504
   1444628.75848   1133855.25046
                  21110957.2814                                   21110954.4344
                                                                        51.5004
        39.2504
  -5171284.81247  -4015152.66444
                  23493088.3834                                   23493085.0594
                                                                        44.0004
        29.7504
   1486422.41046   1172614.15644
                  24100753.7504                                   24100750.6684
                                                                        40.7504
        28.0004
  -3511363.19548  -2706546.35245
                  21388021.3284                                   21388017.1094
                                                                        50.5004
        34.2504
  -4780879.10547  -3709972.60945
                  23215078.7504                                   23215075.6564
                                                                        43.2504
        30.2504
    404397.77348    329070.95745
                  21987305.5004                                   21987298.9264
                                                                        49.7504
        32.5004
   1836924.53147   1440260.57044
                  23213760.0234                                   23213756.0164
                                                                        45.0004
        27.5004
   1505155.69546   1179859.83244
                  24229240.5394                                   24229236.3594
                                                                        41.2504
        26.0004
 09 10 15 23 33 30.0000000  0  9G02G04G29G05G13G10G23G30G31
  -2661190.16048  -2047998.20347
                  20428437.6884                                   20428432.0204
                                                                        52.7504
        43.0004
   1425542.16048   1118982.55146
                  21107325.5394                                   21107321.9614
                                                                        51.5004
        39.0004
  -5341619.79347  -4147881.17645
                  23460674.3834                                   23460671.5594
                                                                        44.5004
        30.2504
   1291394.34047   1020644.21944
                  24063640.6414                                   24063637.9844
                                                                        42.5004
        29.0004
  -3633918.22348  -2802043.76245
                  21364700.2034                                   21364695.9654
                                                                        50.0004
        34.7504
  -4973508.32047  -3860073.22345
                  23178423.1644                                   23178419.6094
                                                                        45.0004
        30.2504
    365694.49648    298912.56345
                  21979940.2344                                   21979934.2734
                                                                        48.7504
        33.5004
   1827528.25447   1432938.75444
                  23211971.2974                                   23211968.3754
                                                                        45.5004
        29.7504
   1487273.50046   1165925.65244
                  24225837.8834                                   24225833.4064
                                                                        41.5004
        25.2504
 09 10 15 23 34  0.0000000  0  9G02G04G29G05G13G10G23G30G31
  -2764051.86748  -2128150.17647
                  20408863.8134                                   20408858.1724
                                                                        52.5004
        42.7504
   1407044.88748   1104569.09046
                  21103805.6174                                   21103802.1454
                                                                        51.0004
        39.0004
  -5511486.47747  -4280244.80145
                  23428349.7814                                   23428346.6094
                                                                        44.5004
        30.7504
   1096626.66446    868877.20344
                  24026577.8674                                   24026574.8754
                                                                        41.5004
        28.7504
  -3755721.05948  -2896955.04745
                  21341521.8444                                   21341518.0084
                                                                        50.5004
        35.5004
  -5165788.18047  -4009901.62945
                  23141832.8054                                   23141829.5744
                                                                        46.0004
        30.7504
    327694.81348    269302.42645
                  21972709.4224                                   21972703.3524
                                                                        49.0004
        32.5004
   1818757.19547   1426104.05144
                  23210303.0554                                   23210300.3014
                                                                        44.7504
        28.2504
   1469978.85247   1152449.31644
                  24222546.2034                                   24222541.8164
                                                                        42.0004
        24.2504
 09 10 15 23 34 30.0000000  0  9G02G04G29G05G13G10G23G30G31
  -2866232.86348  -2207771.74247
                  20389419.3984                                   20389413.6604
                                                                        52.2504
        43.0004
   1389132.35948   1090611.26646
                  21100396.8834                                   21100393.6644
                                                                        50.2504
        38.7504
  -5680883.26647  -4412242.26245
                  23396114.7504                                   23396112.2814
                                                                        44.5004
        30.0004
    902119.50047    717313.28945
                  23989564.8594                                   23989561.1214
                                                                        43.0004
        30.2504
  -3876773.42248  -2991281.57045
                  21318486.4844                                   21318482.0044
                                                                        50.5004
        35.0004
  -5357719.39847  -4159458.38745
                  23105309.6564                                   23105306.3244
                                                                        45.2504
        30.5004
    290394.86348    240237.52745
                  21965610.9774                                   21965605.1564
                                                                        48.5004
        32.5004
   1810607.12147   1419753.18044
                  23208751.4844                                   23208749.4224
                                                                        44.2504
        28.0004
   1453268.37946   1139428.18843
                  24219366.6484                                   24219361.1684
                                                                        40.0004
        23.5004
 09 10 15 23 35  0.0000000  0  9G02G04G29G05G13G10G23G30G31
  -2967734.89848  -2286864.19947
                  20370104.0704                                   20370098.5164
                                                                        52.0004
        43.2504
   1371800.07448   1077105.59846
                  21097098.8524                                   21097095.1564
                                                                        51.0004
        39.5004
  -5849811.27647  -4543874.48145
                  23363968.5554                                   23363966.6374
                                                                        43.7504
        31.5004
    707871.87947    565951.53544
                  23952600.4534                                   23952597.0474
                                                                        42.5004
        29.5004
  -3997076.63348  -3085024.33645
                  21295593.2734                                   21295589.3634
                                                                        50.5004
        35.2504
  -5549302.23847  -4308743.66044
                  23068852.0634                                   23068848.9734
                                                                        46.0004
        28.7504
    253789.71948    211714.03145
                  21958645.4924                                   21958639.3674
                                                                        48.2504
        31.7504
   1803072.57847   1413882.05544
                  23207318.0314                                   23207315.6684
                                                                        44.5004
        28.5004
   1437136.60546   1126857.98443
                  24216296.7894                                   24216291.8014
                                                                        41.7504
        22.5004
 09 10 15 23 35 30.0000000  0  9G02G04G29G05G13G10G23G30G31
  -1493138.38348  -1137827.94947
                  20650710.4694                                   20650705.0084
                                                                        52.2504
        43.5004
   2930463.28548   2291648.34846
                  21393702.0944                                   21393699.0274
                                                                        51.0004
        40.2504
  -4442847.05947  -3447538.75845
                  23631705.0944                                   23631703.0514
                                                                        43.5004
        30.7504
   2089306.88747   1642394.47744
                  24215478.5314                                   24215475.4184
                                                                        42.0004
        29.5004
  -2541208.90248  -1950581.94545
                  21572635.5784                                   21572631.0904
                                                                        51.0004
        35.5004
  -4165112.39847  -3230154.13744
                  23332254.9614                                   23332251.3834
                                                                        45.7504
        29.5004
   1793295.44948   1411328.89145
                  22251603.6884                                   22251597.2894
                                                                        48.2504
        32.7504
   3371565.62947   2636084.39144
                  23505792.3834                                   23505789.4264
                                                                        43.7504
        28.5004
   2996997.27747   2342333.87544
                  24513128.4064                                   24513123.4654
                                                                        42.0004
        25.0004
 09 10 15 23 36  0.0000000  0  9G02G04G29G05G13G10G23G30G31
  -1593293.87148  -1215871.16847
                  20631651.7034                                   20631645.7894
                                                                        52.0004
        43.0004
   2914273.86748   2279033.19946
                  21390621.8134                                   21390618.4024
                                                                        51.0004
        39.2504
  -4610844.15647  -3578445.57045
                  23599736.1484                                   23599733.7464
                                                                        43.5004
        31.5004
   1895569.05547   1491429.99645
                  24178611.5314                                   24178608.3674
                                                                        42.5004
        30.0004
  -2660022.36348  -2043163.86345
                  21550026.3284                                   21550022.2664
                                                                        50.0004
        35.5004
  -4356005.39147  -3378901.85944
                  23295929.3594                                   23295925.4384
                                                                        45.5004
        29.7504
   1758062.59048   1383874.71545
                  22244899.2274                                   22244893.1024
                                                                        48.7504
        32.7504
   3365238.47747   2631154.06644
                  23504588.1094                                   23504585.6374
                                                                        43.7504
        27.5004
   2982002.04747   2330649.30544
                  24510274.8054                                   24510269.9024
                                                                        42.2504
        24.5004
 09 10 15 23 36 30.0000000  0  9G02G04G29G05G13G10G23G30G31
  -1692780.30148  -1293393.06247
                  20612719.7344                                   20612714.3134
                                                                        52.2504
        43.0004
   2898647.66848   2266856.93046
                  21387648.4304                                   21387645.0164
                                                                        50.0004
        39.5004
  -4778377.61747  -3708991.12545
                  23567855.4774                                   23567853.0554
                                                                        44.2504
        31.2504
   1702083.63747   1340662.20344
                  24141791.7424                                   24141789.3324
                                                                        42.2504
        29.5004
  -2778094.31248  -2135167.98445
                  21527558.0784                                   21527553.5314
                                                                        50.5004
        34.7504
  -4546556.30147  -3527383.08645
                  23259668.4224                                   23259665.5204
                                                                        45.7504
        31.5004
   1723508.03548   1356949.08245
                  22238323.9064                                   22238317.7664
                                                                        49.0004
        33.5004
   3359504.99247   2626686.31344
                  23503497.5554                                   23503494.7234
                                                                        45.2504
        29.5004
   2967566.14146   2319400.55944
                  24507528.3594                                   24507523.5704
                                                                        39.5004
        26.0004
 09 10 15 23 37  0.0000000  0  9G02G04G29G05G13G10G23G30G31
  -1791597.14548  -1370393.16847
                  20593915.6414                                   20593910.0554
                                                                        52.5004
        43.0004
   2883582.32848   2255117.71946
                  21384781.2504                                   21384777.9264
                                                                        51.7504
        38.5004
  -4945444.87947  -3839173.41445
                  23536064.2274                                   23536061.3714
                                                                        44.7504
        31.7504
   1508852.73047   1190092.78144
                  24105021.5784                                   24105018.3594
                                                                        42.7504
        29.2504
  -2895424.77348  -2226594.30945
                  21505230.8284                                   21505226.7584
                                                                        50.2504
        35.2504
  -4736762.88347  -3675596.00445
                  23223473.5084                                   23223470.4774
                                                                        45.7504
        31.7504
   1689628.86348   1330549.72345
                  22231876.8284                                   22231870.9574
                                                                        48.5004
        33.2504
   3354362.68047   2622679.23044
                  23502519.4694                                   23502516.6484
                                                                        43.5004
        28.5004
   2953687.07046   2308585.67644
                  24504886.6564                                   24504882.4964
                                                                        40.7504
        25.2504
 09 10 15 23 37 30.0000000  0  9G02G04G29G05G13G10G23G30G31
  -1889746.28148  -1446873.01647
                  20575238.6174                                   20575232.9884
                                                                        52.5004
        42.7504
   2869073.85248   2243812.40646
                  21382020.3984                                   21382017.2074
                                                                        51.0004
        39.0004
  -5112046.48847  -3968992.90645
                  23504360.9304                                   23504358.4384
                                                                        44.5004
        31.5004
   1315875.37147   1039720.87145
                  24068299.2424                                   24068295.9384
                                                                        43.0004
        30.0004
  -3012014.47348  -2317443.43445
                  21483044.4144                                   21483040.0354
                                                                        50.5004
        35.0004
  -4926625.16447  -3823540.65245
                  23187344.0164                                   23187340.9344
                                                                        45.5004
        30.7504
   1656421.77048   1304674.07445
                  22225557.4454                                   22225551.7344
                                                                        48.5004
        32.5004
   3349805.89147   2619128.41844
                  23501652.1564                                   23501649.0234
                                                                        44.5004
        28.2504
   2940359.93046   2298200.86344
                  24502350.1484                                   24502346.6254
                                                                        40.5004
        24.5004
 09 10 15 23 38  0.0000000  0  9G02G04G29G05G13G10G23G30G31
  -1987229.20748  -1522833.72747
                  20556688.0554                                   20556682.5434
                                                                        53.0004
        42.7504
   2855118.20348   2232937.87946
                  21379364.9304                                   21379361.3444
                                                                        51.0004
        38.5004
  -5278182.14147  -4098449.25845
                  23472746.5164                                   23472743.6024
                                                                        44.0004
        31.0004
   1123151.27047    889546.29344
                  24031624.7504                                   24031621.2504
                                                                        44.7504
        29.7504
  -3127864.40648  -2407716.11745
                  21460998.8364                                   21460994.7774
                                                                        50.2504
        35.7504
  -5116143.58647  -3971217.34845
                  23151279.7734                                   23151276.6524
                                                                        44.5004
        31.0004
   1623882.23048   1279318.59845
                  22219365.3834                                   22219359.4304
                                                                        49.2504
        32.2504
   3345829.26647   2616029.69944
                  23500895.1804                                   23500892.3874
                                                                        45.2504
        26.5004
   2927580.03546   2288242.46944
                  24499917.8834                                   24499914.7584
                                                                        40.2504
        24.5004
 09 10 15 23 38 30.0000000  0  9G02G04G29G05G13G10G23G30G31
  -2084046.72348  -1598275.94547
                  20538264.9064                                   20538258.7664
                                                                        52.0004
        42.5004
   2841712.26248   2222491.69946
                  21376813.7034                                   21376810.3244
                                                                        50.7504
        39.0004
  -5443851.32447  -4227542.17645
                  23441220.8204                                   23441217.5124
                                                                        44.2504
        30.7504
    930680.27347    739568.91445
                  23994999.7734                                   23994995.7504
                                                                        45.5004
        31.0004
  -3242974.73448  -2497412.47745
                  21439094.1174                                   21439089.7704
                                                                        50.2504
        35.5004
  -5305317.70747  -4118625.72744
                  23115280.6094                                   23115277.6214
                                                                        43.0004
        29.5004
   1592007.12548   1254480.85945
                  22213299.8204                                   22213293.8444
                                                                        48.0004
        33.5004
   3342427.86747   2613379.18844
                  23500248.2734                                   23500244.9734
                                                                        44.0004
        26.7504
   2915343.12946   2278707.16844
                  24497590.4304                                   24497586.2894
                                                                        40.7504
        26.2504
 09 10 15 23 39  0.0000000  0  9G02G04G29G05G13G10G23G30G31
  -2180201.41048  -1673201.65647
                  20519967.0784                                   20519961.3404
                                                                        51.7504
        43.0004
   2828850.32448   2212469.42246
                  21374366.0474                                   21374362.8164
                                                                        51.2504
        39.0004
  -5609054.19147  -4356271.75845
                  23409783.4844                                   23409780.1254
                                                                        44.2504
        31.5004
    738462.01647    589788.43845
                  23958420.9064                                   23958417.4924
                                                                        46.5004
        31.0004
  -3357348.43048  -2586534.84846
                  21417329.7194                                   21417325.5164
                                                                        50.7504
        36.0004
  -5494148.18047  -4265766.36745
                  23079347.7584                                   23079343.8204
                                                                        44.2504
        30.2504
   1560790.81648   1230156.47345
                  22207359.4844                                   22207353.1644
                                                                        48.0004
        32.5004
   3339596.43047   2611172.78944
                  23499708.8984                                   23499706.7464
                                                                        43.2504
        26.5004
   2903643.85247   2269590.79744
                  24495363.8524                                   24495359.9384
                                                                        42.0004
        26.5004
 09 10 15 23 39 30.0000000  0  9G02G04G29G05G13G10G23G30G31
  -2275694.09048  -1747611.51247
                  20501795.1174                                   20501789.6214
                                                                        52.0004
        43.0004
   2816529.72748   2202868.96946
                  21372021.8204                                   21372017.9654
                                                                        51.2504
        38.7504
  -5773790.02747  -4484637.34445
                  23378435.6804                                   23378432.5594
                                                                        43.2504
        31.0004
    546496.59447    440205.05545
                  23921891.3834                                   23921887.5234
                                                                        43.7504
        30.0004
  -3470985.02748  -2675082.84045
                  21395705.3914                                   21395701.1024
                                                                        50.5004
        35.5004
  -5682634.22747  -4412638.60545
                  23043480.2734                                   23043476.3404
                                                                        43.7504
        31.0004
   1530230.66848   1206343.39145
                  22201543.7344                                   22201538.2774
                                                                        48.5004
        32.0004
   3337330.02347   2609406.65644
                  23499278.2504                                   23499275.6604
                                                                        42.7504
        28.0004
   2892478.40647   2260890.41844
                  24493239.3204                                   24493235.2034
                                                                        43.0004
        28.0004
 09 10 15 23 40  0.0000000  0  9G02G04G29G05G13G10G23G30G31
  -2370526.07448  -1821506.52747
                  20483749.5944                                   20483743.8134
                                                                        52.2504
        43.5004
   2804746.16048   2193686.98446
                  21369779.0704                                   21369775.5274
                                                                        51.7504
        39.0004
  -5938058.43447  -4612638.68445
                  23347176.1254                                   23347172.8794
                                                                        43.7504
        31.0004
    354783.34847    290818.15045
                  23885409.4534                                   23885406.3284
                                                                        45.0004
        30.5004
  -3583886.03548  -2763057.64145
                  21374220.9694                                   21374216.8984
                                                                        50.0004
        35.7504
  -5870776.26247  -4559242.79345
                  23007678.0474                                   23007674.4024
                                                                        45.0004
        32.2504
   1500322.80948   1183038.56645
                  22195852.4774                                   22195846.6724
                                                                        48.7504
        32.7504
   3335624.25847   2608077.47344
                  23498953.5704                                   23498951.0204
                                                                        42.7504
        26.0004
   2881842.61347   2252602.77344
                  24491216.0234                                   24491211.4064
                                                                        44.5004
        27.2504
 09 10 15 23 40 30.0000000  0  9G02G04G29G05G13G10G23G30G31
  -2464698.86348  -1894887.94147
                  20465828.7194                                   20465822.9184
                                                                        52.0004
        42.7504
   2793496.11348   2184920.73846
                  21367638.4774                                   21367635.1484
                                                                        51.0004
        39.0004
  -6101859.58247  -4740275.87945
                  23316005.2974                                   23316002.9344
                                                                        43.2504
        30.5004
    163322.23846    141627.70345
                  23848975.2974                                   23848972.0824
                                                                        41.5004
        30.0004
  -3696051.89548  -2850459.60945
                  21352875.9844                                   21352871.7154
                                                                        50.5004
        35.5004
  -6058574.10547  -4705578.80545
                  22971941.7034                                   22971937.9964
                                                                        44.0004
        31.5004
   1471063.32048   1160238.97745
                  22190285.0944                                   22190279.0274
                                                                        48.2504
        32.2504
   3334473.31347   2607180.62144
                  23498733.5634                                   23498732.4344
                                                                        42.0004
        27.2504
   2871730.96547   2244723.57044
                  24489292.0004                                   24489286.9574
                                                                        44.5004
        25.5004
 09 10 15 23 41  0.0000000  0  9G02G04G29G05G13G10G23G30G31
  -2558214.84048  -1967757.57847
                  20448033.3914                                   20448027.6994
                                                                        52.0004
        43.0004
   2782774.94948   2176566.58246
                  21365598.0704                                   21365595.4064
                                                                        50.7504
        38.7504
  -6265193.91047  -4867549.25845
                  23284924.1484                                   23284921.3204
                                                                        44.5004
        32.0004
    -27887.42647     -7366.85944
                  23812589.4614                                   23812586.2504
                                                                        44.0004
        29.7504
  -3807484.64548  -2937290.32045
                  21331671.3674                                   21331667.3364
                                                                        50.5004
        35.5004
  -6246028.48447  -4851647.12945
                  22936269.7194                                   22936266.6994
                                                                        43.7504
        30.2504
   1442446.81648   1137940.39845
                  22184839.6094                                   22184832.9104
                                                                        48.5004
        32.0004
   3333870.91047   2606711.23844
                  23498619.4224                                   23498617.4884
                                                                        42.7504
        25.5004
   2862138.31647   2237248.81344
                  24487466.2114                                   24487460.7074
                                                                        43.7504
        24.7504
 09 10 15 23 41 30.0000000  0  9G02G04G29G05G13G10G23G30G31
  -2651073.48048  -2040114.93047
                  20430362.8834                                   20430357.0984
                                                                        51.2504
        43.0004
   2772579.47348   2168622.03946
                  21363658.1954                                   21363655.1294
                                                                        50.7504
        38.7504
  -6428058.66447  -4994456.84845
                  23253932.5004                                   23253929.7074
                                                                        45.7504
        33.0004
   -218843.92247   -156164.03945
                  23776252.4064                                   23776248.5204
                                                                        45.0004
        31.0004
  -3918184.44948  -3023549.92246
                  21310606.0474                                   21310601.6174
                                                                        50.2504
        36.2504
  -6433137.98447  -4997446.71545
                  22900664.2974                                   22900660.8444
                                                                        44.2504
        32.0004
   1414471.71548   1116141.64145
                  22179515.9224                                   22179509.3094
                                                                        48.7504
        32.0004
   3333814.69547   2606667.41844
                  23498609.3984                                   23498607.1174
                                                                        44.0004
        28.0004
   2853063.38347   2230177.45743
                  24485739.2734                                   24485733.7664
                                                                        43.2504
        22.7504
 09 10 15 23 42  0.0000000  0  9G02G04G29G05G13G10G23G30G31
  -2743278.34848  -2111962.85947
                  20412817.2424                                   20412811.2504
                                                                        51.2504
        43.0004
   2762904.73448   2161083.28546
                  21361817.0704                                   21361813.9964
                                                                        50.5004
        39.0004
  -6590456.61347  -5121000.69945
                  23223028.9454                                   23223025.9224
                                                                        44.0004
        33.0004
   -409550.02747   -304766.17645
                  23739961.8674                                   23739957.7624
                                                                        44.2504
        30.2504
  -4028153.81648  -3109240.38346
                  21289679.7584                                   21289675.7384
                                                                        50.2504
        36.2504
  -6619904.23447  -5142978.85245
                  22865123.7664                                   22865120.6254
                                                                        44.5004
        32.2504
   1387131.61748   1094837.69145
                  22174313.0634                                   22174307.1804
                                                                        48.5004
        32.0004
   3334296.98047   2607043.23044
                  23498700.6954                                   23498698.8714
                                                                        44.0004
        28.2504
   2844497.56646   2223502.80143
                  24484108.7194                                   24484103.6454
                                                                        40.2504
        22.5004
 09 10 15 23 42 30.0000000  0  9G02G04G29G05G13G10G23G30G31
  -2834830.21948  -2183301.96547
                  20395395.2194                                   20395389.3364
                                                                        51.7504
        42.7504
   2753747.37148   2153947.66446
                  21360074.4774                                   21360071.1294
                                                                        50.0004
        38.2504
  -6752385.71147  -5247179.19945
                  23192214.9534                                   23192211.7704
                                                                        43.5004
        31.5004
   -600004.60547   -453172.31645
                  23703719.5234                                   23703716.0904
                                                                        44.5004
        31.0004
  -4137392.85248  -3194361.71945
                  21268891.9534                                   21268887.7974
                                                                        50.5004
        35.5004
  -6806326.24247  -5288242.80545
                  22829648.4614                                   22829645.2074
                                                                        46.2504
        31.5004
   1360423.48447   1074026.16045
                  22169231.1024                                   22169224.7814
                                                                        47.5004
        31.5004
   3335313.71947   2607835.48844
                  23498894.5634                                   23498891.9414
                                                                        43.0004
        26.2504
   2836438.46945   2217222.98043
                  24482574.8134                                   24482570.6484
                                                                        35.7504
        20.2504
 09 10 15 23 43  0.0000000  0  9G02G04G29G05G13G10G23G30G31
  -2925729.65248  -2254132.63747
                  20378097.1724                                   20378091.6884
                                                                        52.5004
        43.0004
   2745104.57048   2147212.99646
                  21358429.7974                                   21358426.5664
                                                                        49.7504
        38.5004
  -6913846.42347  -5372992.67045
                  23161489.4224                                   23161486.8014
                                                                        44.5004
        31.5004
   -790208.03947   -601382.72745
                  23667524.3284                                   23667521.1724
                                                                        43.5004
        30.2504
  -4245901.54348  -3278913.94546
                  21248243.2424                                   21248239.1174
                                                                        50.5004
        36.5004
  -6992403.56647  -5433238.15245
                  22794239.8594                                   22794235.9574
                                                                        45.7504
        31.7504
   1334344.16848   1053704.62145
                  22164268.5004                                   22164262.2624
                                                                        48.5004
        32.2504
   3336859.20747   2609039.79344
                  23499188.4844                                   23499186.0904
                                                                        42.7504
        27.2504
   2828880.77346   2211333.82043
                  24481136.8284                                   24481132.5944
                                                                        38.7504
        20.2504
 09 10 15 23 43 30.0000000  0  9G02G04G29G05G13G10G23G30G31
  -3015977.21148  -2324455.42247
                  20360923.8594                                   20360918.2304
                                                                        52.5004
        43.2504
   2736972.83248   2140876.56346
                  21356882.3914                                   21356879.5274
                                                                        50.0004
        39.0004
  -7074834.60547  -5498438.00445
                  23130854.4614                                   23130851.1604
                                                                        44.0004
        30.5004
   -980157.43447   -749395.23445
                  23631378.2034                                   23631374.9064
                                                                        43.0004
        31.5004
  -4353680.71148  -3362897.70745
                  21227733.9064                                   21227729.6024
                                                                        50.7504
        35.5004
  -7178133.83247  -5577963.03545
                  22758896.3204                                   22758892.4774
                                                                        45.2504
        31.5004
   1308890.86348   1033870.88345
                  22159424.3134                                   22159418.1844
                                                                        48.2504
        32.2504
   3338932.43847   2610655.33644
                  23499582.8914                                   23499580.3594
                                                                        43.0004
        25.0004
   2821823.84846   2205834.85243
                  24479793.9924                                   24479789.6174
                                                                        39.7504
        22.5004
 09 10 15 23 44  0.0000000  0  9G02G04G29G05G13G10G23G30G31
  -3105573.78148  -2394270.94547
                  20343874.2424                                   20343868.8594
                                                                        52.5004
        43.5004
   2729349.33648   2134936.16846
                  21355431.3284                                   21355428.4384
                                                                        49.5004
        38.5004
  -7235351.89847  -5623516.43745
                  23100309.2034                                   23100305.8984
                                                                        45.0004
        31.5004
  -1169854.22747   -897210.91845
                  23595280.2894                                   23595276.9024
                                                                        43.7504
        32.0004
  -4460730.46948  -3446313.10946
                  21207363.1254                                   21207359.0124
                                                                        50.5004
        36.0004
  -7363517.44547  -5722417.76245
                  22723618.6414                                   22723615.6724
                                                                        44.5004
        31.2504
   1284059.94547   1014522.13745
                  22154699.4694                                   22154693.4614
                                                                        47.7504
        33.2504
   3341525.98847   2612676.32844
                  23500076.6334                                   23500073.5664
                                                                        42.7504
        26.5004
   2815261.04746   2200720.94544
                  24478545.2194                                   24478541.5864
                                                                        41.7504
        26.0004
 09 10 15 23 44 30.0000000  0  9G02G04G29G05G13G10G23G30G31
  -3194520.41048  -2463580.02347
                  20326948.0944                                   20326942.6764
                                                                        51.7504
        43.0004
   2722230.26648   2129388.83246
                  21354076.7974                                   21354073.5984
                                                                        49.5004
        38.5004
  -7395396.60947  -5748226.63345
                  23069853.8134                                   23069850.7854
                                                                        45.0004
        31.2504
  -1359297.50447  -1044829.05145
                  23559229.7584                                   23559226.9574
                                                                        44.2504
        31.7504
  -4567051.85948  -3529160.96546
                  21187130.6724                                   21187126.7664
                                                                        50.0004
        36.0004
  -7548553.68047  -5866601.78945
                  22688407.2504                                   22688404.0864
                                                                        45.7504
        32.5004
   1259848.00047    995655.68445
                  22150091.7424                                   22150086.0164
                                                                        47.7504
        32.5004
   3344636.44147   2615100.14544
                  23500668.1414                                   23500665.2664
                                                                        43.0004
        25.2504
   2809189.41446   2195989.81644
                  24477390.1174                                   24477385.9304
                                                                        40.2504
        28.0004
 09 10 15 23 45  0.0000000  0 10G02G04G29G05G13G10G23G25G30G31
  -3282819.14148  -2532384.20747
                  20310145.5164                                   20310139.8094
                                                                        51.2504
        43.5004
   2715611.52748   2124231.34846
                  21352817.5554                                   21352814.3094
                                                                        50.0004
        38.5004
  -7554968.69147  -5872568.53145
                  23039487.8594                                   23039485.1564
                                                                        45.5004
        31.7504
  -1548487.67647  -1192249.94945
                  23523228.3834                                   23523224.8554
                                                                        44.7504
        31.5004
  -4672646.18048  -3611442.25846
                  21167036.9224                                   21167032.5824
                                                                        50.5004
        36.0004
  -7733242.91847  -6010515.44545
                  22653262.2664                                   22653259.2704
                                                                        46.0004
        32.7504
   1236250.24648    977267.82045
                  22145601.6254                                   22145595.4384
                                                                        48.2504
        32.0004
   4476375.02356   3523214.69553
                  24056332.8834                                   24056329.2464
                                                                        39.0004
        19.5004
   3348258.50846   2617922.70344
                  23501357.5944                                   23501354.8674
                                                                        41.7504
        24.5004
   2803603.84047   2191637.41444
                  24476326.9304                                   24476323.1134
                                                                        42.5004
        28.0004
 09 10 15 23 45 30.0000000  0  9G02G04G29G05G13G10G23G25G30
  -1795050.94948  -1373084.28947
                  20593258.5944                                   20593252.5314
                                                                        51.5004
        43.5004
   4284907.30948   3347059.23446
                  21651444.4144                                   21651441.3554
                                                                        49.5004
        37.7504
  -6138645.57447  -4768940.09045
                  23309005.3834                                   23309002.6994
                                                                        46.5004
        32.2504
   -162001.05947   -111870.75045
                  23787068.6804                                   23787065.1334
                                                                        44.7504
        31.5004
  -3202093.49248  -2465557.04745
                  21446873.7894                                   21446869.3794
                                                                        50.2504
        35.0004
  -6342161.29347  -4926555.70745
                  22917976.4924                                   22917973.2114
                                                                        46.2504
        33.0004
   2788681.13748   2186954.23445
                  22441019.0864                                   22441012.8874
                                                                        48.0004
        31.5004
   5883397.68046   4619595.95743
                  24324080.2974                                   24324077.3164
                                                                        40.0004
        20.7504
   4927803.84046   3848737.44544
                  23801934.5634                                   23801931.9614
                                                                        41.7504
        26.5004
 09 10 15 23 46  0.0000000  0  9G02G04G29G05G13G10G23G25G30
  -1882063.32448  -1440886.10247
                  20576700.3834                                   20576694.8094
                                                                        52.0004
        43.0004
   4279272.42648   3342668.42646
                  21650372.3054                                   21650369.0664
                                                                        49.5004
        38.0004
  -6297276.87547  -4892548.87945
                  23278818.9534                                   23278816.2034
                                                                        46.5004
        32.5004
   -350690.21547   -258901.25845
                  23751162.1724                                   23751158.7304
                                                                        45.0004
        31.5004
  -3306242.67648  -2546712.24245
                  21427054.6254                                   21427050.4264
                                                                        50.5004
        35.5004
  -6526161.22347  -5069932.23845
                  22882962.0554                                   22882958.9264
                                                                        46.2504
        32.5004
   2766295.24247   2169510.68845
                  22436759.3364                                   22436752.9494
                                                                        47.0004
        31.2504
   5715347.54746   4488647.83643
                  24292101.6024                                   24292098.5634
                                                                        41.5004
        22.5004
   4932427.85947   3852340.63344
                  23802815.0394                                   23802812.0864
                                                                        43.0004
        26.5004
 09 10 15 23 46 30.0000000  0  9G02G04G29G05G13G10G23G25G30
  -1968428.90648  -1508183.94947
                  20560265.5394                                   20560260.0744
                                                                        52.7504
        43.0004
   4274129.25448   3338660.75046
                  21649393.7424                                   21649390.2034
                                                                        50.5004
        38.0004
  -6455430.98047  -5015785.81245
                  23248723.3984                                   23248720.5514
                                                                        45.7504
        32.7504
   -539122.95347   -405731.93745
                  23715304.8284                                   23715300.9024
                                                                        45.0004
        31.2504
  -3409665.25848  -2627301.27745
                  21407374.2194                                   21407370.1134
                                                                        49.5004
        35.5004
  -6709810.09047  -5213035.26245
                  22848015.2274                                   22848011.8914
                                                                        45.5004
        31.7504
   2744515.34448   2152539.33245
                  22432615.0314                                   22432608.8134
                                                                        48.0004
        31.5004
   5547657.05147   4357979.96143
                  24260191.0784                                   24260188.2194
                                                                        42.2504
        22.7504
   4937551.36347   3856333.06644
                  23803789.4534                                   23803787.0984
                                                                        42.0004
        26.5004
 09 10 15 23 47  0.0000000  0  9G02G04G29G05G13G10G23G25G30
  -2054142.36748  -1574973.64547
                  20543954.8054                                   20543948.9734
                                                                        52.0004
        42.5004
   4269481.13748   3335038.82846
                  21648509.3054                                   21648505.8244
                                                                        50.2504
        38.2504
  -6613101.16047  -5138645.52345
                  23218719.2424                                   23218716.6914
                                                                        46.5004
        33.0004
   -727292.63747   -552357.65645
                  23679496.3054                                   23679493.2584
                                                                        44.5004
        32.0004
  -3512355.49648  -2707319.64546
                  21387832.4614                                   21387828.6484
                                                                        50.2504
        36.2504
  -6893101.21947  -5355859.51245
                  22813135.7664                                   22813132.1484
                                                                        45.7504
        32.0004
   2723343.80548   2136042.01645
                  22428585.9924                                   22428579.8094
                                                                        48.0004
        32.2504
   5380333.82046   4227598.23843
                  24228350.2424                                   24228346.8754
                                                                        41.7504
        22.7504
   4943175.72747   3860715.81344
                  23804859.2504                                   23804857.2034
                                                                        42.0004
        24.7504
 09 10 15 23 47 30.0000000  0  9G02G04G29G05G13G10G23G25G30
  -2139205.09048  -1641256.28547
                  20527767.8364                                   20527762.2034
                                                                        52.7504
        43.0004
   4265324.55948   3331799.93046
                  21647718.0474                                   21647714.7464
                                                                        49.5004
        38.0004
  -6770286.74247  -5261127.77745
                  23188807.7504                                   23188805.0004
                                                                        44.7504
        31.7504
   -915199.38747   -698778.47745
                  23643739.2034                                   23643736.1054
                                                                        44.5004
        31.0004
  -3614314.24248  -2786768.02046
                  21368430.8364                                   21368426.6254
                                                                        50.0004
        36.0004
  -7076033.84447  -5498404.43445
                  22778325.0474                                   22778321.6254
                                                                        46.7504
        32.5004
   2702777.33248   2120016.20745
                  22424672.5784                                   22424666.0744
                                                                        48.0004
        32.5004
   5213379.15647   4097503.69943
                  24196579.7974                                   24196576.9694
                                                                        42.0004
        21.5004
   4949296.32847   3865485.16444
                  23806024.3754                                   23806022.2894
                                                                        42.5004
        24.7504
 09 10 15 23 48  0.0000000  0  9G02G04G29G05G13G10G23G25G30
  -2223619.57048  -1707033.79747
                  20511704.3364                                   20511698.8794
                                                                        52.2504
        42.7504
   4261654.12948   3328939.85246
                  21647019.3284                                   21647016.4144
                                                                        50.5004
        38.0004
  -6926988.14547  -5383232.75845
                  23158988.7974                                   23158985.9804
                                                                        45.0004
        32.7504
  -1102843.84847   -844994.91445
                  23608031.6884                                   23608028.3364
                                                                        45.0004
        30.7504
  -3715544.18048  -2865648.49646
                  21349167.1954                                   21349162.8954
                                                                        49.7504
        36.2504
  -7258608.85547  -5640670.67645
                  22743582.3054                                   22743579.0634
                                                                        46.7504
        33.2504
   2682810.12547   2104457.34845
                  22420872.7894                                   22420866.4454
                                                                        47.7504
        31.5004
   5046792.00446   3967695.56643
                  24164879.7114                                   24164876.0664
                                                                        41.2504
        21.5004
   4955907.61747   3870636.93444
                  23807282.8134                                   23807279.8284
                                                                        44.2504
        27.2504
 09 10 15 23 48 30.0000000  0  9G02G04G29G05G13G10G23G25G30
  -2307387.71148  -1772307.66447
                  20495764.0234                                   20495758.2234
                                                                        53.0004
        43.0004
   4258466.00048   3326455.59046
                  21646413.0634                                   21646409.6804
                                                                        50.2504
        38.0004
  -7083206.06247  -5504961.05145
                  23129261.3444                                   23129258.6214
                                                                        45.0004
        32.7504
  -1290226.78147   -991007.57045
                  23572374.0394                                   23572370.6374
                                                                        45.2504
        32.5004
  -3816046.75448  -2943962.19146
                  21330042.3444                                   21330038.1024
                                                                        50.0004
        37.0004
  -7440826.94547  -5782658.78945
                  22708907.2974                                   22708904.3284
                                                                        46.5004
        34.0004
   2663438.51648   2089362.61345
                  22417186.6564                                   22417180.1954
                                                                        48.0004
        31.2504
   4880573.79746   3838175.05543
                  24133248.6724                                   24133245.9694
                                                                        39.5004
        20.0004
   4963002.86747   3876165.82044
                  23808632.7344                                   23808630.3364
                                                                        45.0004
        27.7504
 09 10 15 23 49  0.0000000  0  9G02G04G29G05G13G10G23G25G30
  -2390512.02348  -1837079.86747
                  20479945.6954                                   20479940.5234
                                                                        52.7504
        43.5004
   4255755.27748   3324343.32846
                  21645897.1484                                   21645894.1094
                                                                        50.5004
        37.5004
  -7238939.85547  -5626312.10245
                  23099626.1564                                   23099623.2154
                                                                        44.5004
        31.7504
  -1477348.52747  -1136816.70745
                  23536765.8204                                   23536762.9694
                                                                        45.0004
        32.7504
  -3915824.33648  -3021710.96546
                  21311055.0314                                   21311050.8874
                                                                        50.2504
        36.7504
  -7622688.39547  -5924369.00845
                  22674300.1804                                   22674297.1764
                                                                        46.2504
        34.0004
   2644657.39547   2074727.96945
                  22413612.3284                                   22413606.4694
                                                                        47.5004
        31.5004
   4714723.61746   3708941.22743
                  24101688.0004                                   24101685.4884
                                                                        39.2504
        19.2504
   4970577.45347   3882068.20344
                  23810073.4774                                   23810071.0664
                                                                        44.5004
        25.2504
 09 10 15 23 49 30.0000000  0  9G02G04G29G05G13G10G23G25G30
  -2472994.24248  -1901351.78147
                  20464250.0084                                   20464244.4924
                                                                        52.7504
        42.7504
   4253518.19548   3322600.12946
                  21645471.4534                                   21645468.1174
                                                                        50.0004
        38.2504
  -7394190.41047  -5747286.71545
                  23070083.3754                                   23070080.3794
                                                                        45.0004
        33.5004
  -1664209.85547  -1282422.90245
                  23501207.5944                                   23501203.8244
                                                                        43.7504
        33.0004
  -4014877.60548  -3098895.32446
                  21292206.1564                                   21292202.0554
                                                                        49.5004
        36.5004
  -7804193.14147  -6065801.27745
                  22639760.5944                                   22639757.5234
                                                                        47.0004
        33.5004
   2626462.85547   2060550.39545
                  22410150.4694                                   22410144.1564
                                                                        47.0004
        30.2504
   4549242.68046   3579995.13343
                  24070198.6564                                   24070195.2544
                                                                        41.0004
        20.7504
   4978625.05947   3888339.08244
                  23811605.5394                                   23811603.0664
                                                                        44.7504
        27.2504
 09 10 15 23 50  0.0000000  0  9G02G04G29G05G13G10G23G25G30
  -2554834.23048  -1965123.20347
                  20448676.1804                                   20448671.0664
                                                                        52.2504
        42.7504
   4251752.09848   3321223.95346
                  21645135.5704                                   21645132.2504
                                                                        50.0004
        37.5004
  -7548954.78547  -5867882.33245
                  23040632.5234                                   23040629.7734
                                                                        44.5004
        33.7504
  -1850808.41047  -1427824.36745
                  23465698.9384                                   23465695.4184
                                                                        44.7504
        32.2504
  -4113207.09848  -3175515.71546
                  21273494.4614                                   21273490.7034
                                                                        49.7504
        36.7504
  -7985339.08647  -6206953.96145
                  22605290.2664                                   22605286.9924
                                                                        47.0004
        32.5004
   2608851.92647   2046827.58245
                  22406798.6254                                   22406793.1334
                                                                        46.7504
        31.2504
   4384132.69546   3451338.02343
                  24038778.9384                                   24038775.3054
                                                                        41.7504
        20.5004
   4987142.99247   3894976.56344
                  23813226.2344                                   23813223.3094
                                                                        44.5004
        27.5004
 09 10 15 23 50 30.0000000  0  9G02G04G29G05G13G10G23G25G30
  -2636032.88348  -2028394.84847
                  20433224.8754                                   20433218.7734
                                                                        52.7504
        43.0004
   4250454.07848   3320212.52046
                  21644888.1724                                   21644885.3484
                                                                        50.7504
        38.0004
  -7703232.28547  -5988098.60945
                  23011274.8284                                   23011271.7114
                                                                        44.5004
        33.5004
  -2037143.61347  -1573020.61745
                  23430240.5704                                   23430236.8164
                                                                        45.0004
        31.5004
  -4210812.91848  -3251572.19546
                  21254920.9844                                   21254916.7074
                                                                        50.0004
        36.2504
  -8166125.71947  -6347826.63745
                  22570887.3594                                   22570884.0044
                                                                        46.7504
        32.7504
   2591821.50847   2033557.12545
                  22403558.1884                                   22403552.5704
                                                                        47.0004
        31.2504
   4219395.39547   3322971.33643
                  24007430.8524                                   24007427.0904
                                                                        43.2504
        22.2504
   4996126.56647   3901976.71544
                  23814935.5634                                   23814932.5704
                                                                        43.5004
        26.0004
 09 10 15 23 51  0.0000000  0  9G02G04G29G05G13G10G23G25G30
  -2716591.68748  -2091167.94547
                  20417895.2034                                   20417889.4734
                                                                        52.0004
        43.0004
   4249620.28948   3319562.81646
                  21644729.8284                                   21644726.5864
                                                                        50.0004
        37.0004
  -7857022.65247  -6107935.32445
                  22982009.4304                                   22982006.2194
                                                                        43.2504
        33.5004
  -2223215.79347  -1718011.90245
                  23394831.5084                                   23394828.5594
                                                                        44.2504
        31.0004
  -4307696.69948  -3327066.05146
                  21236484.4384                                   21236480.5314
                                                                        49.7504
        37.0004
  -8346552.59047  -6488418.95345
                  22536553.1414                                   22536549.8404
                                                                        47.0004
        33.2504
   2575367.55547   2020735.86345
                  22400427.0164                                   22400421.1844
                                                                        47.2504
        31.0004
   4055031.90647   3194895.96543
                  23976153.1254                                   23976150.0984
                                                                        42.5004
        22.7504
   5005570.69547   3909335.78944
                  23816733.2734                                   23816730.0594
                                                                        44.0004
        24.2504
 09 10 15 23 51 30.0000000  0  9G02G04G29G05G13G10G23G25G30
  -2796511.84448  -2153443.39547
                  20402686.7584                                   20402681.0824
                                                                        53.0004
        43.0004
   4249247.68448   3319272.47346
                  21644658.8054                                   21644655.5744
                                                                        50.5004
        38.0004
  -8010324.34847  -6227391.27345
                  22952836.7894                                   22952833.9344
                                                                        44.5004
        33.7504
  -2409024.07447  -1862797.58245
                  23359473.7814                                   23359469.9694
                                                                        44.2504
        30.7504
  -4403858.79348  -3401997.56646
                  21218185.2114                                   21218181.3244
                                                                        49.0004
        36.0004
  -8526618.74647  -6628730.20345
                  22502287.7974                                   22502284.5234
                                                                        47.2504
        33.5004
   2559486.82047   2008361.25045
                  22397404.9144                                   22397399.0354
                                                                        47.7504
        31.0004
   3891043.69547   3067113.02743
                  23944947.5784                                   23944943.9384
                                                                        42.0004
        23.0004
   5015471.21047   3917050.44744
                  23818616.3054                                   23818613.2504
                                                                        43.0004
        24.5004
 09 10 15 23 52  0.0000000  0  9G02G04G29G05G13G10G23G25G30
  -2875791.53548  -2215219.77047
                  20387600.2504                                   20387594.5124
                                                                        52.5004
        42.5004
   4249335.46948   3319340.87946
                  21644675.3914                                   21644672.2034
                                                                        51.5004
        38.0004
  -8163134.62547  -6346464.33645
                  22923758.0084                                   22923755.6724
                                                                        44.0004
        33.5004
  -2594565.31247  -2007375.14545
                  23324166.7664                                   23324163.0474
                                                                        46.2504
        33.0004
  -4499297.67648  -3476365.52345
                  21200023.8834                                   21200019.7034
                                                                        49.0004
        35.5004
  -8706321.20347  -6768758.05945
                  22468091.5314                                   22468088.0394
                                                                        47.5004
        34.0004
   2544178.21947   1996432.46945
                  22394492.0004                                   22394485.8324
                                                                        46.7504
        31.2504
   3727434.41446   2939625.37143
                  23913812.5004                                   23913810.1214
                                                                        40.2504
        22.0004
   5025826.30547   3925119.60543
                  23820587.0084                                   23820584.0634
                                                                        44.2504
        22.7504
 09 10 15 23 52 30.0000000  0  9G02G04G29G05G13G10G23G25G30
  -2954433.19148  -2276498.96947
                  20372635.3134                                   20372629.5664
                                                                        53.0004
        43.0004
   4249879.00048   3319764.40246
                  21644778.3984                                   21644775.9144
                                                                        50.5004
        37.5004
  -8315452.64847  -6465153.69145
                  22894772.5554                                   22894770.2384
                                                                        43.7504
        33.5004
  -2779839.82047  -2151744.87145
                  23288910.0314                                   23288906.6024
                                                                        46.5004
        34.0004
  -4594015.53148  -3550171.66046
                  21181999.4614                                   21181995.8524
                                                                        49.2504
        36.2504
  -8885659.79747  -6908502.40645
                  22433964.5944                                   22433960.9774
                                                                        46.5004
        33.5004
   2529437.61347   1984946.27745
                  22391686.8284                                   22391680.7194
                                                                        47.0004
        31.2504
   3564204.29746   2812433.12143
                  23882751.5084                                   23882748.3524
                                                                        40.2504
        21.5004
   5036630.06347   3933538.18443
                  23822642.8984                                   23822639.9144
                                                                        44.0004
        22.2504
 09 10 15 23 53  0.0000000  0  9G02G04G29G05G13G10G23G25G30
  -3032436.91048  -2337281.09447
                  20357791.4694                                   20357786.2584
                                                                        52.5004
        42.7504
   4250876.11748   3320541.37146
                  21644968.6484                                   21644965.8204
                                                                        50.7504
        37.5004
  -8467277.77047  -6583458.94145
                  22865881.3914                                   22865879.0044
                                                                        44.2504
        33.5004
  -2964846.68047  -2295906.03945
                  23253704.4614                                   23253700.8134
                                                                        46.0004
        33.7504
  -4688012.54748  -3623416.07845
                  21164112.5554                                   21164108.9534
                                                                        49.7504
        35.7504
  -9064633.13747  -7047962.14545
                  22399907.1094                                   22399904.0704
                                                                        47.0004
        34.2504
   2515261.48047   1973899.96145
                  22388989.5474                                   22388983.0044
                                                                        47.0004
        31.0004
   3401355.65646   2685538.14543
                  23851762.4384                                   23851759.3794
                                                                        41.5004
        22.5004
   5047878.08247   3942302.87544
                  23824783.8444                                   23824780.6724
                                                                        45.2504
        24.5004
 09 10 15 23 53 30.0000000  0  9G02G04G29G05G13G10G23G25G30
  -3109801.66848  -2397565.30147
                  20343069.6254                                   20343063.8404
                                                                        52.5004
        43.0004
   4252325.22348   3321670.55146
                  21645244.3984                                   21645241.0084
                                                                        49.5004
        37.5004
  -8618606.06647  -6701377.17645
                  22837084.8444                                   22837082.1914
                                                                        44.5004
        32.2504
  -3149582.86747  -2439856.32045
                  23218550.0864                                   23218546.7114
                                                                        45.7504
        33.2504
  -4781287.00848  -3696097.46946
                  21146362.8134                                   21146358.9024
                                                                        49.5004
        36.2504
  -9243238.33247  -7187134.96545
                  22365919.0784                                   22365916.4184
                                                                        46.7504
        34.0004
   2501648.85547   1963292.70345
                  22386398.6884                                   22386392.7074
                                                                        47.7504
        31.0004
   3238891.61746   2558942.84043
                  23820846.4924                                   23820842.9344
                                                                        41.5004
        22.5004
   5059569.41047   3951413.01244
                  23827008.3364                                   23827005.0634
                                                                        45.5004
        26.5004
 09 10 15 23 54  0.0000000  0  9G02G04G29G05G13G10G23G25G30
  -3186530.38748  -2457353.91047
                  20328468.4614                                   20328462.7344
                                                                        52.5004
        43.5004
   4254221.46948   3323148.12546
                  21645605.2274                                   21645601.9654
                                                                        50.2504
        37.5004
  -8769439.10947  -6818909.44545
                  22808382.3524                                   22808379.5044
                                                                        45.2504
        33.5004
  -3334049.44147  -2583596.50045
                  23183447.1804                                   23183444.0164
                                                                        44.2504
        32.5004
  -4873841.91448  -3768218.15646
                  21128750.3204                                   21128745.9884
                                                                        48.7504
        36.2504
  -9421476.57047  -7326021.87145
                  22332001.8914                                   22331998.5554
                                                                        47.0004
        33.5004
   2488594.10947   1953120.19545
                  22383914.5474                                   22383908.6414
                                                                        46.5004
        30.7504
   3076812.04346   2432647.10543
                  23790004.2584                                   23790000.2704
                                                                        41.7504
        21.7504
   5071696.56647   3960862.70344
                  23829315.9774                                   23829313.1024
                                                                        44.5004
        27.2504
 09 10 15 23 54 30.0000000  0  9G02G04G29G05G13G10G23G25G30
  -3262622.41848  -2516646.41447
                  20313988.7734                                   20313983.1804
                                                                        52.0004
        42.7504
   4256563.75048   3324973.23446
                  21646051.1094                                   21646047.5784
                                                                        50.5004
        37.5004
  -8919773.31647  -6936052.96545
                  22779774.8204                                   22779771.9614
                                                                        45.2504
        34.0004
  -3518243.87947  -2727124.60545
                  23148395.2344                                   23148392.6994
                                                                        44.5004
        33.0004
  -4965676.15248  -3839777.27046
                  21111274.7424                                   21111271.0204
                                                                        49.0004
        36.0004
  -9599344.73447  -7464620.44945
                  22298155.0164                                   22298151.1604
                                                                        47.5004
        34.7504
   2476096.10947   1943381.49645
                  22381536.2274                                   22381529.8914
                                                                        45.7504
        30.5004
   2915120.28947   2306653.57443
                  23759235.8054                                   23759230.8324
                                                                        42.5004
        22.0004
   5084257.32047   3970650.16044
                  23831706.6884                                   23831703.7664
                                                                        43.0004
        25.7504
 09 10 15 23 55  0.0000000  0  9G02G04G29G05G13G10G23G25G30
  -3338079.50448  -2575444.14147
                  20299629.7814                                   20299624.0354
                                                                        51.2504
        42.5004
   4259347.77048   3327142.57846
                  21646580.9694                                   21646577.4454
                                                                        49.7504
        37.5004
  -9069608.31247  -7052807.43445
                  22751261.9774                                   22751259.1454
                                                                        44.2504
        34.0004
  -3702165.70347  -2870440.33645
                  23113397.4454                                   23113393.5394
                                                                        46.0004
        33.0004
  -5056791.45348  -3910776.18746
                  21093936.3444                                   21093932.1564
                                                                        48.5004
        36.0004
  -9776842.83647  -7602930.64545
                  22264377.8284                                   22264373.8794
                                                                        46.5004
        34.5004
   2464150.37547   1934073.14845
                  22379262.9614                                   22379257.0784
                                                                        45.5004
        30.2504
   2753816.58247   2180962.37543
                  23728539.7034                                   23728536.4534
                                                                        42.2504
        22.7504
   5097247.26246   3980772.11344
                  23834177.8284                                   23834175.8594
                                                                        41.0004
        24.7504
 09 10 15 23 55 30.0000000  0  9G02G04G29G05G13G10G23G25G30
  -1837479.91848  -1406145.78547
                  20585184.3444                                   20585178.5664
                                                                        52.0004
        42.2504
   5837990.95348   4557254.14146
                  21946986.7584                                   21946983.5864
                                                                        49.0004
        37.0004
  -7643518.89147  -5941568.98845
                  23022637.6254                                   23022634.8054
                                                                        44.2504
        33.2504
  -2310388.66047  -1785938.76645
                  23378243.6414                                   23378240.1604
                                                                        46.5004
        33.7504
  -3571765.00848  -2753612.71146
                  21376527.3284                                   21376523.2154
                                                                        49.2504
        36.7504
  -8378543.94547  -6513347.10945
                  22530465.5784                                   22530462.1334
                                                                        46.5004
        34.5004
   4028174.03947   3152792.87945
                  22676886.4924                                   22676880.7664
                                                                        45.7504
        30.0004
   4168328.77046   3283179.73043
                  23997712.4534                                   23997708.8094
                                                                        41.5004
        22.7504
   6686080.91046   5218824.21943
                  24136523.7274                                   24136520.3834
                                                                        41.7504
        23.5004
 09 10 15 23 56  0.0000000  0  9G02G04G29G05G13G10G23G25G30
  -1911667.71948  -1463954.47347
                  20571066.7814                                   20571061.3054
                                                                        52.0004
        42.5004
   5841651.75448   4560106.70346
                  21947683.2584                                   21947680.2344
                                                                        50.0004
        36.7504
  -7792351.19147  -6057542.11745
                  22994315.5394                                   22994312.8594
                                                                        44.7504
        33.2504
  -2493761.94547  -1928827.04745
                  23343349.2034                                   23343345.1484
                                                                        47.2504
        34.7504
  -3661442.33648  -2823491.12946
                  21359462.2424                                   21359458.1134
                                                                        49.2504
        36.5004
  -8555296.73847  -6651076.54345
                  22496830.7034                                   22496827.2384
                                                                        46.2504
        34.2504
   4017324.90647   3144339.00044
                  22674822.3204                                   22674816.2234
                                                                        47.0004
        29.5004
   4007808.70346   3158099.20743
                  23967166.0864                                   23967163.3054
                                                                        41.0004
        22.5004
   6699916.97346   5229605.46944
                  24139156.2734                                   24139153.3874
                                                                        40.0004
        24.2504
 09 10 15 23 56 30.0000000  0  9G02G04G29G05G13G10G23G25G30
  -1985221.73048  -1521269.33647
                  20557070.2814                                   20557064.4304
                                                                        51.7504
        43.2504
   5845746.64548   4563297.50046
                  21948462.4614                                   21948459.3794
                                                                        49.7504
        36.5004
  -7940679.50447  -6173122.53145
                  22966089.5234                                   22966086.9844
                                                                        45.2504
        34.0004
  -2676858.93047  -2071499.99245
                  23308506.4924                                   23308503.6024
                                                                        46.2504
        33.5004
  -3750401.48448  -2892809.93046
                  21342533.7584                                   21342529.6094
                                                                        48.7504
        37.0004
  -8731674.70347  -6788513.91045
                  22463266.8674                                   22463263.5394
                                                                        46.2504
        34.2504
   4007019.60247   3136308.89545
                  22672861.5474                                   22672855.1094
                                                                        46.5004
        31.2504
   3847683.17646   3033326.11743
                  23936695.1094                                   23936692.4924
                                                                        40.7504
        22.5004
   6714170.62946   5240712.25444
                  24141869.0474                                   24141865.9694
                                                                        40.7504
        24.5004
 09 10 15 23 57  0.0000000  0  9G02G04G29G05G13G10G23G25G30
  -2058142.75448  -1578090.93747
                  20543193.9774                                   20543188.0164
                                                                        51.7504
        43.0004
   5850272.98848   4566824.52346
                  21949323.5474                                   21949320.2584
                                                                        50.0004
        36.2504
  -8088502.56647  -6288309.29745
                  22937960.2344                                   22937957.0204
                                                                        44.5004
        34.0004
  -2859678.23447  -2213956.55945
                  23273716.7584                                   23273714.2814
                                                                        45.0004
        32.7504
  -3838642.80148  -2961569.37546
                  21325742.1954                                   21325738.0234
                                                                        49.0004
        36.5004
  -8907676.53147  -6925658.18445
                  22429774.5164                                   22429771.4344
                                                                        47.0004
        34.0004
   3997255.36747   3128700.41845
                  22671003.1884                                   22670996.8834
                                                                        46.7504
        30.5004
   3687954.19946   2908862.03943
                  23906299.8364                                   23906296.8754
                                                                        39.0004
        23.2504
   6728837.30147   5252140.67244
                  24144659.8364                                   24144656.9064
                                                                        42.7504
        24.7504
 09 10 15 23 57 30.0000000  0  9G02G04G29G05G13G10G23G25G30
  -2130432.41848  -1634420.49247
                  20529437.3444                                   20529431.6844
                                                                        51.7504
        42.5004
   5855227.00448   4570684.79346
                  21950266.9384                                   21950263.2934
                                                                        49.0004
        36.5004
  -8235820.65647  -6403102.60245
                  22909926.6884                                   22909923.6334
                                                                        45.0004
        34.0004
  -3042220.48047  -2356197.24245
                  23238980.4454                                   23238977.5824
                                                                        47.0004
        34.7504
  -3926168.18048  -3029770.96146
                  21309086.7974                                   21309082.5824
                                                                        49.0004
        36.5004
  -9083302.08247  -7062509.23845
                  22396354.2974                                   22396351.0274
                                                                        46.0004
        34.5004
   3988027.42647   3121509.81345
                  22669247.0944                                   22669241.2114
                                                                        46.2504
        30.5004
   3528622.60946   2784707.58643
                  23875980.9614                                   23875977.1804
                                                                        41.0004
        23.7504
   6743911.83647   5263886.90643
                  24147528.7034                                   24147525.7074
                                                                        42.0004
        22.2504
 09 10 15 23 58  0.0000000  0  9G02G04G29G05G13G10G23G25G30
  -2202090.24648  -1690257.76647
                  20515801.3834                                   20515795.8794
                                                                        52.2504
        42.2504
   5860606.96948   4574876.97746
                  21951290.5634                                   21951287.3284
                                                                        48.5004
        37.2504
  -8382630.23447  -6517499.67245
                  22881989.5944                                   22881986.1024
                                                                        45.7504
        34.2504
  -3224482.74647  -2498219.76245
                  23204297.2274                                   23204294.0004
                                                                        47.2504
        34.0004
  -4012977.09448  -3097414.25446
                  21292566.9534                                   21292563.1454
                                                                        48.5004
        36.2504
  -9258548.50047  -7199064.85545
                  22363006.2664                                   22363002.5084
                                                                        47.0004
        35.0004
   3979334.16847   3114735.84445
                  22667592.7974                                   22667587.1174
                                                                        46.5004
        30.7504
   3369691.10946   2660864.91443
                  23845736.5004                                   23845732.9734
                                                                        41.5004
        23.7504
   6759391.84847   5275948.98443
                  24150474.4844                                   24150471.5554
                                                                        42.7504
        22.5004
 09 10 15 23 58 30.0000000  0  9G02G04G29G05G13G10G23G25G30
  -2273116.66448  -1745603.07447
                  20502285.5164                                   20502279.6484
                                                                        52.0004
        42.7504
   5866410.57448   4579399.25846
                  21952394.6094                                   21952391.1804
                                                                        48.7504
        36.7504
  -8528930.15647  -6631499.57445
                  22854149.3204                                   22854146.5394
                                                                        45.2504
        34.0004
  -3406463.48047  -2640022.96545
                  23169667.3204                                   23169663.9024
                                                                        47.0004
        34.0004
  -4099069.31648  -3164499.10546
                  21276184.6254                                   21276180.8834
                                                                        48.7504
        36.5004
  -9433414.46147  -7335324.05145
                  22329729.7344                                   22329726.6764
                                                                        46.7504
        34.2504
   3971173.18847   3108376.64145
                  22666039.8594                                   22666034.1684
                                                                        46.5004
        30.2504
   3211162.27046   2537335.94943
                  23815569.9064                                   23815565.8484
                                                                        40.5004
        22.7504
   6775273.41047   5288323.98843
                  24153496.5864                                   24153493.7544
                                                                        42.5004
        22.7504
 09 10 15 23 59  0.0000000  0  9G02G04G29G05G13G10G23G25G30
  -2343512.89148  -1800457.29347
                  20488889.5314                                   20488883.6844
                                                                        51.7504
        42.5004
   5872634.38748   4584248.95746
                  21953579.0704                                   21953575.8594
                                                                        49.7504
        37.0004
  -8674719.07847  -6745101.35245
                  22826406.4534                                   22826403.5864
                                                                        45.2504
        33.2504
  -3588161.82047  -2781606.07045
                  23135091.5634                                   23135087.9224
                                                                        47.5004
        33.5004
  -4184446.46148  -3231026.73846
                  21259938.0704                                   21259933.8164
                                                                        50.0004
        36.0004
  -9607898.85948  -7471285.93045
                  22296526.7114                                   22296523.4144
                                                                        48.0004
        34.7504
   3963540.68047   3102429.22345
                  22664587.2734                                   22664581.7854
                                                                        46.0004
        30.7504
   3053037.07846   2414121.55143
                  23785479.2894                                   23785475.8364
                                                                        41.5004
        22.7504
   6791552.38747   5301008.78543
                  24156593.8524                                   24156591.5474
                                                                        42.5004
        22.5004
 09 10 15 23 59 30.0000000  0  9G02G04G29G05G13G10G23G25G30
  -2413278.69148  -1854820.27047
                  20475613.3284                                   20475607.8444
                                                                        51.7504
        42.7504
   5879276.91048   4589424.92646
                  21954843.2894                                   21954839.6174
                                                                        50.2504
        37.0004
  -8819994.72747  -6858303.14145
                  22798761.2974                                   22798758.8524
                                                                        45.0004
        33.7504
  -3769575.81248  -2922967.58245
                  23100569.4694                                   23100565.8284
                                                                        48.2504
        33.5004
  -4269107.55148  -3296996.42646
                  21243827.4384                                   21243823.4494
                                                                        49.2504
        36.0004
  -9781999.84047  -7606949.04345
                  22263396.6024                                   22263392.7344
                                                                        47.2504
        34.5004
   3956434.48447   3096891.92244
                  22663235.1724                                   22663229.4024
                                                                        45.7504
        29.2504
   2895318.77746   2291224.19543
                  23755466.2194                                   23755462.5394
                                                                        41.5004
        22.5004
   6808225.74646   5314001.02343
                  24159767.4774                                   24159764.6454
                                                                        41.5004
        22.2504
