     2.11           OBSERVATION DATA    G (GPS)             RINEX VERSION / TYPE
teqc  2019Feb25                         20221121 12:27:55UTCPGM / RUN BY / DATE
OSX ker:10.11.6|Core i5|gcc 4.3 -m64|OSX ker:10.10+|=+      COMMENT
BIT 2 OF LLI FLAGS DATA COLLECTED UNDER A/S CONDITION       COMMENT
04712741                                                    MARKER NAME
2741                                                        MARKER NUMBER
-Unknown-           -Unknown-                               OBSERVER / AGENCY
0220400471          TRIMBLE R7          2.30                REC # / TYPE / VERS
-Unknown-           TRM39105.00     NONE                    ANT # / TYPE
  1449461.2933 -1709240.1546  5952443.2645                  APPROX POSITION XYZ
        0.0000        0.0000        0.0000                  ANTENNA: DELTA H/E/N
     1     1                                                WAVELENGTH FACT L1/2
    20    L1    L2    L5    L6    L7    L8    C1    P1    C2# / TYPES OF OBSERV
          P2    C5    C6    C7    C8    S1    S2    S5    S6# / TYPES OF OBSERV
          S7    S8                                          # / TYPES OF OBSERV
    30.0000                                                 INTERVAL
    15                                                      LEAP SECONDS
Forced Modulo Decimation to 30 seconds                      COMMENT
 SNR is mapped to RINEX snr flag value [0-9]                COMMENT
  L1 & L2: min(max(int(snr_dBHz/6), 0), 9)                  COMMENT
teqc edited: Beidou # 1 - 37 excluded                       COMMENT
  2009    10     1    23     9   30.0000000     GPS         TIME OF FIRST OBS
                                                            END OF HEADER
 09 10  1 23  9 30.0000000  0 10G02G04G12G13G17G20G23G30G31G32
   -359595.20758   -244761.66456
                  22264009.9064                                   22264004.9494
                                                                        49.0004
        37.2504
   -234246.77758   -158970.98457
                  20483136.9454                                   20483134.3014
                                                                        50.7504
        42.0004
   -120871.75857    -82689.28155
                  22418023.2664                                   22418020.3714
                                                                        46.5004
        35.5004
   -369565.31657   -213954.78553
                  23887462.3134                                   23887457.6884
                                                                        43.0004
        22.7504
     19013.10958     12169.48455
                  22744031.6174                                   22744028.3134
                                                                        48.5004
        34.5004
    -22890.50458    -16304.91855
                  22102010.2274                                   22102006.5204
                                                                        48.0004
        31.5004
   -287599.93057   -195193.27055
                  22149772.6414                                   22149767.5944
                                                                        46.0004
        33.5004
   -242229.93757   -165069.94954
                  22481563.8984                                   22481561.2624
                                                                        45.2504
        29.0004
   -235711.27757   -163652.27754
                  23599093.1334                                   23599089.0234
                                                                        44.0004
        27.0004
     14534.12957      9124.39553
                  24099713.4064                                   24099711.0704
                                                                        42.0004
        22.5004
 09 10  1 23 10  0.0000000  0 10G02G04G12G13G17G20G23G30G31G32
   1027384.30948    836001.63746
                  22527942.8984                                   22527938.4064
                                                                        49.2504
        37.5004
   1217429.78548    972205.49647
                  20759381.9774                                   20759379.1414
                                                                        51.5004
        42.0004
   1389609.15647   1094308.85246
                  22705458.5394                                   22705455.5044
                                                                        47.5004
        36.0004
    997433.99647    851239.47743
                  24147593.7114                                   24147589.5084
                                                                        44.0004
        22.0004
   1601508.92248   1245283.03145
                  23045170.1954                                   23045167.3594
                                                                        48.0004
        34.5004
   1538065.17248   1200024.23445
                  22399050.4304                                   22399046.6174
                                                                        49.0004
        31.5004
   1136921.38747    914823.42645
                  22420850.6564                                   22420845.2344
                                                                        46.0004
        33.5004
   1205885.65247    963331.87145
                  22757131.2664                                   22757128.7774
                                                                        44.0004
        31.0004
   1215238.37946    966957.80144
                  23875199.4454                                   23875195.4614
                                                                        41.7504
        27.7504
   1594528.68446   1240288.96943
                  24400376.3444                                   24400374.3484
                                                                        37.7504
        21.7504
 09 10  1 23 10 30.0000000  0 10G02G04G12G13G17G20G23G30G31G32
    838674.18848    688954.79746
                  22492032.8204                                   22492027.8484
                                                                        49.2504
        37.5004
   1093684.70748    875780.66446
                  20735833.9454                                   20735831.3524
                                                                        52.5004
        41.7504
   1324717.37547   1043743.84846
                  22693109.8134                                   22693107.0474
                                                                        47.0004
        36.0004
    788662.04747    688559.97743
                  24107865.3754                                   24107861.1174
                                                                        42.5004
        22.7504
   1608318.62948   1250589.27345
                  23046465.9064                                   23046463.0234
                                                                        48.0004
        35.2504
   1523454.83648   1188639.59845
                  22396270.2034                                   22396266.4144
                                                                        48.0004
        31.0004
    986010.38748    797230.50045
                  22392133.2114                                   22392127.8914
                                                                        48.0004
        34.0004
   1078683.37547    864213.26644
                  22732925.0864                                   22732922.8164
                                                                        43.5004
        29.2504
   1090788.45346    869983.81344
                  23851516.9844                                   23851513.6804
                                                                        41.5004
        27.2504
   1598735.64146   1243567.10943
                  24401175.9304                                   24401174.8954
                                                                        41.2504
        21.5004
 09 10  1 23 11  0.0000000  0 10G02G04G12G13G17G20G23G30G31G32
    649913.15248    541868.29746
                  22456112.8984                                   22456108.2974
                                                                        50.0004
        37.5004
    970153.59448    779522.66047
                  20712326.7034                                   20712324.0864
                                                                        52.5004
        42.2504
   1260083.00047    993379.40646
                  22680810.2734                                   22680807.2584
                                                                        47.2504
        36.5004
    579759.85546    525779.16043
                  24068111.9144                                   24068108.2624
                                                                        40.0004
        21.5004
   1615070.15248   1255850.14845
                  23047750.9924                                   23047747.8404
                                                                        48.7504
        34.5004
   1508907.19947   1177303.78945
                  22393501.5944                                   22393498.1024
                                                                        47.5004
        31.2504
    835304.35948    679797.09845
                  22363454.7344                                   22363449.5704
                                                                        48.5004
        33.7504
    951799.65647    765342.91044
                  22708780.2504                                   22708777.4224
                                                                        43.5004
        29.5004
    966574.62147    773193.73844
                  23827880.6254                                   23827877.4414
                                                                        43.2504
        27.0004
   1602782.88747   1246720.78543
                  24401947.1024                                   24401944.6844
                                                                        42.2504
        21.0004
 09 10  1 23 11 30.0000000  0 10G02G04G12G13G17G20G23G30G31G32
    461230.64548    394842.96946
                  22420207.6954                                   22420203.2234
                                                                        49.5004
        37.0004
    846964.38348    683531.07447
                  20688884.6484                                   20688881.8754
                                                                        51.5004
        42.2504
   1195833.06647    943314.50846
                  22668583.6644                                   22668581.0084
                                                                        46.5004
        36.0004
    370857.80946    362998.46143
                  24028358.9144                                   24028356.1214
                                                                        39.7504
        23.5004
   1621888.79347   1261163.27745
                  23049048.5314                                   23049045.3284
                                                                        47.5004
        34.0004
   1494547.73847   1166114.59845
                  22390769.2194                                   22390765.2854
                                                                        47.2504
        30.7504
    684933.41048    562624.77745
                  22334840.3054                                   22334834.7344
                                                                        48.5004
        34.7504
    825362.56647    666820.51644
                  22684719.4384                                   22684717.2734
                                                                        44.5004
        29.7504
    842725.58247    676687.95744
                  23804312.5554                                   23804309.3984
                                                                        43.5004
        28.2504
   1606796.37147   1249848.24243
                  24402710.1414                                   24402707.3554
                                                                        43.7504
        20.7504
 09 10  1 23 12  0.0000000  0 10G02G04G12G13G17G20G23G30G31G32
    272709.64548    247943.50846
                  22384333.2274                                   22384328.3874
                                                                        49.5004
        37.2504
    724199.03948    587869.79747
                  20665523.2504                                   20665520.3714
                                                                        52.2504
        42.5004
   1132047.55147    893611.52746
                  22656446.1644                                   22656443.1604
                                                                        47.2504
        36.0004
    162039.95746    200283.34444
                  23988622.5864                                   23988619.7074
                                                                        40.5004
        25.7504
   1628853.68447   1266590.51645
                  23050373.7894                                   23050370.7734
                                                                        47.5004
        34.2504
   1480454.77347   1155133.01645
                  22388087.2114                                   22388083.5514
                                                                        47.7504
        30.7504
    534979.54348    445777.28945
                  22306305.4694                                   22306299.9494
                                                                        48.7504
        34.5004
    699454.74247    568710.64544
                  22660760.1804                                   22660757.8984
                                                                        44.5004
        28.2504
    719323.21947    580530.27344
                  23780829.8054                                   23780826.7194
                                                                        42.7504
        27.5004
   1610854.43447   1253010.44543
                  24403483.0784                                   24403479.2154
                                                                        43.0004
        21.0004
 09 10  1 23 12 30.0000000  0 10G02G04G12G13G17G20G23G30G31G32
     84400.74248    101209.31346
                  22348499.2734                                   22348494.5664
                                                                        49.5004
        37.5004
    601906.67248    492577.01647
                  20642251.7424                                   20642249.2774
                                                                        52.0004
        42.5004
   1068774.18047    844307.61746
                  22644405.3204                                   22644402.3554
                                                                        47.0004
        36.5004
    -46642.16047     37673.95344
                  23948912.4774                                   23948908.5594
                                                                        42.0004
        26.0004
   1636010.48847   1272167.18445
                  23051735.8594                                   23051732.6604
                                                                        47.7504
        34.5004
   1466674.62547   1144395.23845
                  22385465.0634                                   22385461.4844
                                                                        47.5004
        30.7504
    385494.60248    329295.43845
                  22277859.6334                                   22277853.7774
                                                                        48.5004
        34.7504
    574125.74247    471051.82844
                  22636910.7814                                   22636908.3404
                                                                        44.5004
        28.5004
    596417.51647    484759.63744
                  23757441.9614                                   23757438.4344
                                                                        44.5004
        27.0004
   1615003.82846   1256243.80543
                  24404271.9614                                   24404269.1954
                                                                        41.2504
        22.0004
 09 10  1 23 13  0.0000000  0 10G02G04G12G13G17G20G23G30G31G32
   -103651.71148    -45325.08246
                  22312714.4774                                   22312709.4024
                                                                        51.2504
        37.5004
    480130.00848    397686.05946
                  20619078.4384                                   20619075.7154
                                                                        53.0004
        41.7504
   1006053.19948    795434.17246
                  22632469.7504                                   22632467.0394
                                                                        48.0004
        36.0004
   -255143.28147   -124794.45744
                  23909235.5784                                   23909232.0234
                                                                        42.0004
        24.2504
   1643399.40248   1277924.74245
                  23053142.6094                                   23053138.9024
                                                                        48.2504
        34.0004
   1453247.22747   1133932.34845
                  22382909.7344                                   22382906.5704
                                                                        47.7504
        30.7504
    236522.31347    213213.19145
                  22249510.5084                                   22249505.3554
                                                                        47.7504
        34.5004
    449419.23047    373878.16044
                  22613179.4694                                   22613177.2544
                                                                        45.7504
        28.5004
    474051.27747    389409.33644
                  23734156.1564                                   23734152.6374
                                                                        43.5004
        27.2504
   1619284.46946   1259579.35243
                  24405086.5004                                   24405084.1914
                                                                        40.7504
        21.5004
 09 10  1 23 13 30.0000000  0 10G02G04G12G13G17G20G23G30G31G32
   -291418.24648   -191636.70746
                  22276983.2274                                   22276979.0354
                                                                        50.7504
        38.0004
    358898.03148    303219.53946
                  20596008.7504                                   20596005.8134
                                                                        49.7504
        41.5004
    943911.36747    747012.02046
                  22620644.7664                                   22620641.7344
                                                                        47.5004
        36.5004
   -463431.98046   -287097.28143
                  23869598.9384                                   23869595.5744
                                                                        41.5004
        23.0004
   1651046.34047   1283883.57445
                  23054597.4384                                   23054594.0004
                                                                        47.7504
        34.5004
   1440198.25047   1123764.32045
                  22380426.7664                                   22380423.8954
                                                                        47.5004
        32.0004
     88092.77347     97554.04345
                  22221265.3754                                   22221260.1414
                                                                        47.5004
        34.0004
    325363.62147    277211.64144
                  22589572.3674                                   22589570.3284
                                                                        42.7504
        29.0004
    352253.85947    294502.26244
                  23710979.1564                                   23710975.8834
                                                                        43.7504
        28.0004
   1623722.42646   1263037.40243
                  24405930.4064                                   24405929.4734
                                                                        38.0004
        21.2504
 09 10  1 23 14  0.0000000  0 10G02G04G12G13G17G20G23G30G31G32
   -478879.62548   -337710.49246
                  22241310.6804                                   22241306.0394
                                                                        50.5004
        37.7504
    238227.89848    209190.85547
                  20573045.8984                                   20573043.1884
                                                                        52.0004
        42.0004
    882363.66447    699052.73045
                  22608932.5314                                   22608929.3204
                                                                        47.5004
        35.7504
   -671488.98846   -449219.60943
                  23830006.8134                                   23830003.5474
                                                                        40.7504
        21.7504
   1658965.10547   1290054.15245
                  23056103.7664                                   23056100.3634
                                                                        47.2504
        33.0004
   1427541.55547   1113901.93845
                  22378018.0634                                   22378014.9494
                                                                        47.7504
        30.5004
    -59776.23848    -17668.32445
                  22193126.9384                                   22193121.0434
                                                                        48.0004
        34.5004
    201976.71947    181066.14544
                  22566092.6094                                   22566089.9734
                                                                        44.0004
        29.7504
    231042.54746    200051.80144
                  23687913.3364                                   23687910.2304
                                                                        41.7504
        27.0004
   1628332.22746   1266629.45343
                  24406808.2034                                   24406806.6844
                                                                        40.0004
        22.5004
 09 10  1 23 14 30.0000000  0 10G02G04G12G13G17G20G23G30G31G32
   -666016.39548   -483531.30546
                  22205699.6334                                   22205695.3324
                                                                        51.5004
        38.0004
    118137.75448    115614.14847
                  20550193.4774                                   20550190.6254
                                                                        53.0004
        42.2504
    821426.59047    651569.25446
                  22597336.7894                                   22597333.7544
                                                                        47.0004
        36.2504
   -879293.61346   -611145.35243
                  23790463.9844                                   23790460.0004
                                                                        40.0004
        21.5004
   1667171.35947   1296448.68845
                  23057665.3204                                   23057662.0554
                                                                        47.0004
        32.5004
   1415292.59447   1104357.25045
                  22375687.5314                                   22375683.5204
                                                                        46.7504
        31.0004
   -207065.35947   -132438.99645
                  22165098.4384                                   22165092.6844
                                                                        47.5004
        34.0004
     79277.06647     85456.25845
                  22542743.3754                                   22542740.7344
                                                                        45.7504
        30.0004
    110436.02347    106072.66844
                  23664962.6644                                   23664959.7424
                                                                        43.5004
        27.5004
   1633129.17647   1270367.34843
                  24407721.7584                                   24407719.6334
                                                                        42.2504
        22.5004
 09 10  1 23 15  0.0000000  0 10G02G04G12G13G17G20G23G30G31G32
   -852813.35548   -629087.37546
                  22170153.2584                                   22170148.6094
                                                                        50.5004
        37.7504
     -1358.80548     22499.89847
                  20527454.2424                                   20527451.4534
                                                                        51.7504
        42.5004
    761112.04747    604570.87946
                  22585859.4774                                   22585856.1724
                                                                        47.5004
        36.0004
  -1086829.76246   -772861.84444
                  23750971.2664                                   23750967.0084
                                                                        40.5004
        24.5004
   1675675.37547   1303075.19145
                  23059283.5704                                   23059280.2704
                                                                        47.5004
        34.2504
   1403462.19547   1095138.75044
                  22373436.1644                                   22373432.8054
                                                                        47.0004
        29.5004
   -353759.28947   -246745.83245
                  22137183.2664                                   22137178.0234
                                                                        47.7504
        34.0004
    -42721.16047     -9607.16844
                  22519527.7664                                   22519525.4534
                                                                        44.0004
        29.5004
     -9551.77347     12575.65644
                  23642129.6174                                   23642126.7504
                                                                        42.7504
        28.2504
   1638124.23447   1274259.62943
                  24408672.1484                                   24408670.0514
                                                                        42.2504
        22.5004
 09 10  1 23 15 30.0000000  0 10G02G04G12G13G17G20G23G30G31G32
  -1039259.50848   -774370.04346
                  22134673.6094                                   22134669.0204
                                                                        51.2504
        37.5004
   -120251.93448    -70144.11347
                  20504829.7194                                   20504826.8714
                                                                        51.2504
        42.2504
    701427.37947    558063.31645
                  22574501.6954                                   22574498.5314
                                                                        47.5004
        35.5004
  -1294084.83646   -934359.24644
                  23711531.6094                                   23711528.1724
                                                                        41.0004
        25.5004
   1684483.28947   1309938.47745
                  23060959.8284                                   23060956.4844
                                                                        47.2504
        34.2504
   1392056.85547   1086251.48444
                  22371265.8204                                   22371262.1884
                                                                        46.5004
        28.5004
   -499847.80948   -360581.03545
                  22109383.6484                                   22109378.3164
                                                                        48.5004
        34.7504
   -164008.21547   -104116.47345
                  22496447.8984                                   22496445.7114
                                                                        45.5004
        30.0004
   -128910.93047    -80431.50044
                  23619416.1174                                   23619413.3634
                                                                        44.0004
        28.2504
   1643324.00846   1278311.32443
                  24409661.8284                                   24409659.4454
                                                                        41.0004
        22.0004
 09 10  1 23 16  0.0000000  0 10G02G04G12G13G17G20G23G30G31G32
  -1225340.35948   -919368.07446
                  22099263.8914                                   22099259.0744
                                                                        51.5004
        38.0004
   -238528.37148   -162307.57847
                  20482322.0474                                   20482319.5944
                                                                        52.5004
        42.2504
    642384.08647    512055.58645
                  22563265.8914                                   22563262.8914
                                                                        47.5004
        35.7504
  -1501043.14546  -1095625.41044
                  23672148.3134                                   23672145.1524
                                                                        41.2504
        25.2504
   1693606.36747   1317047.44145
                  23062696.0554                                   23062692.9384
                                                                        47.2504
        34.5004
   1381087.26247   1077703.87944
                  22369178.0554                                   22369174.8204
                                                                        46.7504
        28.7504
   -645315.78948   -473932.77745
                  22081701.9694                                   22081696.2234
                                                                        48.7504
        34.2504
   -284569.99247   -198060.59045
                  22473505.8834                                   22473502.8444
                                                                        45.2504
        30.0004
   -247627.67247   -172938.07444
                  23596825.4614                                   23596821.9344
                                                                        42.2504
        27.5004
   1648739.90646   1282531.46943
                  24410692.0234                                   24410690.2624
                                                                        39.5004
        18.5004
 09 10  1 23 16 30.0000000  0 10G02G04G12G13G17G20G23G30G31G32
  -1411052.58248  -1064078.89146
                  22063923.9454                                   22063918.9964
                                                                        51.0004
        38.0004
   -356186.42248   -253989.12947
                  20459932.8054                                   20459930.0744
                                                                        51.5004
        42.0004
    583982.00447    466547.44946
                  22552152.6334                                   22552149.2774
                                                                        47.5004
        36.5004
  -1707700.88746  -1256657.42644
                  23632822.8834                                   23632819.3834
                                                                        41.2504
        26.7504
   1703043.25047   1324401.03545
                  23064491.4614                                   23064488.0594
                                                                        46.7504
        33.0004
   1370551.55147   1069494.20344
                  22367173.4384                                   22367169.6844
                                                                        47.0004
        29.7504
   -790161.01247   -586799.40245
                  22054138.8754                                   22054133.8714
                                                                        47.2504
        34.5004
   -404404.74247   -291438.28144
                  22450701.4924                                   22450698.8754
                                                                        45.0004
        29.5004
   -365699.95747   -264942.39544
                  23574356.9924                                   23574353.2464
                                                                        44.0004
        27.2504
   1654370.34446   1286918.79743
                  24411763.5704                                   24411760.9694
                                                                        39.2504
        19.0004
 09 10  1 23 17  0.0000000  0 10G02G04G12G13G17G20G23G30G31G32
  -1596387.48848  -1208495.70746
                  22028655.7504                                   22028650.8984
                                                                        50.7504
        38.0004
   -473218.77048   -345183.08247
                  20437662.0704                                   20437659.7584
                                                                        52.2504
        42.2504
    526226.03947    421542.78146
                  22541161.7194                                   22541158.9804
                                                                        47.2504
        36.0004
  -1914047.95747  -1417447.17644
                  23593556.2274                                   23593552.7894
                                                                        43.0004
        25.5004
   1712797.91847   1332002.17245
                  23066347.5554                                   23066344.0634
                                                                        46.5004
        32.0004
   1360454.09847   1061626.03545
                  22365252.1954                                   22365248.4884
                                                                        46.5004
        31.2504
   -934374.41848   -699173.62545
                  22026696.1414                                   22026690.7934
                                                                        48.5004
        34.5004
   -523504.54347   -384243.24245
                  22428037.5004                                   22428035.4494
                                                                        45.2504
        30.2504
   -483120.46147   -356438.90244
                  23552012.3834                                   23552008.5124
                                                                        43.5004
        27.7504
   1660220.32046   1291477.30942
                  24412876.4454                                   24412873.7774
                                                                        38.0004
        17.2504
 09 10  1 23 17 30.0000000  0 10G02G04G12G13G17G20G23G30G31G32
  -1781338.89148  -1352613.66046
                  21993460.4774                                   21993455.9454
                                                                        51.2504
        38.5004
   -589620.73048   -435885.92247
                  20415511.4454                                   20415508.9414
                                                                        51.5004
        42.0004
    469119.04347    377043.80946
                  22530294.8834                                   22530291.7974
                                                                        47.0004
        36.0004
  -2120076.95347  -1577989.28944
                  23554350.4924                                   23554346.3754
                                                                        42.5004
        24.0004
   1722872.27347   1339852.21945
                  23068264.6724                                   23068261.2584
                                                                        46.0004
        33.2504
   1350797.35947   1054101.24645
                  22363414.3984                                   22363411.3914
                                                                        47.5004
        30.7504
  -1077949.26247   -811050.10545
                  21999374.4384                                   21999369.6604
                                                                        47.7504
        34.5004
   -641864.39147   -476471.65645
                  22405514.3444                                   22405511.7934
                                                                        45.0004
        30.5004
   -599883.85947   -447423.35944
                  23529793.3984                                   23529789.6024
                                                                        43.2504
        26.7504
   1666292.04346   1296208.50843
                  24414031.9224                                   24414029.9654
                                                                        37.2504
        20.0004
 09 10  1 23 18  0.0000000  0 10G02G04G12G13G17G20G23G30G31G32
   -390472.94548   -268821.99646
                  22258133.7344                                   22258129.1604
                                                                        51.5004
        38.2504
    870037.66848    701510.25447
                  20693275.1954                                   20693272.4264
                                                                        51.5004
        42.0004
   1988086.96948   1560655.21146
                  22819345.0944                                   22819341.6564
                                                                        48.0004
        36.0004
   -750353.02047   -510671.96144
                  23815000.0004                                   23814995.8874
                                                                        42.7504
        24.2504
   3308688.89547   2575553.34845
                  23370035.3204                                   23370032.3634
                                                                        46.2504
        32.2504
   2917003.81347   2274521.78144
                  22661453.8914                                   22661450.4534
                                                                        46.5004
        29.7504
    354545.38347    305179.55945
                  22271969.4064                                   22271964.1334
                                                                        47.0004
        35.0004
    815945.81347    659484.38745
                  22682926.0784                                   22682923.6254
                                                                        43.7504
        30.5004
    859439.94147    689712.09444
                  23807493.2814                                   23807489.9144
                                                                        43.2504
        28.2504
   3248008.35246   2528714.72343
                  24715023.4304                                   24715020.8284
                                                                        38.5004
        21.5004
 09 10  1 23 18 30.0000000  0 10G02G04G12G13G17G20G23G30G31G32
   -574637.22748   -412326.64846
                  22223088.5474                                   22223083.8444
                                                                        51.0004
        39.0004
    754911.66048    611801.66447
                  20671367.3754                                   20671364.7934
                                                                        52.5004
        42.0004
   1932287.12947   1517174.82446
                  22808726.4384                                   22808722.8364
                                                                        47.7504
        36.0004
   -955723.87547   -670701.28143
                  23775918.4384                                   23775915.3444
                                                                        42.0004
        22.5004
   3319409.43047   2583906.92645
                  23372075.8594                                   23372072.3054
                                                                        46.0004
        33.0004
   2908234.03947   2267688.32444
                  22659784.6414                                   22659781.0314
                                                                        46.5004
        29.5004
    212264.43447    194311.37945
                  22244894.3524                                   22244889.0824
                                                                        46.5004
        34.5004
    699081.36347    568421.14545
                  22660687.5394                                   22660685.4494
                                                                        45.2504
        30.2504
    744006.17247    599763.70744
                  23785526.9534                                   23785523.5824
                                                                        43.0004
        27.2504
   3254530.19146   2533796.69943
                  24716264.2114                                   24716261.8284
                                                                        41.0004
        23.7504
 09 10  1 23 19  0.0000000  0 10G02G04G12G13G17G20G23G30G31G32
   -758404.54348   -555521.98046
                  22188118.7504                                   22188113.7854
                                                                        50.7504
        39.0004
    640425.02748    522591.23047
                  20649581.3914                                   20649578.4414
                                                                        50.2504
        42.0004
   1877139.30948   1474202.47345
                  22798232.1644                                   22798229.4184
                                                                        48.0004
        35.7504
  -1160760.38747   -830470.08644
                  23736901.9924                                   23736898.4804
                                                                        42.5004
        25.7504
   3330450.01247   2592509.88345
                  23374177.2504                                   23374173.6604
                                                                        47.2504
        33.7504
   2899905.04347   2261198.41044
                  22658199.5234                                   22658195.9104
                                                                        46.5004
        28.2504
     70633.84447     83949.99245
                  22217942.6334                                   22217937.6024
                                                                        47.5004
        35.2504
    582966.51247    477941.90645
                  22638591.4924                                   22638589.4384
                                                                        43.2504
        30.5004
    629239.29347    510334.96944
                  23763687.4064                                   23763683.7464
                                                                        43.7504
        26.5004
   3261274.69146   2539052.11343
                  24717547.2504                                   24717545.2934
                                                                        39.7504
        22.7504
 09 10  1 23 19 30.0000000  0 10G02G04G12G13G17G20G23G30G31G32
   -941768.76248   -698403.15646
                  22153225.2424                                   22153221.0234
                                                                        51.0004
        38.0004
    526582.61748    433882.89847
                  20627917.8674                                   20627915.2734
                                                                        50.0004
        42.0004
   1822645.87548   1431740.05546
                  22787862.4064                                   22787859.2624
                                                                        48.0004
        36.2504
  -1365454.85247   -989972.27744
                  23697950.3834                                   23697946.8244
                                                                        43.0004
        25.7504
   3341812.36347   2601363.48845
                  23376339.4304                                   23376335.9344
                                                                        47.0004
        33.2504
   2892018.37947   2255053.14544
                  22656698.3674                                   22656694.9534
                                                                        46.7504
        29.2504
    -70340.66047    -25900.20345
                  22191116.1484                                   22191110.4774
                                                                        47.5004
        34.5004
    467606.74247    388051.21145
                  22616639.4534                                   22616637.2424
                                                                        43.2504
        30.7504
    515144.02047    421429.55544
                  23741976.1724                                   23741972.2304
                                                                        44.2504
        27.5004
   3268244.17646   2544482.94943
                  24718874.0164                                   24718871.4384
                                                                        39.7504
        22.0004
 09 10  1 23 20  0.0000000  0 10G02G04G12G13G17G20G23G30G31G32
  -1124725.55948   -840966.89146
                  22118410.0944                                   22118405.3594
                                                                        51.7504
        38.0004
    413387.02748    345678.60247
                  20606377.5554                                   20606374.9494
                                                                        52.2504
        42.0004
   1768807.48448   1389788.07446
                  22777617.4224                                   22777614.1334
                                                                        49.0004
        36.5004
  -1569802.13347  -1149203.94144
                  23659064.1484                                   23659060.5904
                                                                        43.0004
        26.2504
   3353496.65647   2610468.10245
                  23378562.3444                                   23378559.4344
                                                                        45.5004
        31.0004
   2884573.10547   2249251.66844
                  22655281.6884                                   22655277.9804
                                                                        46.2504
        28.5004
   -210655.39548   -135236.31645
                  22164415.2424                                   22164409.6644
                                                                        48.7504
        35.0004
    353004.62547    298750.92245
                  22594831.4224                                   22594829.0354
                                                                        44.0004
        31.7504
    401723.13347    333049.60944
                  23720393.1804                                   23720389.4264
                                                                        43.2504
        28.5004
   3275438.62546   2550089.09043
                  24720242.2664                                   24720240.5474
                                                                        36.7504
        20.0004
 09 10  1 23 20 30.0000000  0 10G02G04G12G13G17G20G23G30G31G32
  -1307272.26648   -983211.05146
                  22083672.6174                                   22083667.6524
                                                                        51.0004
        38.7504
    300839.18048    257978.98446
                  20584960.3594                                   20584957.6804
                                                                        50.5004
        41.7504
   1715623.04347   1348345.70746
                  22767496.4774                                   22767493.4224
                                                                        47.7504
        36.2504
  -1773798.59047  -1308162.27044
                  23620245.1724                                   23620241.6214
                                                                        42.5004
        26.0004
   3365501.27747   2619822.29745
                  23380846.6724                                   23380844.2854
                                                                        44.5004
        31.5004
   2877568.66847   2243793.78944
                  22653949.0474                                   22653945.4384
                                                                        46.5004
        29.5004
   -350307.61347   -244056.18445
                  22137840.0004                                   22137834.7464
                                                                        46.7504
        35.2504
    239160.67647    210041.30145
                  22573167.7974                                   22573164.9224
                                                                        46.2504
        30.7504
    288978.06647    245196.33244
                  23698938.2114                                   23698934.4654
                                                                        43.7504
        28.7504
   3282856.52046   2555869.23443
                  24721653.2034                                   24721652.4344
                                                                        37.2504
        18.2504
 09 10  1 23 21  0.0000000  0 10G02G04G12G13G17G20G23G30G31G32
  -1489404.95748  -1125132.61346
                  22049013.5784                                   22049008.8204
                                                                        51.0004
        38.7504
    188941.49648    170785.99247
                  20563667.0704                                   20563664.2854
                                                                        51.7504
        42.2504
   1663093.27348   1307413.50846
                  22757500.4224                                   22757497.4654
                                                                        48.7504
        36.2504
  -1977439.55547  -1466843.58244
                  23581492.8984                                   23581489.6134
                                                                        42.0004
        25.0004
   3377825.32047   2629425.50845
                  23383192.0084                                   23383188.7074
                                                                        45.5004
        31.7504
   2871003.47747   2238677.96144
                  22652699.7274                                   22652695.7114
                                                                        46.5004
        28.7504
   -489294.79748   -352357.82845
                  22111391.5084                                   22111386.0004
                                                                        48.0004
        34.5004
    126078.43847    121925.27045
                  22551648.8204                                   22551646.1024
                                                                        46.0004
        30.5004
    176911.41447    157871.64844
                  23677612.7734                                   23677609.5784
                                                                        44.2504
        27.5004
   3290497.55946   2561823.30542
                  24723107.3444                                   24723106.0634
                                                                        39.5004
        17.2504
 09 10  1 23 21 30.0000000  0  9G02G04G12G13G17G20G23G30G31
  -1671124.99248  -1266732.65246
                  22014433.8834                                   22014428.9654
                                                                        51.0004
        39.2504
     77690.79748     84097.14147
                  20542496.6724                                   20542494.2734
                                                                        50.0004
        42.5004
   1611212.59847   1266986.97746
                  22747627.6884                                   22747624.6764
                                                                        47.0004
        36.0004
  -2180725.03546  -1625247.84044
                  23542809.3134                                   23542805.9454
                                                                        40.7504
        24.5004
   3390462.77047   2639272.81345
                  23385597.1804                                   23385593.3134
                                                                        45.7504
        31.0004
   2864872.29747   2233900.27744
                  22651533.4304                                   22651529.8754
                                                                        46.5004
        29.0004
   -627617.96947   -460142.14545
                  22085069.6484                                   22085064.1374
                                                                        47.5004
        34.5004
     13754.70747     34400.21944
                  22530274.6334                                   22530271.7734
                                                                        43.5004
        29.2504
     65520.44147     71073.43844
                  23656415.9774                                   23656412.5044
                                                                        43.2504
        28.2504
 09 10  1 23 22  0.0000000  0  9G02G04G12G13G17G20G23G30G31
  -1852432.47748  -1408011.14846
                  21979932.1804                                   21979927.2814
                                                                        51.0004
        39.0004
    -32914.59048     -2088.85947
                  20521449.0234                                   20521446.6524
                                                                        50.5004
        42.0004
   1559977.38347   1227063.51645
                  22737878.6254                                   22737874.9964
                                                                        47.5004
        35.7504
  -2383654.20346  -1783374.39144
                  23504193.1954                                   23504189.8754
                                                                        41.0004
        25.2504
   3403409.52747   2649361.35545
                  23388060.9144                                   23388057.6644
                                                                        43.7504
        32.0004
   2859170.40247   2229457.21144
                  22650448.1174                                   22650444.6484
                                                                        45.7504
        29.0004
   -765278.09848   -567409.75445
                  22058874.1564                                   22058868.3554
                                                                        48.0004
        35.5004
    -97812.41447    -52535.27745
                  22509043.8914                                   22509041.7584
                                                                        43.7504
        30.5004
    -45196.66847    -15199.62544
                  23635346.3984                                   23635343.2734
                                                                        42.5004
        28.2504
 09 10  1 23 22 30.0000000  0  9G02G04G12G13G17G20G23G30G31
  -2033312.57048  -1548956.59046
                  21945511.4844                                   21945506.4534
                                                                        51.0004
        38.7504
   -142861.46948    -87761.71147
                  20500526.6174                                   20500524.1604
                                                                        50.0004
        42.5004
   1509398.84448   1187651.68445
                  22728253.2894                                   22728250.5394
                                                                        48.0004
        35.7504
  -2586211.04747  -1941210.84044
                  23465648.0004                                   23465643.8554
                                                                        42.2504
        27.2504
   3416676.34447   2659699.31345
                  23390585.0784                                   23390582.0164
                                                                        44.5004
        32.5004
   2853908.32447   2225356.89144
                  22649446.5554                                   22649443.9414
                                                                        45.7504
        28.7504
   -902260.98448   -674149.76645
                  22032806.7894                                   22032801.1524
                                                                        48.0004
        35.2504
   -208608.76247   -138870.08645
                  22487960.2664                                   22487957.4924
                                                                        43.7504
        30.0004
   -155226.33247   -100937.01644
                  23614408.1884                                   23614404.8984
                                                                        43.0004
        29.0004
 09 10  1 23 23  0.0000000  0  9G02G04G12G13G17G20G23G30G31
  -2213761.98048  -1689566.48046
                  21911173.1804                                   21911168.1454
                                                                        51.0004
        38.0004
   -252147.82448   -172919.86347
                  20479730.3444                                   20479727.7504
                                                                        50.7504
        42.0004
   1459476.91047   1148751.51246
                  22718753.5944                                   22718750.5864
                                                                        46.7504
        36.0004
  -2788390.94147  -2098753.53144
                  23427174.5554                                   23427170.7504
                                                                        43.0004
        26.0004
   3430261.92647   2670285.56345
                  23393170.1644                                   23393166.9104
                                                                        43.5004
        30.5004
   2849085.08247   2221598.34844
                  22648529.0634                                   22648526.0044
                                                                        45.0004
        27.7504
  -1038562.82448   -780358.94945
                  22006869.3754                                   22006864.0394
                                                                        48.0004
        35.0004
   -318632.63747   -224603.03545
                  22467023.5084                                   22467020.6054
                                                                        45.5004
        30.0004
   -264566.25047   -186136.93444
                  23593602.2894                                   23593598.5704
                                                                        43.0004
        29.5004
 09 10  1 23 23 30.0000000  0  9G02G04G12G13G17G20G23G30G31
  -2393783.28148  -1829842.77046
                  21876916.3984                                   21876911.3364
                                                                        51.7504
        39.0004
   -360778.04348   -257566.79746
                  20459058.6724                                   20459055.9494
                                                                        50.7504
        41.7504
   1410204.92647   1110357.78145
                  22709377.4224                                   22709374.3244
                                                                        47.2504
        35.7504
  -2990195.49247  -2256003.81244
                  23388772.2194                                   23388768.8554
                                                                        43.5004
        27.2504
   3444159.16047   2681114.56345
                  23395815.2194                                   23395811.7074
                                                                        43.2504
        31.5004
   2844693.53947   2218176.18044
                  22647692.8054                                   22647689.7194
                                                                        45.2504
        28.2504
  -1174186.90648   -886039.93445
                  21981061.2584                                   21981055.6954
                                                                        48.0004
        35.5004
   -427888.54347   -309737.77045
                  22446233.0704                                   22446230.4614
                                                                        47.0004
        30.2504
   -373221.07447   -270803.07844
                  23572925.7734                                   23572922.5274
                                                                        43.7504
        28.7504
 09 10  1 23 24  0.0000000  0  9G02G04G12G13G17G20G23G30G31
  -2573380.09048  -1969788.28546
                  21842740.0394                                   21842735.3094
                                                                        51.2504
        38.7504
   -468757.44548   -341706.58647
                  20438511.0314                                   20438508.4804
                                                                        52.2504
        42.2504
   1361575.78147   1072465.00445
                  22700123.5004                                   22700120.3674
                                                                        47.2504
        35.0004
  -3191627.68747  -2412963.97744
                  23350440.7034                                   23350437.6564
                                                                        42.5004
        25.5004
   3458359.83647   2692180.07445
                  23398517.0704                                   23398513.3094
                                                                        43.0004
        31.2504
   2840725.75847   2215084.33644
                  22646937.8524                                   22646935.6764
                                                                        45.0004
        28.0004
  -1309138.19948   -991196.71145
                  21955380.3984                                   21955375.2304
                                                                        49.0004
        35.0004
   -536380.77747   -394277.21945
                  22425587.2424                                   22425585.0664
                                                                        46.2504
        30.2504
   -481195.42647   -354938.94544
                  23552379.2584                                   23552375.6374
                                                                        43.5004
        28.2504
 09 10  1 23 24 30.0000000  0  9G02G04G12G13G17G20G23G30G31
  -2752554.35548  -2109404.53546
                  21808644.1644                                   21808639.4964
                                                                        50.7504
        38.7504
   -576090.06648   -425342.42247
                  20418086.1094                                   20418083.8634
                                                                        51.5004
        42.2504
   1313583.21947   1035068.24245
                  22690990.4064                                   22690987.7304
                                                                        46.2504
        35.5004
  -3392688.23847  -2569634.53144
                  23312180.5784                                   23312176.5554
                                                                        42.0004
        26.2504
   3472857.61747   2703477.03945
                  23401276.0234                                   23401272.4224
                                                                        43.0004
        31.0004
   2837175.46147   2212317.85544
                  22646262.9144                                   22646259.0984
                                                                        45.2504
        27.7504
  -1443418.74647  -1095830.81646
                  21929827.5004                                   21929822.1724
                                                                        47.7504
        36.0004
   -644113.86347   -478225.18444
                  22405086.6254                                   22405083.9694
                                                                        45.7504
        29.5004
   -588493.01647   -438547.46544
                  23531961.1954                                   23531957.3324
                                                                        44.0004
        29.0004
 09 10  1 23 25  0.0000000  0  9G02G04G12G13G17G20G23G30G31
  -2931307.99648  -2248693.02746
                  21774628.5864                                   21774623.6994
                                                                        51.0004
        39.5004
   -682778.70348   -508476.44947
                  20397784.0234                                   20397781.1884
                                                                        52.7504
        42.0004
   1266222.06047    998163.46845
                  22681978.2344                                   22681974.9144
                                                                        47.7504
        35.5004
  -3593377.51247  -2726015.83244
                  23273990.5084                                   23273987.0864
                                                                        43.0004
        25.5004
   3487646.93447   2715001.16445
                  23404090.3754                                   23404086.8524
                                                                        43.5004
        30.7504
   2834036.84447   2209872.12144
                  22645665.6724                                   22645661.4344
                                                                        45.2504
        28.5004
  -1577030.53548  -1199943.80945
                  21904402.0084                                   21904396.6644
                                                                        49.2504
        34.0004
   -751090.34847   -561583.50445
                  22384729.5554                                   22384727.0434
                                                                        46.0004
        30.0004
   -695116.91447   -521631.00844
                  23511671.3444                                   23511667.7274
                                                                        44.5004
        28.7504
 09 10  1 23 25 30.0000000  0  9G02G04G12G13G17G20G23G30G31
  -3109643.38348  -2387655.65646
                  21740692.5634                                   21740687.6524
                                                                        51.7504
        39.7504
   -788828.05948   -591112.28146
                  20377603.4384                                   20377601.1954
                                                                        52.0004
        41.7504
   1219485.85547    961745.67645
                  22673084.5394                                   22673081.1174
                                                                        47.5004
        35.5004
  -3793697.65647  -2882109.49244
                  23235871.2664                                   23235867.5984
                                                                        44.5004
        27.0004
   3502720.12147   2726746.47345
                  23406958.7344                                   23406955.3674
                                                                        43.5004
        30.7504
   2831301.80147   2207740.93044
                  22645144.8754                                   22645141.2974
                                                                        45.5004
        28.5004
  -1709977.81648  -1303538.96145
                  21879103.1484                                   21879097.3134
                                                                        48.7504
        35.0004
   -857314.44147   -644355.55145
                  22364515.8054                                   22364513.6024
                                                                        45.7504
        30.5004
   -801071.78547   -604193.27045
                  23491508.8444                                   23491505.2544
                                                                        43.7504
        30.2504
 09 10  1 23 26  0.0000000  0  9G02G04G12G13G17G20G23G30G31
  -3287559.03548  -2526291.19546
                  21706836.2504                                   21706831.3204
                                                                        51.7504
        39.2504
   -894238.18748   -673250.04347
                  20357544.7274                                   20357541.9804
                                                                        52.5004
        42.5004
   1173372.28948    925813.01645
                  22664309.3134                                   22664306.2194
                                                                        48.0004
        35.0004
  -3993645.26247  -3037912.77744
                  23197822.3524                                   23197819.0004
                                                                        45.5004
        28.0004
   3518074.54347   2738710.91445
                  23409880.0554                                   23409877.2304
                                                                        43.2504
        31.7504
   2828968.37947   2205922.60944
                  22644701.4924                                   22644697.8364
                                                                        45.0004
        27.5004
  -1842258.84048  -1406615.13745
                  21853930.6414                                   21853925.0204
                                                                        48.7504
        35.0004
   -962786.36347   -726541.39144
                  22344445.8674                                   22344442.8674
                                                                        47.5004
        29.5004
   -906356.88747   -686233.60944
                  23471473.4534                                   23471470.0984
                                                                        44.5004
        28.5004
 09 10  1 23 26 30.0000000  0  9G02G04G12G13G17G20G23G30G31
  -1889632.07048  -1436997.44946
                  21972852.5704                                   21972848.1414
                                                                        51.7504
        39.5004
    576409.48448    472709.11747
                  20637399.5784                                   20637396.8204
                                                                        52.7504
        42.0004
   2703296.08247   2117961.44145
                  22955444.0474                                   22955440.6134
                                                                        47.2504
        35.5004
  -2617796.18047  -1965822.57044
                  23459637.8204                                   23459633.9304
                                                                        46.2504
        27.0004
   5109122.20347   3978488.23845
                  23712646.8674                                   23712643.7814
                                                                        45.2504
        31.0004
   4402448.41047   3432010.87144
                  22944124.7504                                   22944121.2814
                                                                        44.7504
        29.7504
   -398452.72748   -281571.30145
                  22128677.9144                                   22128672.4104
                                                                        48.0004
        35.2504
    507912.87147    419458.02045
                  22624310.4304                                   22624307.4534
                                                                        46.0004
        30.7504
    564446.06347    459846.60244
                  23751357.9224                                   23751354.2934
                                                                        44.0004
        28.2504
 09 10  1 23 27  0.0000000  0  9G02G04G12G13G17G20G23G30G31
  -2066710.68048  -1574980.71146
                  21939155.7114                                   21939150.7894
                                                                        52.0004
        40.2504
    472269.86348    391561.28547
                  20617582.1174                                   20617579.3674
                                                                        52.7504
        42.5004
   2658413.82048   2082988.24245
                  22946903.1954                                   22946900.2894
                                                                        48.0004
        34.7504
  -2816998.73447  -2121045.31244
                  23421730.3524                                   23421726.0824
                                                                        45.7504
        25.0004
   5125023.55147   3990878.80545
                  23715672.6094                                   23715669.8554
                                                                        45.0004
        30.7504
   4400901.71547   3430805.62944
                  22943829.7814                                   22943826.7274
                                                                        44.7504
        28.5004
   -529405.77747   -383612.65645
                  22103758.3284                                   22103752.8404
                                                                        47.7504
        35.0004
    403937.83247    338438.53545
                  22604524.1094                                   22604521.5354
                                                                        45.2504
        30.5004
    460492.33247    378843.69944
                  23731576.0784                                   23731572.8014
                                                                        45.0004
        28.7504
 09 10  1 23 27 30.0000000  0  9G02G04G12G13G17G20G23G30G31
  -2243361.73848  -1712630.84846
                  21905540.0554                                   21905535.6054
                                                                        51.0004
        39.0004
    368772.15248    310913.73047
                  20597887.3524                                   20597884.7774
                                                                        53.0004
        42.2504
   2614150.16048   2048497.01245
                  22938480.3054                                   22938476.8714
                                                                        48.0004
        35.2504
  -3015818.29747  -2275969.64544
                  23383895.6884                                   23383892.5274
                                                                        44.7504
        25.2504
   5141201.25447   4003484.75445
                  23718751.2504                                   23718748.1604
                                                                        45.2504
        31.2504
   4399750.77747   3429908.72744
                  22943610.7894                                   22943607.0664
                                                                        45.2504
        27.2504
   -659687.03548   -485130.61745
                  22078966.7734                                   22078961.4064
                                                                        48.5004
        35.2504
    300717.77747    258007.39545
                  22584881.9534                                   22584880.0984
                                                                        46.5004
        30.0004
    357210.44147    298364.29744
                  23711922.4614                                   23711918.6134
                                                                        44.5004
        27.7504
 09 10  1 23 28  0.0000000  0  9G02G04G12G13G17G20G23G30G31
  -2419591.60248  -1849952.80946
                  21872004.6484                                   21871999.8594
                                                                        52.5004
        39.5004
    265908.16048    230760.01247
                  20578313.2344                                   20578310.7584
                                                                        52.7504
        42.5004
   2570495.28147   2014480.12945
                  22930173.3054                                   22930170.3634
                                                                        47.2504
        35.5004
  -3214259.87947  -2430599.46944
                  23346133.7584                                   23346130.5904
                                                                        45.5004
        25.7504
   5157644.03547   4016297.30145
                  23721880.7034                                   23721876.8364
                                                                        45.2504
        32.0004
   4398985.00847   3429311.98844
                  22943465.6254                                   22943462.0204
                                                                        45.7504
        27.5004
   -789303.25848   -586130.32445
                  22054301.7584                                   22054295.9384
                                                                        48.5004
        35.5004
    198244.27047    178157.81345
                  22565382.0864                                   22565378.9844
                                                                        46.2504
        31.0004
    254593.34047    218402.91044
                  23692394.9224                                   23692391.7664
                                                                        44.0004
        29.2504
 09 10  1 23 28 30.0000000  0  9G02G04G12G13G17G20G23G30G31
  -2595402.57048  -1986948.37546
                  21838549.0004                                   21838544.4344
                                                                        52.0004
        40.0004
    163673.50448    151096.70347
                  20558858.5634                                   20558855.9264
                                                                        52.5004
        42.2504
   2527443.01647   1980932.88745
                  22921980.6334                                   22921977.8014
                                                                        47.7504
        35.0004
  -3412325.29347  -2584936.18444
                  23308442.6954                                   23308440.7114
                                                                        45.5004
        28.5004
   5174345.28947   4029311.24644
                  23725058.3834                                   23725055.2074
                                                                        43.0004
        29.7504
   4398597.34447   3429009.88744
                  22943392.1334                                   22943388.1524
                                                                        45.5004
        27.5004
   -918257.77047   -686614.39545
                  22029762.4224                                   22029756.8834
                                                                        47.7504
        35.5004
     96513.39847     98886.99245
                  22546023.4774                                   22546020.7424
                                                                        46.5004
        30.7504
    152636.30547    138955.83644
                  23672993.4064                                   23672989.9494
                                                                        42.5004
        29.0004
 09 10  1 23 29  0.0000000  0  9G02G04G12G13G17G20G23G30G31
  -2770790.89148  -2123614.67646
                  21805173.9534                                   21805169.1724
                                                                        52.0004
        39.5004
     62070.52048     71925.50047
                  20539524.3284                                   20539521.7814
                                                                        52.0004
        42.0004
   2484993.60947   1947855.40645
                  22913902.9844                                   22913899.7034
                                                                        47.0004
        34.7504
  -3610008.87547  -2738975.41844
                  23270825.7734                                   23270822.9224
                                                                        45.5004
        28.7504
   5191304.97347   4042526.56344
                  23728285.9614                                   23728282.6764
                                                                        42.0004
        29.0004
   4398587.83247   3429002.48044
                  22943390.3594                                   22943385.8554
                                                                        46.5004
        27.0004
  -1046547.01648   -786580.11746
                  22005350.0314                                   22005344.4734
                                                                        48.7504
        36.0004
     -4472.52747     20196.62944
                  22526806.5634                                   22526804.0164
                                                                        45.2504
        29.7504
     51342.09447     60025.28144
                  23653717.3204                                   23653714.5204
                                                                        43.2504
        28.0004
 09 10  1 23 29 30.0000000  0  9G02G04G12G13G17G20G23G30G31
  -2945752.19148  -2259948.19146
                  21771879.6644                                   21771875.1724
                                                                        52.0004
        39.0004
    -38898.57848     -6751.67647
                  20520310.1804                                   20520307.6214
                                                                        51.5004
        42.2504
   2443146.69947   1915247.45346
                  22905939.8594                                   22905936.5634
                                                                        47.7504
        36.0004
  -3807305.70347  -2892713.35244
                  23233281.6414                                   23233278.2504
                                                                        47.0004
        29.2504
   5208522.31347   4055942.64144
                  23731561.7734                                   23731558.8134
                                                                        43.5004
        28.7504
   4398955.81647   3429289.19944
                  22943459.7424                                   22943456.6024
                                                                        45.5004
        26.7504
  -1174167.84848   -886024.96146
                  21981064.5864                                   21981059.2934
                                                                        48.0004
        36.0004
   -104711.21947    -57911.36745
                  22507731.7664                                   22507729.2774
                                                                        44.0004
        30.7504
    -49287.20747    -18387.13744
                  23634568.1094                                   23634565.1214
                                                                        43.5004
        29.5004
 09 10  1 23 30  0.0000000  0  9G02G04G12G13G17G20G23G30G31
  -3120290.38748  -2395951.96946
                  21738665.9064                                   21738661.5124
                                                                        52.0004
        40.0004
   -139239.74648    -84939.64847
                  20501215.9774                                   20501213.7074
                                                                        49.7504
        42.2504
   2401894.38347   1883102.77045
                  22898089.3204                                   22898086.4734
                                                                        47.2504
        35.0004
  -4004219.19947  -3046152.75444
                  23195810.3834                                   23195807.3324
                                                                        47.0004
        28.5004
   5225989.02747   4069553.03944
                  23734886.0784                                   23734882.8914
                                                                        42.5004
        29.2504
   4399693.08247   3429863.69544
                  22943599.9694                                   22943596.2854
                                                                        44.5004
        26.7504
  -1301124.89548   -984952.62545
                  21956905.5944                                   21956899.9734
                                                                        48.5004
        35.5004
   -204208.68447   -135441.77745
                  22488798.1884                                   22488795.3554
                                                                        44.2504
        31.0004
   -149257.37547    -96285.94944
                  23615544.7894                                   23615541.3054
                                                                        43.5004
        29.0004
 09 10  1 23 30 30.0000000  0  9G02G04G12G13G17G20G23G30G31
  -3294404.47348  -2531625.27746
                  21705533.4144                                   21705528.8554
                                                                        51.2504
        40.2504
   -238953.30548   -162638.48447
                  20482241.1024                                   20482238.3204
                                                                        50.0004
        42.0004
   2361234.11747   1851419.40645
                  22890352.2584                                   22890349.0784
                                                                        46.2504
        34.7504
  -4200746.53547  -3199291.20744
                  23158412.2194                                   23158409.0124
                                                                        45.7504
        27.5004
   5243702.11746   4083355.40644
                  23738256.3984                                   23738253.4494
                                                                        41.2504
        29.0004
   4400796.21947   3430723.27744
                  22943810.3914                                   22943806.7274
                                                                        45.2504
        28.2504
  -1427417.70748  -1083362.64145
                  21932872.7894                                   21932867.2814
                                                                        49.0004
        35.2504
   -302965.43447   -212395.11345
                  22470005.3674                                   22470002.8284
                                                                        44.2504
        31.2504
   -248568.98847   -173671.62544
                  23596646.2814                                   23596642.6214
                                                                        43.7504
        28.5004
 09 10  1 23 31  0.0000000  0  9G02G04G12G13G17G20G23G30G31
  -3468092.98448  -2666966.91846
                  21672481.6254                                   21672477.1214
                                                                        52.2504
        40.2504
   -338040.14148   -239848.96147
                  20463385.4534                                   20463382.8134
                                                                        52.2504
        42.5004
   2321163.32047   1820195.39145
                  22882727.0944                                   22882724.0124
                                                                        47.5004
        34.5004
  -4396884.75447  -3352126.08644
                  23121088.0784                                   23121084.9774
                                                                        45.7504
        26.0004
   5261658.15247   4097347.07444
                  23741673.4384                                   23741669.9264
                                                                        42.0004
        29.0004
   4402262.28947   3431865.66444
                  22944088.9384                                   22944085.6914
                                                                        45.0004
        25.7504
  -1553045.89548  -1181254.69145
                  21908966.3914                                   21908960.7544
                                                                        49.2504
        35.5004
   -400982.11747   -288771.89545
                  22451353.0634                                   22451351.2274
                                                                        44.5004
        32.2504
   -347222.27347   -250544.32045
                  23577873.1174                                   23577869.4774
                                                                        45.0004
        30.0004
 09 10  1 23 31 30.0000000  0  9G02G04G12G13G17G20G23G30G31
  -3641356.57448  -2801977.46546
                  21639510.5704                                   21639506.1334
                                                                        51.0004
        39.5004
   -436502.32048   -316572.67247
                  20444648.7344                                   20444646.1254
                                                                        51.5004
        42.2504
   2281677.45347   1789427.14845
                  22875213.1644                                   22875210.3834
                                                                        47.0004
        35.2504
  -4592634.17247  -3504658.30544
                  23083839.3364                                   23083835.4774
                                                                        46.0004
        26.0004
   5279852.91047   4111524.75444
                  23745136.4224                                   23745133.2704
                                                                        42.5004
        29.5004
   4404086.63747   3433287.28544
                  22944436.2034                                   22944432.8164
                                                                        44.7504
        27.2504
  -1678010.55148  -1278629.79746
                  21885186.5164                                   21885181.2584
                                                                        48.0004
        36.0004
   -498261.08647   -364573.78945
                  22432841.6484                                   22432839.6644
                                                                        46.0004
        31.5004
   -445219.65247   -326905.92244
                  23559224.7814                                   23559221.5904
                                                                        43.5004
        29.0004
 09 10  1 23 32  0.0000000  0  9G02G04G12G13G17G20G23G30G31
  -3814192.28548  -2936654.64546
                  21606621.1724                                   21606616.1844
                                                                        52.0004
        39.5004
   -534339.06648   -392809.03947
                  20426030.7344                                   20426028.7504
                                                                        52.0004
        42.5004
   2242775.43847   1759113.90245
                  22867810.1644                                   22867807.2424
                                                                        46.5004
        35.0004
  -4787989.86347  -3656883.39844
                  23046663.8134                                   23046660.5164
                                                                        46.5004
        28.5004
   5298284.69547   4125887.12145
                  23748643.2974                                   23748640.7974
                                                                        43.5004
        30.7504
   4406267.50447   3434986.66844
                  22944851.2114                                   22944848.2624
                                                                        45.0004
        27.0004
  -1802309.44148  -1375486.01645
                  21861533.2664                                   21861527.7234
                                                                        49.2504
        35.7504
   -594801.04747   -439799.79745
                  22414470.8364                                   22414468.7854
                                                                        44.5004
        31.5004
   -542559.74247   -402755.30544
                  23540701.7814                                   23540698.1174
                                                                        42.5004
        29.2504
 09 10  1 23 32 30.0000000  0  9G02G04G12G13G17G20G23G30G31
  -3986599.14848  -3070997.65246
                  21573812.8914                                   21573807.8794
                                                                        51.2504
        39.7504
   -631551.56648   -468559.03547
                  20407532.0314                                   20407529.3634
                                                                        50.0004
        42.0004
   2204453.88747   1729252.94145
                  22860517.9774                                   22860514.9064
                                                                        47.0004
        34.7504
  -4982950.22347  -3808800.30144
                  23009563.6564                                   23009560.8554
                                                                        46.2504
        29.5004
   5316950.09047   4140431.53945
                  23752195.3754                                   23752192.5744
                                                                        43.7504
        32.0004
   4408801.25047   3436961.04744
                  22945333.3284                                   22945329.8244
                                                                        45.0004
        27.5004
  -1925943.30948  -1471824.13345
                  21838006.2664                                   21838001.0824
                                                                        48.7504
        35.5004
   -690603.17247   -514450.75845
                  22396240.1954                                   22396237.9694
                                                                        43.7504
        32.5004
   -639244.18447   -478093.78544
                  23522303.6484                                   23522299.9884
                                                                        43.5004
        28.0004
 09 10  1 23 33  0.0000000  0  9G02G04G12G13G17G20G23G30G31
  -4158576.65248  -3205006.07046
                  21541086.8284                                   21541081.8554
                                                                        51.7504
        39.5004
   -728141.53148   -543824.00847
                  20389151.6804                                   20389148.8284
                                                                        50.5004
        42.0004
   2166709.22747   1699841.52045
                  22853335.3524                                   22853332.4304
                                                                        46.7504
        34.2504
  -5177514.59847  -3960408.82444
                  22972539.7424                                   22972536.8244
                                                                        47.0004
        29.5004
   5335844.84047   4155154.69544
                  23755790.9924                                   23755788.2774
                                                                        45.0004
        29.0004
   4411683.82847   3439207.19144
                  22945882.2894                                   22945878.3714
                                                                        44.2504
        26.2504
  -2048912.26648  -1567644.10546
                  21814606.2274                                   21814600.8284
                                                                        49.0004
        36.0004
   -785669.61347   -588528.55545
                  22378149.7034                                   22378147.7344
                                                                        44.0004
        32.5004
   -735274.11347   -552922.31244
                  23504029.8834                                   23504026.0234
                                                                        44.5004
        28.5004
 09 10  1 23 33 30.0000000  0  9G02G04G12G13G17G20G23G30G31
  -4330128.28548  -3338682.58646
                  21508441.6644                                   21508436.5044
                                                                        51.7504
        40.0004
   -824113.84048   -618607.76646
                  20370888.8284                                   20370886.3674
                                                                        53.2504
        41.7504
   2129534.26647   1670873.99645
                  22846261.3674                                   22846258.2424
                                                                        47.0004
        34.0004
  -5371685.12147  -4111710.52044
                  22935590.3364                                   22935587.1134
                                                                        46.2504
        29.0004
   5354961.42247   4170050.71544
                  23759428.4774                                   23759425.6054
                                                                        44.5004
        27.2504
   4414908.00847   3441719.57844
                  22946494.9064                                   22946492.1214
                                                                        43.7504
        28.0004
  -2171220.47348  -1662949.19945
                  21791331.5004                                   21791326.6214
                                                                        49.2504
        35.5004
   -880005.39847   -662036.98845
                  22360198.5314                                   22360196.5904
                                                                        45.2504
        31.5004
   -830654.65647   -627244.80144
                  23485879.1024                                   23485875.3674
                                                                        44.0004
        29.0004
 09 10  1 23 34  0.0000000  0  9G02G04G12G13G17G20G23G30G31
  -4501252.75048  -3472026.25446
                  21475877.5234                                   21475872.7734
                                                                        52.5004
        40.5004
   -919468.83248   -692910.28947
                  20352743.3834                                   20352740.9304
                                                                        52.7504
        42.0004
   2092925.91447   1642347.99645
                  22839294.9064                                   22839291.8164
                                                                        47.0004
        34.7504
  -5565459.06647  -4262703.25444
                  22898716.2194                                   22898712.9884
                                                                        46.5004
        28.5004
   5374296.87547   4185117.27344
                  23763108.1334                                   23763104.8874
                                                                        44.2504
        26.2504
   4418470.56347   3444495.62544
                  22947173.2584                                   22947169.8484
                                                                        44.5004
        26.7504
  -2292867.52748  -1757739.08245
                  21768182.7504                                   21768177.8364
                                                                        49.7504
        35.0004
   -973611.12147   -734976.47345
                  22342385.4694                                   22342383.7234
                                                                        44.7504
        31.7504
   -925386.50047   -701061.82844
                  23467852.3284                                   23467848.3094
                                                                        43.2504
        28.2504
 09 10  1 23 34 30.0000000  0  9G02G04G12G13G17G20G23G30G31
  -3096519.65248  -2377429.00846
                  21743189.3284                                   21743184.8404
                                                                        52.0004
        39.5004
    561218.75448    460872.21147
                  20634508.7504                                   20634505.9574
                                                                        52.0004
        42.0004
   3632306.28147   2841865.12945
                  23132229.0944                                   23132225.7194
                                                                        47.5004
        35.0004
  -4183404.37147  -3185777.49644
                  23161712.3674                                   23161708.5824
                                                                        45.7504
        28.2504
   6969270.75847   5427954.03944
                  24066622.0634                                   24066618.5004
                                                                        45.5004
        28.7504
   5997791.40247   4675135.22344
                  23247708.1254                                   23247704.9534
                                                                        44.5004
        27.0004
   -838426.00848   -624407.98445
                  22044953.6724                                   22044948.8524
                                                                        49.7504
        35.5004
    508939.03947    420257.50845
                  22624505.4694                                   22624503.3324
                                                                        44.5004
        31.2504
    555956.35247    453231.27744
                  23749742.9454                                   23749738.8674
                                                                        44.5004
        29.5004
 09 10  1 23 35  0.0000000  0  9G02G04G12G13G17G20G23G30G31
  -3266780.37148  -2510099.68046
                  21710789.8754                                   21710785.2544
                                                                        52.0004
        40.0004
    467101.18848    387533.93046
                  20616598.9144                                   20616596.1414
                                                                        53.2504
        41.7504
   3596828.78147   2814220.30145
                  23125478.4614                                   23125474.8324
                                                                        47.5004
        34.7504
  -4376372.62147  -3336142.41444
                  23124991.6484                                   23124987.9884
                                                                        45.2504
        28.0004
   6989039.78147   5443358.44145
                  24070384.6254                                   24070380.6724
                                                                        45.7504
        31.0004
   6002026.93847   4678435.62544
                  23248514.1884                                   23248510.9224
                                                                        44.0004
        25.7504
   -958744.85948   -718162.92245
                  22022058.0394                                   22022052.4024
                                                                        48.7504
        35.5004
    416796.48447    348458.16445
                  22606971.5004                                   22606968.8634
                                                                        46.2504
        31.2504
    462525.41447    380427.94944
                  23731963.0474                                   23731960.0594
                                                                        42.5004
        28.7504
 09 10  1 23 35 30.0000000  0  9G02G04G12G13G17G20G23G30G31
  -3436605.89548  -2642431.18746
                  21678473.3364                                   21678468.2974
                                                                        52.5004
        40.0004
    373602.35948    314677.68047
                  20598806.5084                                   20598804.2704
                                                                        51.7504
        42.2504
   3561913.45747   2787013.53145
                  23118834.4304                                   23118830.9344
                                                                        46.2504
        34.7504
  -4568933.31647  -3486189.72744
                  23088348.6484                                   23088344.9844
                                                                        45.5004
        28.0004
   7009022.63747   5458929.44945
                  24074186.7974                                   24074183.7734
                                                                        45.5004
        31.0004
   6006595.18447   4681995.34444
                  23249383.2504                                   23249379.7504
                                                                        44.7504
        26.2504
  -1078397.21948   -811398.38745
                  21999288.9454                                   21999283.7114
                                                                        49.2504
        34.7504
    325385.55547    277228.96945
                  22589576.3054                                   22589573.8984
                                                                        45.0004
        31.7504
    369744.88747    308131.38744
                  23714307.8284                                   23714304.1374
                                                                        42.2504
        28.5004
 09 10  1 23 36  0.0000000  0  9G02G04G12G13G17G20G23G30G31
  -3605997.73048  -2774424.85946
                  21646238.9774                                   21646233.9304
                                                                        52.0004
        40.5004
    280719.05148    242301.06647
                  20581131.6174                                   20581129.0864
                                                                        52.5004
        42.0004
   3527555.28147   2760240.92645
                  23112295.9064                                   23112292.7774
                                                                        47.0004
        34.5004
  -4761087.49247  -3635920.55544
                  23051782.9304                                   23051779.6604
                                                                        46.0004
        28.5004
   7029213.35947   5474662.40244
                  24078028.2584                                   24078025.9224
                                                                        43.5004
        28.0004
   6011490.76247   4685810.09044
                  23250315.1724                                   23250311.6254
                                                                        45.0004
        26.5004
  -1197386.06648   -904116.93445
                  21976645.7344                                   21976640.6524
                                                                        49.2504
        35.0004
    234702.88347    206567.16445
                  22572320.2114                                   22572318.0634
                                                                        45.5004
        32.0004
    277612.21547    236339.75045
                  23696775.6254                                   23696771.7734
                                                                        43.5004
        30.0004
 09 10  1 23 36 30.0000000  0  9G02G04G12G13G17G20G23G30G31
  -3774953.03948  -2906078.39146
                  21614088.0554                                   21614082.8954
                                                                        52.7504
        40.5004
    188452.57448    170405.13347
                  20563573.6334                                   20563570.9804
                                                                        52.7504
        42.5004
   3493753.35247   2733901.78545
                  23105863.7344                                   23105860.7234
                                                                        47.0004
        35.0004
  -4952829.77747  -3785330.45744
                  23015296.6954                                   23015292.7114
                                                                        46.2504
        29.0004
   7049610.93047   5490556.51244
                  24081909.4304                                   24081907.3914
                                                                        43.0004
        27.5004
   6016712.70747   4689879.11344
                  23251308.7734                                   23251305.4734
                                                                        44.5004
        25.7504
  -1315708.93048   -996316.57846
                  21954129.6484                                   21954124.4304
                                                                        49.5004
        36.0004
    144749.02747    136473.34845
                  22555202.4064                                   22555200.4924
                                                                        46.5004
        31.5004
    186127.96147    165053.32444
                  23679365.9304                                   23679362.9534
                                                                        44.0004
        28.5004
 09 10  1 23 37  0.0000000  0  9G02G04G12G13G17G20G23G30G31
  -3943471.55148  -3037391.52346
                  21582019.7424                                   21582014.9614
                                                                        52.2504
        40.7504
     96800.22748     98987.67247
                  20546132.9304                                   20546130.2304
                                                                        51.7504
        42.2504
   3460502.84847   2707992.31345
                  23099536.1174                                   23099533.3984
                                                                        45.0004
        34.2504
  -5144159.72747  -3934418.74244
                  22978887.4534                                   22978884.7424
                                                                        46.0004
        29.5004
   7070210.39147   5506607.94544
                  24085830.2034                                   24085827.2974
                                                                        43.2504
        27.2504
   6022255.91447   4694198.44944
                  23252363.7894                                   23252360.4144
                                                                        43.0004
        24.5004
  -1433367.57448  -1087998.62146
                  21931740.3834                                   21931734.9454
                                                                        49.7504
        36.2504
     55521.84447     66945.73445
                  22538222.6804                                   22538220.1954
                                                                        46.7504
        31.5004
     95289.64547     94270.24244
                  23662080.1254                                   23662077.1994
                                                                        44.0004
        28.5004
 09 10  1 23 37 30.0000000  0  9G02G04G12G13G17G20G23G30G31
  -4111552.29348  -3168363.59446
                  21550035.3284                                   21550030.4804
                                                                        52.7504
        40.7504
      5761.41848     28048.34047
                  20528808.6884                                   20528806.3914
                                                                        52.5004
        42.5004
   3427800.92647   2682510.22345
                  23093313.7034                                   23093310.6564
                                                                        46.0004
        34.5004
  -5335074.89547  -4083183.75844
                  22942557.0314                                   22942554.5354
                                                                        45.7504
        29.2504
   7091009.00047   5522814.62144
                  24089787.5704                                   24089784.6844
                                                                        44.2504
        26.5004
   6028117.43047   4698765.79744
                  23253478.9064                                   23253475.9024
                                                                        42.5004
        24.7504
  -1550361.62148  -1179162.85245
                  21909476.7584                                   21909471.3524
                                                                        48.5004
        35.5004
    -32980.25047     -2016.93445
                  22521381.3524                                   22521379.1414
                                                                        46.0004
        31.7504
      5096.87947     23990.19544
                  23644917.3524                                   23644914.1764
                                                                        44.0004
        29.7504
 09 10  1 23 38  0.0000000  0  9G02G04G12G13G17G20G23G30G31
  -4279195.06248  -3298994.29746
                  21518133.9454                                   21518128.9804
                                                                        52.5004
        40.5004
    -84665.94148    -42414.42247
                  20511600.9304                                   20511598.2664
                                                                        51.7504
        42.2504
   3395643.68047   2657452.62545
                  23087193.9304                                   23087190.9574
                                                                        46.5004
        34.0004
  -5525574.53547  -4231624.93044
                  22906306.1094                                   22906303.5474
                                                                        45.0004
        29.0004
   7112002.19947   5539172.97744
                  24093783.4924                                   24093779.6094
                                                                        45.5004
        28.5004
   6034292.83647   4703577.76644
                  23254654.2814                                   23254650.6454
                                                                        43.2504
        26.2504
  -1666692.32448  -1269810.16045
                  21887339.8444                                   21887334.1684
                                                                        49.5004
        35.0004
   -120759.06247    -70415.96945
                  22504677.6564                                   22504675.6524
                                                                        45.7504
        31.0004
    -84452.87547    -45788.85544
                  23627876.6334                                   23627873.1994
                                                                        42.0004
        29.0004
 09 10  1 23 38 30.0000000  0  9G02G04G12G13G17G20G23G30G31
  -4446396.99648  -3429281.46146
                  21486316.0314                                   21486311.3204
                                                                        53.0004
        40.7504
   -174480.94948   -112400.15247
                  20494509.6094                                   20494507.1994
                                                                        49.7504
        42.2504
   3364029.42247   2632818.11345
                  23081178.0004                                   23081174.9924
                                                                        45.5004
        34.0004
  -5715654.26247  -4379738.87544
                  22870135.4304                                   22870132.1844
                                                                        46.2504
        29.7504
   7133188.88747   5555682.08244
                  24097814.5634                                   24097810.8404
                                                                        44.2504
        27.2504
   6040781.37947   4708633.81344
                  23255889.0234                                   23255885.9534
                                                                        43.5004
        26.0004
  -1782357.21948  -1359938.66045
                  21865329.6724                                   21865324.4614
                                                                        49.5004
        35.0004
   -207813.99647   -138251.04745
                  22488111.9304                                   22488109.4924
                                                                        44.0004
        31.2504
   -173358.27747   -115065.84044
                  23610958.4224                                   23610954.8634
                                                                        42.5004
        29.5004
 09 10  1 23 39  0.0000000  0  9G02G04G12G13G17G20G23G30G31
  -4613159.05948  -3559225.95746
                  21454582.7114                                   21454578.1024
                                                                        52.5004
        40.5004
   -263686.29348   -181910.64547
                  20477534.5004                                   20477531.8954
                                                                        52.5004
        42.0004
   3332953.52047   2608603.16045
                  23075264.2974                                   23075261.4924
                                                                        46.5004
        34.5004
  -5905314.18747  -4527525.60945
                  22834044.1564                                   22834040.9534
                                                                        47.5004
        30.2504
   7154563.65646   5572337.66044
                  24101882.0944                                   24101879.4224
                                                                        40.5004
        27.5004
   6047577.23047   4713929.30144
                  23257182.4144                                   23257178.6914
                                                                        42.5004
        24.7504
  -1897358.52348  -1449549.97745
                  21843445.8834                                   21843440.4024
                                                                        49.2504
        34.7504
   -294148.03947   -205524.36745
                  22471682.9454                                   22471680.9304
                                                                        46.5004
        31.2504
   -261622.69947   -183843.30944
                  23594161.9844                                   23594158.8594
                                                                        43.2504
        28.5004
 09 10  1 23 39 30.0000000  0  9G02G04G12G13G17G20G23G30G31
  -4779478.75048  -3688825.76646
                  21422933.1414                                   21422928.4614
                                                                        52.5004
        40.2504
   -352282.10948   -250946.29347
                  20460674.8364                                   20460672.2624
                                                                        51.5004
        43.0004
   3302414.20747   2584806.33645
                  23069453.0704                                   23069449.9264
                                                                        44.7504
        34.0004
  -6094551.15247  -4674982.93444
                  22798033.5314                                   22798029.9304
                                                                        47.7504
        29.5004
   7176125.09846   5589138.65644
                  24105984.3284                                   24105982.5744
                                                                        41.0004
        28.0004
   6054678.86747   4719463.05144
                  23258533.9454                                   23258530.1254
                                                                        43.2504
        24.7504
  -2011695.16048  -1538643.42245
                  21821688.0704                                   21821682.6454
                                                                        49.7504
        35.0004
   -379761.18047   -272235.95745
                  22455391.3054                                   22455388.7584
                                                                        47.0004
        30.7504
   -349245.43447   -252120.67244
                  23577487.6884                                   23577484.5634
                                                                        44.5004
        28.2504
 09 10  1 23 40  0.0000000  0  9G02G04G12G13G17G20G23G30G31
  -4945354.68748  -3818079.73446
                  21391368.0314                                   21391363.2854
                                                                        52.5004
        40.2504
   -440269.04348   -319507.55147
                  20443931.9534                                   20443929.3014
                                                                        52.5004
        42.2504
   3272408.22347   2561425.05945
                  23063742.5164                                   23063739.6174
                                                                        46.2504
        33.0004
  -6283363.07047  -4822109.27744
                  22762103.4774                                   22762099.9964
                                                                        47.2504
        28.5004
   7197869.72347   5606082.44144
                  24110122.8444                                   24110120.7344
                                                                        43.0004
        28.7504
   6062083.21947   4725232.70344
                  23259942.5004                                   23259939.4884
                                                                        43.2504
        25.0004
  -2125367.16448  -1627218.99645
                  21800057.0944                                   21800051.7034
                                                                        49.5004
        35.5004
   -464654.43747   -338386.59845
                  22439236.6174                                   22439234.1214
                                                                        45.5004
        31.7504
   -436227.58647   -319898.95744
                  23560936.0164                                   23560932.4654
                                                                        42.5004
        28.7504
 09 10  1 23 40 30.0000000  0  9G02G04G12G13G17G20G23G30G31
  -5110782.28948  -3946984.31246
                  21359887.9144                                   21359883.3014
                                                                        53.0004
        41.0004
   -527644.60248   -387592.44547
                  20427304.6334                                   20427302.2274
                                                                        52.2504
        42.5004
   3242936.40247   2538460.04745
                  23058134.3054                                   23058131.5164
                                                                        46.5004
        33.5004
  -6471743.84047  -4968899.74244
                  22726256.2734                                   22726253.1174
                                                                        46.7504
        29.0004
   7219798.29747   5623169.58244
                  24114296.2584                                   24114293.2464
                                                                        45.0004
        29.7504
   6069790.63747   4731238.51644
                  23261409.0944                                   23261405.5594
                                                                        42.5004
        24.5004
  -2238370.83248  -1715273.81645
                  21778552.9144                                   21778547.3284
                                                                        50.2504
        35.0004
   -548825.73447   -403974.68445
                  22423219.4844                                   22423217.0234
                                                                        45.2504
        31.2504
   -522566.56647   -387175.99644
                  23544506.1024                                   23544502.9774
                                                                        44.0004
        29.7504
 09 10  1 23 41  0.0000000  0  9G02G04G12G13G17G20G23G30G31
  -5275764.52048  -4075541.98846
                  21328492.8754                                   21328488.1914
                                                                        53.0004
        40.5004
   -614413.56648   -455204.66447
                  20410793.4304                                   20410790.4804
                                                                        53.0004
        42.0004
   3213991.69947   2515905.73045
                  23052626.3364                                   23052623.6564
                                                                        46.2504
        33.5004
  -6659694.75047  -5115355.07844
                  22690489.8674                                   22690487.2274
                                                                        46.5004
        29.7504
   7241903.13347   5640394.11344
                  24118502.2974                                   24118499.5124
                                                                        45.0004
        26.7504
   6077793.54747   4737474.49244
                  23262931.8914                                   23262928.6414
                                                                        42.5004
        24.5004
  -2350710.32048  -1802811.12945
                  21757176.0944                                   21757170.1844
                                                                        50.7504
        35.0004
   -632280.16847   -469004.19545
                  22407338.6414                                   22407336.7544
                                                                        47.0004
        30.5004
   -608267.73847   -453956.11744
                  23528197.4454                                   23528193.9694
                                                                        44.7504
        29.0004
 09 10  1 23 41 30.0000000  0  9G02G04G12G13G17G20G23G30G31
  -5440294.89848  -4203747.47746
                  21297184.1954                                   21297179.2304
                                                                        53.0004
        41.0004
   -700572.28948   -522341.33246
                  20394397.8834                                   20394394.8714
                                                                        52.5004
        41.7504
   3185575.67247   2493763.37145
                  23047219.4454                                   23047216.3834
                                                                        45.2504
        34.5004
  -6847208.12947  -5261469.18445
                  22654808.1724                                   22654804.7114
                                                                        47.7504
        30.5004
   7264186.31647   5657757.65244
                  24122742.7424                                   24122739.2704
                                                                        44.5004
        25.2504
   6086094.43046   4743942.76244
                  23264511.3444                                   23264508.2074
                                                                        41.5004
        25.0004
  -2462380.23848  -1889826.64545
                  21735925.6884                                   21735920.5434
                                                                        49.7504
        35.5004
   -715013.71547   -533471.94545
                  22391594.6254                                   22391592.6484
                                                                        47.0004
        31.0004
   -693326.82847   -520235.98444
                  23512011.6254                                   23512008.3524
                                                                        43.7504
        28.2504
 09 10  1 23 42  0.0000000  0  9G02G04G12G13G17G20G23G30G31
  -5604372.62948  -4331600.27746
                  21265961.1334                                   21265956.2344
                                                                        52.7504
        41.0004
   -786121.72348   -589003.25447
                  20378118.2974                                   20378115.6914
                                                                        53.0004
        42.2504
   3157685.35247   2472030.67245
                  23041911.9694                                   23041908.9614
                                                                        46.5004
        33.5004
  -7034283.29347  -5407241.84045
                  22619208.3284                                   22619205.0314
                                                                        46.7504
        30.0004
   7286644.62547   5675257.62544
                  24127017.0004                                   24127013.0394
                                                                        43.0004
        25.7504
   6094689.31347   4750640.05144
                  23266147.5164                                   23266144.1094
                                                                        42.5004
        25.2504
  -2573381.53948  -1976321.16046
                  21714802.6174                                   21714797.3284
                                                                        50.0004
        36.0004
   -797028.34047   -597379.52345
                  22375987.9614                                   22375986.1094
                                                                        44.5004
        30.5004
   -777745.18047   -586016.44944
                  23495947.2584                                   23495943.9574
                                                                        44.5004
        28.7504
 09 10  1 23 42 30.0000000  0  8G02G04G12G13G20G23G30G31
  -5767996.64148  -4459099.53146
                  21234824.5394                                   21234819.6094
                                                                        52.7504
        41.0004
   -871062.87948   -655191.20747
                  20361954.6884                                   20361951.7894
                                                                        52.2504
        42.2504
   3130317.36747   2450705.01245
                  23036703.7504                                   23036700.7854
                                                                        45.0004
        34.0004
  -7220917.75847  -5552671.20745
                  22583692.6094                                   22583689.5864
                                                                        47.7504
        30.0004
   6103575.72747   4757564.56344
                  23267838.5234                                   23267835.1684
                                                                        42.5004
        24.5004
  -2683713.82848  -2062294.36346
                  21693807.0004                                   21693801.7384
                                                                        50.2504
        36.0004
   -878325.00847   -660727.62545
                  22360518.0864                                   22360515.8794
                                                                        47.0004
        31.2504
   -861523.86347   -651298.57044
                  23480004.8204                                   23480001.3014
                                                                        44.5004
        28.5004
 09 10  1 23 43  0.0000000  0  8G02G04G12G13G20G23G30G31
  -4355741.69548  -3358641.12546
                  21503567.5944                                   21503562.7504
                                                                        53.0004
        40.7504
    620024.24248    506694.86747
                  20645698.8754                                   20645696.3014
                                                                        52.5004
        42.7504
   4678887.89847   3657383.31645
                  23331387.1884                                   23331383.7274
                                                                        46.5004
        34.0004
  -5831684.90247  -4470152.02345
                  22848055.1334                                   22848051.8444
                                                                        47.2504
        30.0004
   7688167.90646   5992311.75444
                  23569376.0944                                   23569372.6524
                                                                        40.5004
        25.2504
  -1217955.74648   -920145.24245
                  21972731.8054                                   21972726.4574
                                                                        50.7504
        35.5004
    616516.13347    504083.63745
                  22644976.7734                                   22644974.5944
                                                                        46.0004
        30.2504
    630757.10547    511517.84444
                  23763976.3594                                   23763972.9304
                                                                        43.2504
        29.0004
 09 10  1 23 43 30.0000000  0  8G02G04G12G13G20G23G30G31
  -4518448.14848  -3485425.37546
                  21472605.6954                                   21472600.6644
                                                                        53.0004
        40.5004
    536302.85948    441457.41447
                  20629767.4384                                   20629764.6524
                                                                        52.5004
        42.2504
   4652561.68447   3636869.41445
                  23326377.0944                                   23326374.4304
                                                                        45.2504
        33.2504
  -6017424.88747  -4614884.35245
                  22812710.1094                                   22812706.7304
                                                                        47.0004
        30.5004
   7697633.72346   5999687.73843
                  23571177.1484                                   23571174.1214
                                                                        39.5004
        22.7504
  -1326944.55148  -1005071.59046
                  21951991.9304                                   21951986.3674
                                                                        50.5004
        36.0004
    536657.52347    441856.10945
                  22629780.2034                                   22629778.2274
                                                                        43.7504
        31.0004
    548260.46547    447234.78944
                  23748277.7584                                   23748274.3404
                                                                        42.0004
        29.2504
 09 10  1 23 44  0.0000000  0  8G02G04G12G13G20G23G30G31
  -4680688.39148  -3611846.31246
                  21441732.3674                                   21441727.4924
                                                                        53.0004
        41.0004
    453195.43848    376698.41047
                  20613952.4844                                   20613949.9144
                                                                        53.0004
        42.0004
   4626757.46547   3616762.28945
                  23321466.8914                                   23321463.8444
                                                                        45.5004
        33.0004
  -6202708.47747  -4759261.08244
                  22777451.6254                                   22777448.1804
                                                                        46.7504
        29.5004
   7707390.39846   6007290.35243
                  23573033.5084                                   23573030.6994
                                                                        38.5004
        22.5004
  -1435256.05148  -1089470.15645
                  21931380.7584                                   21931375.4224
                                                                        49.7504
        35.5004
    457521.51647    380191.66445
                  22614721.2664                                   22614719.0744
                                                                        46.0004
        31.7504
    466408.89146    383454.34844
                  23732702.0084                                   23732698.6174
                                                                        41.7504
        29.2504
 09 10  1 23 44 30.0000000  0  8G02G04G12G13G20G23G30G31
  -4842464.54748  -3737905.67646
                  21410947.3524                                   21410942.4844
                                                                        52.7504
        41.0004
    370697.77048    312414.51647
                  20598253.6954                                   20598250.9884
                                                                        51.0004
        42.0004
   4601469.21947   3597057.22345
                  23316654.6414                                   23316651.9024
                                                                        45.0004
        33.2504
  -6387536.84847  -4903283.10944
                  22742279.6954                                   22742276.4924
                                                                        46.5004
        28.7504
   7717431.51646   6015114.60543
                  23574944.4304                                   23574941.5704
                                                                        39.2504
        22.7504
  -1542893.60948  -1173343.55945
                  21910898.0394                                   21910892.5514
                                                                        50.5004
        35.5004
    379103.82047    319086.95745
                  22599799.1254                                   22599796.8524
                                                                        47.0004
        31.5004
    385198.32446    320173.46545
                  23717247.6644                                   23717244.4534
                                                                        41.7504
        30.5004
 09 10  1 23 45  0.0000000  0  8G02G04G12G13G20G23G30G31
  -5003781.98448  -3863607.56246
                  21380249.5394                                   21380244.8634
                                                                        52.5004
        40.5004
    288802.39548    248599.93047
                  20582669.6884                                   20582666.8484
                                                                        51.5004
        42.5004
   4576687.08647   3577746.50045
                  23311938.4694                                   23311935.4304
                                                                        45.5004
        34.0004
  -6571914.62947  -5046954.07445
                  22707193.7424                                   22707190.3014
                                                                        47.0004
        30.0004
   7727747.41046   6023152.97344
                  23576908.3364                                   23576904.5514
                                                                        40.7504
        24.5004
  -1649864.02048  -1256697.11346
                  21890542.1024                                   21890536.5594
                                                                        49.7504
        36.0004
    301396.02047    258535.37545
                  22585011.5944                                   22585009.3324
                                                                        45.5004
        31.5004
    304620.59847    257385.60944
                  23701914.5394                                   23701910.7584
                                                                        42.0004
        28.7504
 09 10  1 23 45 30.0000000  0  8G02G04G12G13G20G23G30G31
  -5164641.12548  -3988952.30546
                  21349639.1174                                   21349634.7304
                                                                        53.2504
        41.0004
    207506.90248    185252.82047
                  20567199.5704                                   20567196.8164
                                                                        51.7504
        42.0004
   4552406.36347   3558826.50445
                  23307318.0234                                   23307314.9454
                                                                        46.5004
        33.7504
  -6755840.20347  -5190272.68045
                  22672193.8444                                   22672190.3014
                                                                        46.5004
        30.0004
   7738334.06646   6031402.29744
                  23578922.4774                                   23578919.5944
                                                                        41.0004
        25.2504
  -1756168.78948  -1339532.02745
                  21870313.5634                                   21870307.5514
                                                                        49.7504
        35.5004
    224395.34847    198534.78545
                  22570358.5784                                   22570356.9024
                                                                        45.5004
        31.0004
    224673.69547    195089.42244
                  23686701.0474                                   23686697.3284
                                                                        43.0004
        29.5004
 09 10  1 23 46  0.0000000  0  8G02G04G12G13G20G23G30G31
  -5325043.10548  -4113940.84446
                  21319115.3524                                   21319110.7544
                                                                        52.5004
        40.5004
    126806.80148    122369.62947
                  20551842.8134                                   20551840.0514
                                                                        51.7504
        42.5004
   4528621.19147   3540292.64845
                  23302792.3284                                   23302789.1054
                                                                        47.0004
        34.0004
  -6939314.93747  -5333239.96145
                  22637279.2344                                   22637276.3874
                                                                        46.5004
        30.2504
   7749185.02746   6039857.57844
                  23580987.3914                                   23580984.0434
                                                                        41.0004
        24.5004
  -1861811.42648  -1421850.95745
                  21850210.1024                                   21850204.7154
                                                                        50.7504
        34.7504
    148098.00047    139082.35245
                  22555840.1024                                   22555837.7974
                                                                        47.2504
        31.5004
    145353.22346    133281.32844
                  23671606.3524                                   23671603.3244
                                                                        41.7504
        28.2504
 09 10  1 23 46 30.0000000  0  8G02G04G12G13G20G23G30G31
  -5484986.04748  -4238571.66046
                  21288679.3364                                   21288674.6414
                                                                        51.7504
        41.5004
     46702.28548     59950.50447
                  20536599.3134                                   20536596.9924
                                                                        52.0004
        42.5004
   4505329.54747   3522143.32045
                  23298359.7734                                   23298357.2464
                                                                        46.0004
        34.0004
  -7122336.01647  -5475853.77745
                  22602452.1804                                   22602449.4534
                                                                        45.7504
        30.5004
   7760298.47746   6048517.41843
                  23583102.2584                                   23583098.3834
                                                                        39.7504
        23.5004
  -1966791.14848  -1503653.33246
                  21830233.2274                                   21830227.6994
                                                                        50.5004
        36.0004
     72502.68847     80176.94145
                  22541454.6414                                   22541452.6764
                                                                        47.0004
        31.0004
     66658.15247     71960.53944
                  23656631.6024                                   23656627.7664
                                                                        43.0004
        28.5004
 09 10  1 23 47  0.0000000  0  8G02G04G12G13G20G23G30G31
  -5644471.27048  -4362845.84046
                  21258330.1414                                   21258325.6954
                                                                        51.5004
        41.0004
    -32809.83248     -2006.94547
                  20521468.7274                                   20521466.0164
                                                                        53.7504
        42.0004
   4482525.30147   3504373.81645
                  23294020.4614                                   23294017.4144
                                                                        47.0004
        33.5004
  -7304903.15647  -5618113.99245
                  22567710.6414                                   22567707.7384
                                                                        46.2504
        31.2504
   7771669.03546   6057377.56343
                  23585265.6094                                   23585262.9694
                                                                        41.2504
        22.7504
  -2071109.85248  -1584940.59445
                  21810381.9454                                   21810376.4694
                                                                        50.0004
        35.5004
     -2394.10947     21815.70745
                  22527202.3284                                   22527200.1174
                                                                        47.7504
        31.0004
    -11414.19147     11124.93844
                  23641774.7974                                   23641771.4694
                                                                        44.7504
        28.0004
 09 10  1 23 47 30.0000000  0  8G02G04G12G13G20G23G30G31
  -5803501.17248  -4486765.22346
                  21228067.7974                                   21228063.3014
                                                                        51.7504
        41.2504
   -111734.75448    -63506.86746
                  20506449.7894                                   20506447.3054
                                                                        53.5004
        41.7504
   4460201.95347   3486978.97345
                  23289772.2274                                   23289769.5164
                                                                        47.2504
        33.2504
  -7487017.65247  -5760021.39145
                  22533055.6644                                   22533051.9224
                                                                        46.5004
        31.2504
   7783289.56346   6066432.48443
                  23587477.2344                                   23587473.9304
                                                                        41.2504
        21.7504
  -2174772.05548  -1665716.33245
                  21790655.6024                                   21790650.0744
                                                                        50.7504
        35.5004
    -76597.46947    -36005.10245
                  22513081.8754                                   22513079.4384
                                                                        46.5004
        30.0004
    -88868.75447    -49229.27344
                  23627035.6174                                   23627032.4924
                                                                        44.0004
        28.0004
 09 10  1 23 48  0.0000000  0  8G02G04G12G13G20G23G30G31
  -5962070.74648  -4610325.95746
                  21197893.0394                                   21197888.1994
                                                                        51.5004
        41.2504
   -190069.49248   -124546.90647
                  20491543.1954                                   20491540.6954
                                                                        53.5004
        42.2504
   4438360.20747   3469959.38745
                  23285616.3364                                   23285612.8244
                                                                        46.5004
        33.2504
  -7668673.43747  -5901571.33645
                  22498487.7814                                   22498484.0744
                                                                        47.2504
        31.5004
   7795161.62946   6075683.45743
                  23589735.8284                                   23589732.8164
                                                                        41.2504
        20.7504
  -2277773.78948  -1745977.41045
                  21771055.0004                                   21771049.8134
                                                                        50.0004
        35.5004
   -150105.02748    -93283.73845
                  22499093.8524                                   22499091.7464
                                                                        48.0004
        31.0004
   -165703.44947   -109100.49244
                  23612414.6174                                   23612411.6914
                                                                        44.7504
        28.5004
 09 10  1 23 48 30.0000000  0  8G02G04G12G13G20G23G30G31
  -6120178.68748  -4733526.94546
                  21167806.1094                                   21167801.4614
                                                                        52.5004
        41.0004
   -267815.18048   -185127.94147
                  20476748.6414                                   20476745.9064
                                                                        53.0004
        42.0004
   4416997.26647   3453312.97745
                  23281550.8134                                   23281547.8094
                                                                        46.0004
        32.5004
  -7849868.28548  -6042762.13345
                  22464007.2274                                   22464004.1374
                                                                        48.2504
        31.0004
   7807281.95747   6085127.85543
                  23592042.4534                                   23592038.8754
                                                                        42.0004
        21.5004
  -2380115.44548  -1825724.11745
                  21751580.0164                                   21751574.5234
                                                                        50.5004
        35.0004
   -222918.01647   -150021.05145
                  22485237.5554                                   22485235.1884
                                                                        46.2504
        30.0004
   -241919.21547   -168489.44544
                  23597911.4774                                   23597907.8204
                                                                        43.2504
        27.7504
 09 10  1 23 49  0.0000000  0  8G02G04G12G13G20G23G30G31
  -6277825.41448  -4856368.51646
                  21137807.0554                                   21137802.0634
                                                                        52.2504
        41.5004
   -344974.43748   -245251.96947
                  20462065.5634                                   20462062.8794
                                                                        53.5004
        42.5004
   4396107.99247   3437035.66845
                  23277575.4304                                   23277572.2114
                                                                        46.7504
        32.2504
  -8030601.98447  -6183593.57045
                  22429615.0314                                   22429611.7074
                                                                        47.2504
        30.7504
   7819646.14547   6094762.26243
                  23594395.7504                                   23594391.9884
                                                                        42.7504
        22.5004
  -2481799.28948  -1904958.25445
                  21732229.9384                                   21732224.5474
                                                                        50.7504
        35.7504
   -295040.42247   -206220.32845
                  22471513.2034                                   22471511.7194
                                                                        47.2504
        30.5004
   -317518.86747   -227398.30544
                  23583525.3444                                   23583521.9884
                                                                        44.0004
        29.2504
 09 10  1 23 49 30.0000000  0  8G02G04G12G13G20G23G30G31
  -6435008.85248  -4978849.05146
                  21107896.1334                                   21107891.1684
                                                                        51.7504
        41.2504
   -421547.75048   -304919.54347
                  20447494.2504                                   20447491.6914
                                                                        52.7504
        42.5004
   4375690.43447   3421125.89845
                  23273690.0784                                   23273686.8094
                                                                        46.2504
        32.0004
  -8210871.33247  -6324063.18445
                  22395310.4144                                   22395307.0824
                                                                        46.7504
        30.5004
   7832252.15246   6104585.14844
                  23596794.6414                                   23596791.2814
                                                                        41.7504
        26.0004
  -2582824.64548  -1983679.31646
                  21713005.9144                                   21712999.9344
                                                                        49.2504
        36.0004
   -366472.80947   -261881.97345
                  22457920.3754                                   22457918.0164
                                                                        45.5004
        30.0004
   -392502.76247   -285827.30144
                  23569256.3444                                   23569252.8674
                                                                        44.0004
        28.5004
 09 10  1 23 50  0.0000000  0  8G02G04G12G13G20G23G30G31
  -6591726.39848  -5100966.60946
                  21078073.7734                                   21078069.0514
                                                                        51.5004
        41.5004
   -497534.82848   -364130.25047
                  20433034.5554                                   20433031.8484
                                                                        53.2504
        42.7504
   4355742.23047   3405581.73845
                  23269894.4774                                   23269890.8874
                                                                        46.2504
        32.2504
  -8390673.01247  -6464168.43745
                  22361095.4924                                   22361092.4844
                                                                        47.0004
        30.7504
   7845097.63346   6114594.58244
                  23599239.0164                                   23599235.5394
                                                                        40.5004
        24.2504
  -2683190.74648  -2061886.68745
                  21693906.8444                                   21693901.2504
                                                                        49.2504
        35.2504
   -437215.12947   -317005.84045
                  22444458.3054                                   22444456.6254
                                                                        46.0004
        31.0004
   -466871.01647   -343776.55544
                  23555104.1724                                   23555100.8954
                                                                        43.7504
        29.0004
 09 10  1 23 50 30.0000000  0  8G02G04G12G13G20G23G30G31
  -6747977.73848  -5222720.95746
                  21048340.1094                                   21048335.4384
                                                                        50.2504
        41.5004
   -572937.28148   -422885.44947
                  20418686.0084                                   20418683.3444
                                                                        52.0004
        42.2504
   4336260.46947   3390401.07845
                  23266187.3834                                   23266183.9614
                                                                        47.0004
        32.0004
  -8570004.78947  -6603907.52045
                  22326969.6094                                   22326966.6684
                                                                        47.5004
        30.7504
   7858179.96946   6124788.52343
                  23601728.1414                                   23601725.1134
                                                                        39.7504
        23.0004
  -2782897.71948  -2139580.40245
                  21674933.1094                                   21674927.3794
                                                                        48.2504
        35.5004
   -507269.60947   -371593.75445
                  22431127.8134                                   22431125.2234
                                                                        45.7504
        30.5004
   -540625.39146   -401247.49644
                  23541069.1644                                   23541065.8554
                                                                        41.5004
        28.2504
 09 10  1 23 51  0.0000000  0  8G02G04G12G13G20G23G30G31
  -6903760.48848  -5344110.06246
                  21018695.6094                                   21018690.8484
                                                                        51.7504
        41.5004
   -647755.62148   -481185.43747
                  20404448.5234                                   20404446.1054
                                                                        53.2504
        42.2504
   4317241.80547   3375581.30945
                  23262568.0084                                   23262564.7774
                                                                        46.2504
        33.0004
  -8748864.06648  -6743278.38745
                  22292933.9694                                   22292931.0204
                                                                        48.0004
        31.0004
   7871496.62946   6135165.07843
                  23604262.3134                                   23604259.4024
                                                                        38.0004
        21.7504
  -2881945.91048  -2216760.80545
                  21656084.8524                                   21656079.0434
                                                                        49.7504
        35.5004
   -576637.52747   -425646.72345
                  22417927.2344                                   22417925.0554
                                                                        46.5004
        30.5004
   -613766.57047   -458240.63744
                  23527150.8284                                   23527147.6054
                                                                        44.0004
        29.0004
 09 10  1 23 51 30.0000000  0  8G02G04G12G13G20G23G30G31
  -5483649.05948  -4237529.74246
                  21288933.7664                                   21288928.9344
                                                                        51.7504
        41.2504
    853431.20348    688570.55547
                  20690114.6334                                   20690111.8984
                                                                        52.7504
        42.5004
   5874103.64847   4588720.36345
                  23558829.2114                                   23558826.0354
                                                                        46.7504
        32.7504
  -7351823.05147  -5654674.95345
                  22558782.1414                                   22558778.8984
                                                                        47.7504
        31.7504
   9460463.87546   7373321.37543
                  23906632.7974                                   23906629.3834
                                                                        37.5004
        20.2504
  -1404912.67248  -1065825.82045
                  21937155.1884                                   21937149.5944
                                                                        49.2504
        35.5004
    930101.53947    748435.57445
                  22704650.3134                                   22704648.3324
                                                                        46.5004
        30.7504
    889125.85947    712844.37544
                  23813141.9614                                   23813138.5664
                                                                        45.0004
        27.7504
 09 10  1 23 52  0.0000000  0  8G02G04G12G13G20G23G30G31
  -5638492.43748  -4358186.89546
                  21259468.1094                                   21259463.2274
                                                                        51.2504
        41.2504
    779776.92248    631177.71147
                  20676098.6024                                   20676096.1644
                                                                        51.7504
        42.5004
   5856001.83647   4574615.03145
                  23555384.4384                                   23555381.9884
                                                                        46.7504
        32.7504
  -7529731.83248  -5793305.17245
                  22524926.9844                                   22524923.9304
                                                                        48.0004
        32.0004
   9474239.21546   7384055.43443
                  23909254.1724                                   23909250.2854
                                                                        40.2504
        20.0004
  -1502645.28548  -1141981.03945
                  21918556.8054                                   21918551.2274
                                                                        48.5004
        35.5004
    862101.54747    695448.53545
                  22691710.5164                                   22691708.0394
                                                                        45.5004
        30.0004
    817205.42246    656802.45344
                  23799456.0164                                   23799452.8204
                                                                        41.5004
        28.0004
 09 10  1 23 52 30.0000000  0  8G02G04G12G13G20G23G30G31
  -5792864.25848  -4478476.59446
                  21230091.6254                                   21230087.1214
                                                                        51.5004
        41.5004
    706702.55148    574236.67247
                  20662193.0164                                   20662190.1804
                                                                        53.0004
        42.2504
   5838353.54747   4560863.12145
                  23552025.6564                                   23552023.0434
                                                                        47.0004
        32.7504
  -7707162.03947  -5931562.41845
                  22491162.9924                                   22491159.9614
                                                                        47.7504
        31.0004
   9488239.62946   7394964.87143
                  23911918.9144                                   23911914.7544
                                                                        41.0004
        22.0004
  -1599720.79748  -1217624.24245
                  21900083.8984                                   21900078.2734
                                                                        48.7504
        35.5004
    794782.89547    642992.44945
                  22678900.2344                                   22678897.8594
                                                                        47.0004
        30.5004
    745893.62147    601234.89144
                  23785885.4924                                   23785882.3984
                                                                        44.5004
        28.5004
 09 10  1 23 53  0.0000000  0  8G02G04G12G13G20G23G30G31
  -5946762.90648  -4598397.61346
                  21200805.8834                                   21200801.0944
                                                                        51.2504
        41.7504
    634208.01648    517747.46147
                  20648397.8754                                   20648395.2734
                                                                        53.0004
        43.0004
   5821155.98447   4547462.32045
                  23548753.5394                                   23548750.6374
                                                                        47.7504
        33.0004
  -7884110.49647  -6069444.28145
                  22457490.5634                                   22457487.8014
                                                                        47.0004
        30.7504
   9502463.59047   7406048.55144
                  23914625.9844                                   23914622.1374
                                                                        42.7504
        24.5004
  -1696138.28548  -1292754.67245
                  21881736.4304                                   21881730.7854
                                                                        49.0004
        35.0004
    728144.49247    591066.39844
                  22666219.4534                                   22666216.7154
                                                                        45.0004
        29.7504
    675189.78947    546140.98844
                  23772431.0394                                   23772428.2624
                                                                        45.2504
        28.0004
 09 10  1 23 53 30.0000000  0  8G02G04G12G13G20G23G30G31
  -6100187.98048  -4717949.59446
                  21171609.9454                                   21171605.4064
                                                                        50.0004
        41.5004
    562290.42248    461707.74247
                  20634712.4924                                   20634709.8324
                                                                        52.5004
        42.2504
   5804405.43447   4534409.94145
                  23545565.7034                                   23545563.2234
                                                                        47.7504
        31.5004
  -8060577.09447  -6206950.73045
                  22423910.6174                                   22423907.2774
                                                                        47.5004
        32.0004
   9516905.82046   7417302.23443
                  23917373.4454                                   23917370.4264
                                                                        41.7504
        23.5004
  -1791900.23048  -1367374.37145
                  21863513.3984                                   21863508.2114
                                                                        49.7504
        35.2504
    662183.27747    539668.00845
                  22653667.5474                                   22653664.7074
                                                                        45.2504
        31.0004
    605090.68447    491518.25444
                  23759091.8134                                   23759087.8634
                                                                        44.7504
        28.0004
 09 10  1 23 54  0.0000000  0  8G02G04G12G13G20G23G30G31
  -6253137.73448  -4837131.16446
                  21142504.6804                                   21142500.0314
                                                                        50.2504
        41.5004
    490950.03548    406117.86747
                  20621136.8284                                   20621134.0354
                                                                        53.0004
        42.7504
   5788098.87147   4521703.55545
                  23542462.9144                                   23542459.6844
                                                                        47.2504
        32.2504
  -8236557.98848  -6344078.76245
                  22390422.5704                                   22390419.3444
                                                                        48.0004
        31.7504
   9531565.05546   7428725.00443
                  23920163.0634                                   23920160.5594
                                                                        40.0004
        22.0004
  -1887005.91848  -1441482.58245
                  21845415.0704                                   21845409.4494
                                                                        48.0004
        35.2504
    596898.25047    488796.59045
                  22641244.4224                                   22641241.5664
                                                                        44.0004
        30.0004
    535596.10247    437366.55944
                  23745867.4304                                   23745863.4884
                                                                        44.2504
        26.7504
 09 10  1 23 54 30.0000000  0  8G02G04G12G13G20G23G30G31
  -6405609.31648  -4955940.12946
                  21113490.4844                                   21113485.6884
                                                                        51.0004
        41.7504
    420186.12548    350976.99647
                  20607670.8054                                   20607668.3014
                                                                        53.5004
        42.2504
   5772235.10247   4509342.18445
                  23539444.2344                                   23539441.1484
                                                                        47.2504
        31.7504
  -8412050.27748  -6480826.02045
                  22357027.5234                                   22357024.4144
                                                                        48.5004
        32.2504
   9546439.14546   7440315.17243
                  23922993.3054                                   23922991.0164
                                                                        39.2504
        22.2504
  -1981454.50048  -1515078.61345
                  21827442.1954                                   21827436.6414
                                                                        49.2504
        35.7504
    532289.74647    438452.37545
                  22628949.7114                                   22628946.9224
                                                                        46.0004
        30.5004
    466706.33647    383686.28544
                  23732758.3524                                   23732754.1954
                                                                        44.0004
        28.5004
 09 10  1 23 55  0.0000000  0  8G02G04G12G13G20G23G30G31
  -6557601.82048  -5074375.80547
                  21084567.0864                                   21084562.5824
                                                                        50.7504
        42.2504
    349998.32048    296285.24647
                  20594314.2584                                   20594311.6604
                                                                        53.7504
        42.5004
   5756810.36747   4497322.90645
                  23536508.6724                                   23536506.1054
                                                                        47.0004
        31.5004
  -8587051.23448  -6617190.34445
                  22323725.9774                                   22323722.7854
                                                                        48.0004
        32.2504
   9561525.93846   7452070.97343
                  23925864.2114                                   23925861.5164
                                                                        40.5004
        20.5004
  -2075246.85548  -1588163.53145
                  21809593.9384                                   21809588.3324
                                                                        48.7504
        34.7504
    468355.07847    388633.22745
                  22616783.1954                                   22616780.4384
                                                                        45.0004
        30.7504
    398419.49647    330475.79344
                  23719764.0634                                   23719760.0474
                                                                        44.5004
        27.0004
 09 10  1 23 55 30.0000000  0  8G02G04G12G13G20G23G30G31
  -6709113.65248  -5192436.91047
                  21055735.2894                                   21055730.4184
                                                                        52.0004
        42.5004
    280385.41848    242041.50047
                  20581067.5864                                   20581064.9024
                                                                        53.2504
        42.7504
   5741822.02347   4485643.60545
                  23533656.6644                                   23533653.8674
                                                                        47.0004
        30.5004
  -8761558.94548  -6753170.35545
                  22290518.2504                                   22290514.7704
                                                                        49.0004
        32.2504
   9576822.47747   7463990.28943
                  23928775.3834                                   23928772.1484
                                                                        42.5004
        21.0004
  -2168383.10248  -1660737.23045
                  21791870.6094                                   21791865.2504
                                                                        50.0004
        35.5004
    405092.94947    339338.09845
                  22604744.5234                                   22604742.2584
                                                                        46.0004
        31.0004
    330734.22347    277734.05544
                  23706883.9224                                   23706879.8754
                                                                        45.0004
        27.7504
 09 10  1 23 56  0.0000000  0  8G02G04G12G13G20G23G30G31
  -6860144.02048  -5310122.85946
                  21026995.2974                                   21026989.8794
                                                                        51.2504
        41.5004
    211345.49248    188244.08247
                  20567929.9774                                   20567927.4384
                                                                        53.5004
        42.5004
   5727266.36747   4474301.51245
                  23530886.6954                                   23530883.5704
                                                                        46.2504
        31.7504
  -8935571.28948  -6888764.31645
                  22257404.8984                                   22257401.2504
                                                                        48.0004
        32.0004
   9592325.73047   7476070.82043
                  23931725.8674                                   23931721.4694
                                                                        43.0004
        19.2504
  -2260864.32048  -1732800.52045
                  21774272.1804                                   21774266.9024
                                                                        48.7504
        35.0004
    342500.90647    290565.10545
                  22592833.5704                                   22592830.7894
                                                                        45.0004
        30.7504
    263648.53547    225459.46144
                  23694117.5234                                   23694114.1454
                                                                        44.0004
        27.5004
 09 10  1 23 56 30.0000000  0  8G02G04G12G13G20G23G30G31
  -7010691.78148  -5427432.85946
                  20998347.0394                                   20998341.6334
                                                                        50.7504
        41.7504
    142877.83648    134892.71547
                  20554901.0004                                   20554898.4024
                                                                        53.0004
        42.5004
   5713140.42247   4463294.30545
                  23528198.6414                                   23528195.9304
                                                                        47.0004
        31.2504
  -9109086.13348  -7023970.63345
                  22224385.8204                                   22224382.7894
                                                                        48.0004
        32.2504
   9608033.04347   7488310.33643
                  23934714.9924                                   23934710.4774
                                                                        43.2504
        21.2504
  -2352690.44548  -1804353.35945
                  21756798.2274                                   21756792.9384
                                                                        48.0004
        35.5004
    280577.18047    242312.81345
                  22581050.3284                                   22581048.1254
                                                                        46.0004
        31.5004
    197161.35947    173651.22744
                  23681465.2114                                   23681462.0434
                                                                        44.7504
        27.5004
 09 10  1 23 57  0.0000000  0  8G02G04G12G13G20G23G30G31
  -7160756.05148  -5544366.03146
                  20969790.7894                                   20969785.8134
                                                                        51.5004
        41.2504
     74980.33248     81985.60546
                  20541980.3364                                   20541977.5434
                                                                        51.0004
        41.5004
   5699440.25847   4452618.82445
                  23525592.2034                                   23525588.5084
                                                                        46.0004
        32.0004
  -9282101.78548  -7158787.92245
                  22191461.9144                                   22191458.8484
                                                                        48.0004
        32.2504
   9623941.25846   7500706.37943
                  23937741.9774                                   23937738.4654
                                                                        41.5004
        22.0004
  -2443863.22748  -1875397.20745
                  21739448.8984                                   21739443.4534
                                                                        50.0004
        35.2504
    219319.39847    194579.43845
                  22569393.2114                                   22569390.6644
                                                                        45.5004
        31.0004
    131270.50846    122307.68844
                  23668926.6564                                   23668923.0474
                                                                        41.2504
        28.2504
 09 10  1 23 57 30.0000000  0  8G02G04G12G13G20G23G30G31
  -7310334.42248  -5660920.59446
                  20941326.8054                                   20941321.8484
                                                                        52.0004
        41.7504
      7653.46548     29523.21147
                  20529168.2504                                   20529165.7234
                                                                        53.5004
        42.5004
   5686164.54747   4442274.16045
                  23523065.2734                                   23523062.3324
                                                                        46.2504
        31.5004
  -9454615.02748  -7293213.81645
                  22158633.8444                                   22158630.7704
                                                                        48.5004
        33.0004
   9640048.82046   7513257.69543
                  23940806.9454                                   23940803.5354
                                                                        39.5004
        21.7504
  -2534381.72348  -1945931.13745
                  21722223.6724                                   21722217.8984
                                                                        50.0004
        35.5004
    158727.46147    147364.86745
                  22557862.9844                                   22557860.5044
                                                                        46.2504
        30.7504
     65975.84847     71428.68844
                  23656501.5864                                   23656498.0004
                                                                        44.5004
        27.5004
 09 10  1 23 58  0.0000000  0  8G02G04G12G13G20G23G30G31
  -7459425.90248  -5777095.62546
                  20912955.2584                                   20912950.2504
                                                                        53.0004
        41.5004
    -59105.41848    -22496.71946
                  20516464.6254                                   20516461.9924
                                                                        51.2504
        41.7504
   5673308.39847   4432256.36745
                  23520618.8204                                   23520616.0044
                                                                        46.0004
        31.7504
  -9626624.38748  -7427247.02745
                  22125901.5474                                   22125898.3484
                                                                        49.0004
        32.5004
   9656351.82045   7525961.21543
                  23943908.5004                                   23943906.7854
                                                                        35.5004
        19.7504
  -2624246.93448  -2015955.93046
                  21705122.8754                                   21705117.2974
                                                                        49.7504
        36.0004
     98798.56347    100667.05145
                  22546458.7344                                   22546456.6684
                                                                        47.2504
        30.5004
      1275.02346     21012.42644
                  23644189.7504                                   23644186.1214
                                                                        41.5004
        28.2504
 09 10  1 23 58 30.0000000  0  8G02G04G12G13G20G23G30G31
  -7608027.33648  -5892888.93046
                  20884677.6884                                   20884672.7704
                                                                        52.5004
        41.7504
   -125295.03548    -74073.16047
                  20503869.3834                                   20503866.4924
                                                                        53.0004
        42.0004
   5660872.14547   4422565.83245
                  23518252.4694                                   23518249.6604
                                                                        46.5004
        31.7504
  -9798125.19148  -7560883.96545
                  22093266.1174                                   22093262.5784
                                                                        49.0004
        32.5004
   9672850.14146   7538817.01643
                  23947048.7034                                   23947045.7934
                                                                        39.0004
        21.0004
  -2713457.35548  -2085470.53145
                  21688146.7194                                   21688140.7704
                                                                        50.5004
        35.0004
     39532.89847     54485.96945
                  22535180.7584                                   22535178.6604
                                                                        46.0004
        30.5004
    -62830.89147    -28940.21144
                  23631990.8204                                   23631986.8714
                                                                        44.0004
        26.7504
 09 10  1 23 59  0.0000000  0  8G02G04G12G13G20G23G30G31
  -7756133.53548  -6008296.28546
                  20856493.6564                                   20856488.9844
                                                                        51.5004
        41.7504
   -190912.29348   -125203.63347
                  20491382.9144                                   20491380.4064
                                                                        52.5004
        42.0004
   5648855.60947   4413202.39845
                  23515965.7034                                   23515962.5514
                                                                        45.7504
        31.7504
  -9969110.79748  -7694119.43745
                  22060728.3444                                   22060725.0274
                                                                        48.2504
        33.2504
   9689545.46146   7551826.33643
                  23950226.3134                                   23950222.9654
                                                                        41.7504
        23.7504
  -2802009.05948  -2154471.74645
                  21671295.6804                                   21671290.0984
                                                                        49.7504
        35.0004
    -19067.87547      8822.99645
                  22524029.7504                                   22524027.3284
                                                                        45.5004
        31.0004
   -126339.57047    -78427.41044
                  23619905.7504                                   23619901.4454
                                                                        42.0004
        26.7504
 09 10  1 23 59 30.0000000  0  8G02G04G12G13G20G23G30G31
  -7903747.48048  -6123320.14147
                  20828404.0474                                   20828399.1684
                                                                        50.7504
        42.0004
   -255962.52748   -175892.04747
                  20479004.2504                                   20479001.2154
                                                                        52.0004
        42.0004
   5637252.32447   4404160.89145
                  23513757.7504                                   23513754.7074
                                                                        46.5004
        30.5004
 -10139584.22748  -7826955.82445
                  22028288.7894                                   22028284.9224
                                                                        49.2504
        32.7504
   9706429.99647   7564983.07043
                  23953439.1174                                   23953436.4774
                                                                        43.0004
        22.5004
  -2889907.98448  -2222964.32045
                  21654569.1024                                   21654563.4774
                                                                        49.0004
        35.2504
    -77008.57047    -36325.55145
                  22513003.5944                                   22513001.6374
                                                                        45.0004
        31.5004
   -189256.91847   -127453.91444
                  23607932.3674                                   23607929.3284
                                                                        43.5004
        27.7504
