     2.11           OBSERVATION DATA    G (GPS)             RINEX VERSION / TYPE
teqc  2019Feb25                         20221121 12:28:07UTCPGM / RUN BY / DATE
OSX ker:10.11.6|Core i5|gcc 4.3 -m64|OSX ker:10.10+|=+      COMMENT
BIT 2 OF LLI FLAGS DATA COLLECTED UNDER A/S CONDITION       COMMENT
04712801                                                    MARKER NAME
2801                                                        MARKER NUMBER
-Unknown-           -Unknown-                               OBSERVER / AGENCY
0220400471          TRIMBLE R7          2.30                REC # / TYPE / VERS
-Unknown-           TRM39105.00     NONE                    ANT # / TYPE
  1449461.1358 -1709240.7211  5952444.2218                  APPROX POSITION XYZ
        0.0000        0.0000        0.0000                  ANTENNA: DELTA H/E/N
     1     1                                                WAVELENGTH FACT L1/2
    20    L1    L2    L5    L6    L7    L8    C1    P1    C2# / TYPES OF OBSERV
          P2    C5    C6    C7    C8    S1    S2    S5    S6# / TYPES OF OBSERV
          S7    S8                                          # / TYPES OF OBSERV
    30.0000                                                 INTERVAL
    15                                                      LEAP SECONDS
Forced Modulo Decimation to 30 seconds                      COMMENT
 SNR is mapped to RINEX snr flag value [0-9]                COMMENT
  L1 & L2: min(max(int(snr_dBHz/6), 0), 9)                  COMMENT
teqc edited: Beidou # 1 - 37 excluded                       COMMENT
  2009    10     7    23    10    0.0000000     GPS         TIME OF FIRST OBS
                                                            END OF HEADER
 09 10  7 23 10  0.0000000  0  9G02G04G12G13G17G20G23G30G31
   -325162.89158   -199354.31656
                  21578648.1094                                   21578642.3874
                                                                        52.2504
        40.5004
   -180305.16858   -110993.82857
                  20463753.1564                                   20463749.3594
                                                                        51.0004
        42.2504
    -69256.53957    -42832.00455
                  22968999.2814                                   22968995.2544
                                                                        45.5004
        34.5004
   -367453.71157   -224057.98054
                  22986222.5084                                   22986218.0354
                                                                        46.5004
        28.7504
     34833.87557     20163.84455
                  23881084.3284                                   23881080.8134
                                                                        45.7504
        31.5004
      4966.95757      2005.22354
                  23059219.1884                                   23059214.2774
                                                                        44.7504
        27.5004
   -231996.92258   -145621.47756
                  21875599.5784                                   21875592.8794
                                                                        48.5004
        36.2504
   -169977.14157   -109161.32055
                  22451049.1094                                   22451045.8524
                                                                        45.0004
        32.0004
   -180109.05957   -111511.94554
                  23576169.7114                                   23576165.1214
                                                                        42.7504
        28.5004
 09 10  7 23 10 30.0000000  0  9G02G04G12G13G17G20G23G30G31
   -499360.44948   -335092.65646
                  21545499.7734                                   21545493.5784
                                                                        51.7504
        40.5004
   -277299.18448   -186573.57847
                  20445295.9144                                   20445292.0704
                                                                        50.5004
        42.5004
   -107808.84447    -72872.77745
                  22961663.1954                                   22961658.7854
                                                                        46.0004
        34.2504
   -564059.79747   -377257.53144
                  22948809.8984                                   22948804.7934
                                                                        45.5004
        29.5004
     50724.61747     32546.49245
                  23884107.7344                                   23884104.5164
                                                                        44.5004
        30.0004
      5225.82047      2206.91044
                  23059268.7344                                   23059263.6414
                                                                        44.5004
        26.2504
   -356591.61748   -242708.23445
                  21851889.8444                                   21851883.3204
                                                                        48.0004
        35.7504
   -265668.09047   -183725.70745
                  22432839.5784                                   22432836.2194
                                                                        43.5004
        31.5004
   -277933.10246   -187738.48444
                  23557554.5784                                   23557549.8594
                                                                        41.5004
        28.5004
 09 10  7 23 11  0.0000000  0  9G02G04G12G13G17G20G23G30G31
   -673503.05148   -470788.19146
                  21512361.3054                                   21512355.3244
                                                                        52.5004
        40.2504
   -374053.13748   -261966.27746
                  20426884.3914                                   20426880.3094
                                                                        50.0004
        41.7504
   -146179.91847   -102772.31245
                  22954361.7664                                   22954357.2194
                                                                        46.5004
        34.5004
   -760636.52047   -530434.16044
                  22911402.0234                                   22911397.5744
                                                                        45.5004
        28.7504
     66450.85247     44800.62944
                  23887100.2974                                   23887096.8204
                                                                        44.0004
        29.0004
      5440.82847      2374.41044
                  23059309.2274                                   23059304.6604
                                                                        44.0004
        26.2504
   -480900.57848   -339572.35945
                  21828234.7034                                   21828227.9184
                                                                        49.5004
        35.7504
   -361006.36347   -258015.27045
                  22414697.6884                                   22414693.8914
                                                                        43.5004
        32.0004
   -375485.30547   -263753.20744
                  23538991.0314                                   23538986.1134
                                                                        43.2504
        28.5004
 09 10  7 23 11 30.0000000  0  9G02G04G12G13G17G20G23G30G31
   -847387.47348   -606282.54346
                  21479272.1024                                   21479266.0354
                                                                        52.7504
        40.2504
   -470366.05548   -337015.32447
                  20408556.4454                                   20408552.6914
                                                                        51.7504
        42.2504
   -184171.32047   -132376.03145
                  22947132.0004                                   22947127.1684
                                                                        45.5004
        33.7504
   -956979.99647   -683429.05544
                  22874038.8524                                   22874034.2114
                                                                        45.7504
        29.0004
     82211.94947     57081.93844
                  23890099.8134                                   23890095.8284
                                                                        43.5004
        28.0004
      5810.54347      2662.48044
                  23059379.3594                                   23059374.8324
                                                                        44.0004
        25.5004
   -604721.13748   -436055.91845
                  21804672.2814                                   21804665.2894
                                                                        48.0004
        35.5004
   -455790.89147   -331873.34845
                  22396660.9144                                   22396656.6804
                                                                        45.7504
        32.5004
   -472564.44547   -339399.29744
                  23520517.4224                                   23520512.2584
                                                                        44.5004
        28.5004
 09 10  7 23 12  0.0000000  0  9G02G04G12G13G17G20G23G30G31
  -1020908.78148   -741493.93746
                  21446251.9534                                   21446245.7114
                                                                        52.2504
        40.0004
   -566135.08648   -411640.54747
                  20390331.9534                                   20390328.2584
                                                                        52.5004
        42.2504
   -221682.37147   -161605.43745
                  22939993.3674                                   22939988.9614
                                                                        45.5004
        33.0004
  -1152984.11347   -836159.49644
                  22836740.7814                                   22836736.3324
                                                                        45.7504
        29.2504
     98108.19547     69468.34844
                  23893125.0394                                   23893121.0554
                                                                        44.7504
        29.0004
      6435.31647      3149.28544
                  23059498.4534                                   23059493.8714
                                                                        43.7504
        26.5004
   -727949.62548   -532078.11745
                  21781223.0704                                   21781216.0234
                                                                        49.5004
        35.7504
   -549919.12147   -405220.03545
                  22378748.7664                                   22378744.9224
                                                                        45.7504
        30.7504
   -569068.42047   -414597.21144
                  23502153.4224                                   23502148.3404
                                                                        43.7504
        28.0004
 09 10  7 23 12 30.0000000  0  9G02G04G12G13G17G20G23G30G31
  -1194006.49248   -876375.25846
                  21413312.7114                                   21413306.7734
                                                                        52.5004
        40.0004
   -661301.80948   -485796.44147
                  20372222.7974                                   20372218.9884
                                                                        49.5004
        43.0004
   -258656.44947   -190416.40245
                  22932957.5314                                   22932953.1174
                                                                        45.2504
        33.7504
  -1348587.35547   -988577.57044
                  22799518.5944                                   22799514.0784
                                                                        46.5004
        28.5004
    114196.10947     82004.33644
                  23896187.2814                                   23896182.5904
                                                                        45.7504
        28.2504
      7371.29747      3878.61744
                  23059676.8984                                   23059671.2034
                                                                        43.7504
        25.7504
   -850526.71948   -627592.72346
                  21757897.2814                                   21757890.5474
                                                                        48.2504
        36.0004
   -643332.75447   -478009.88745
                  22360972.6564                                   22360968.9654
                                                                        43.7504
        31.7504
   -664937.73047   -489300.59044
                  23483910.3594                                   23483905.4024
                                                                        43.5004
        28.7504
 09 10  7 23 13  0.0000000  0  9G02G04G12G13G17G20G23G30G31
  -1366635.93748  -1010891.71546
                  21380462.4304                                   21380456.2234
                                                                        52.5004
        40.0004
   -755823.51248   -559449.71946
                  20354235.4844                                   20354231.9304
                                                                        50.5004
        41.7504
   -295053.03947   -218777.41045
                  22926031.4614                                   22926027.1914
                                                                        45.5004
        34.7504
  -1543743.96947  -1140647.66844
                  22762382.0004                                   22762376.8324
                                                                        46.2504
        29.2504
    130516.48447     94721.75444
                  23899292.2974                                   23899288.1604
                                                                        44.7504
        28.7504
      8659.09047      4882.08644
                  23059921.3834                                   23059916.8634
                                                                        43.5004
        25.5004
   -972408.79748   -722565.76246
                  21734703.5004                                   21734696.8984
                                                                        48.7504
        36.0004
   -735989.40647   -550209.87945
                  22343340.5634                                   22343336.7154
                                                                        44.0004
        32.5004
   -760129.90647   -563476.32844
                  23465796.0944                                   23465791.4884
                                                                        42.7504
        28.7504
 09 10  7 23 13 30.0000000  0  9G02G04G12G13G17G20G23G30G31
     36655.75448     82582.33246
                  21647500.1724                                   21647493.8054
                                                                        52.7504
        40.5004
    725747.69948    595021.34847
                  20636169.2114                                   20636165.7074
                                                                        49.7504
        42.0004
   1244571.84447    980930.28545
                  23219012.6094                                   23219008.3054
                                                                        46.5004
        34.0004
   -162999.33247    -64742.76644
                  23025128.8444                                   23025124.1134
                                                                        46.7504
        29.7504
   1722510.48447   1335236.47344
                  24202238.2274                                   24202234.5904
                                                                        43.2504
        26.7504
   1585741.09047   1233777.15644
                  23360030.1484                                   23360025.2854
                                                                        42.0004
        27.0004
    481854.15247    410626.14545
                  22011440.7504                                   22011433.8834
                                                                        47.0004
        35.0004
    747558.78147    605801.68445
                  22625650.8284                                   22625646.9534
                                                                        46.2504
        31.5004
    720802.94547    590497.29344
                  23747607.6724                                   23747603.0434
                                                                        42.7504
        28.5004
 09 10  7 23 14  0.0000000  0  9G02G04G12G13G17G20G23G30G31
   -134966.83248    -51149.55946
                  21614841.7194                                   21614835.0204
                                                                        52.2504
        40.7504
    632579.80948    522422.98447
                  20618440.4144                                   20618436.1094
                                                                        49.5004
        42.5004
   1209387.98847    953514.28545
                  23212317.4694                                   23212313.3164
                                                                        47.5004
        35.0004
   -357189.31247   -216059.62945
                  22988175.7194                                   22988171.3134
                                                                        47.2504
        30.7504
   1739351.70747   1348359.62144
                  24205442.5864                                   24205439.7464
                                                                        42.7504
        27.7504
   1587789.36747   1235373.19544
                  23360420.1954                                   23360415.0784
                                                                        42.7504
        26.0004
    361429.16048    316788.47745
                  21988524.4844                                   21988517.8754
                                                                        48.5004
        35.7504
    656479.24247    534830.60545
                  22608318.6954                                   22608315.0664
                                                                        44.0004
        31.2504
    627028.07847    517425.93844
                  23729762.8594                                   23729758.4414
                                                                        42.0004
        28.0004
 09 10  7 23 14 30.0000000  0  9G02G04G12G13G17G20G23G30G31
   -306066.37948   -184473.88346
                  21582282.3444                                   21582276.2424
                                                                        52.5004
        40.5004
    540105.04748    450364.71947
                  20600842.7034                                   20600839.0824
                                                                        50.7504
        42.5004
   1174823.23447    926580.70345
                  23205739.8054                                   23205735.7114
                                                                        46.0004
        34.2504
   -550874.87947   -366983.42645
                  22951318.3754                                   22951314.0274
                                                                        46.5004
        30.2504
   1756465.03547   1361693.89144
                  24208699.7424                                   24208696.9224
                                                                        43.5004
        29.0004
   1590230.94547   1237275.71944
                  23360884.3284                                   23360879.7194
                                                                        42.0004
        26.2504
    241750.61347    223532.45745
                  21965750.4304                                   21965743.7894
                                                                        47.7504
        35.2504
    566204.46547    464486.60245
                  22591139.1414                                   22591136.3444
                                                                        47.7504
        31.5004
    533979.25047    444920.34044
                  23712056.7424                                   23712052.1914
                                                                        43.7504
        28.5004
 09 10  7 23 15  0.0000000  0  9G02G04G12G13G17G20G23G30G31
   -476631.93448   -317382.10546
                  21549824.4924                                   21549818.6524
                                                                        53.0004
        39.7504
    448332.68448    378853.78547
                  20583378.8364                                   20583374.9454
                                                                        50.5004
        42.2504
   1140884.77747    900135.14545
                  23199281.6094                                   23199277.8204
                                                                        45.0004
        33.7504
   -744043.80547   -517504.63344
                  22914559.1334                                   22914554.9534
                                                                        46.0004
        29.0004
   1773860.10947   1375248.52344
                  24212010.4534                                   24212006.9804
                                                                        43.7504
        28.5004
   1593072.75446   1239490.06644
                  23361425.5004                                   23361420.8834
                                                                        41.0004
        26.2504
    122828.56348    130865.91846
                  21943120.3054                                   21943114.1524
                                                                        48.5004
        36.2504
    476743.24647    394776.55145
                  22574116.2424                                   22574112.3524
                                                                        46.5004
        31.2504
    441664.91047    372987.05144
                  23694489.5164                                   23694485.0744
                                                                        43.7504
        29.2504
 09 10  7 23 15 30.0000000  0  9G02G04G12G13G17G20G23G30G31
   -646655.53948   -449868.02346
                  21517470.2344                                   21517463.9384
                                                                        52.2504
        40.0004
    357268.30548    307894.52746
                  20566049.8134                                   20566046.4184
                                                                        51.2504
        41.7504
   1107576.47347    874180.61745
                  23192942.9384                                   23192938.6254
                                                                        45.5004
        33.5004
   -936687.26247   -667616.39844
                  22877900.5944                                   22877895.9734
                                                                        46.5004
        29.7504
   1791539.88747   1389025.24244
                  24215373.8754                                   24215371.1564
                                                                        43.5004
        29.2504
   1596318.32047   1242019.05544
                  23362043.0474                                   23362038.8594
                                                                        42.0004
        25.7504
      4670.14148     38794.43045
                  21920636.0704                                   21920628.5554
                                                                        48.5004
        35.5004
    388101.25847    325704.85545
                  22557248.1254                                   22557244.6374
                                                                        47.0004
        31.7504
    350090.44147    301630.30544
                  23677063.8754                                   23677059.0124
                                                                        43.5004
        29.0004
 09 10  7 23 16  0.0000000  0  9G02G04G12G13G17G20G23G30G31
   -816136.78548   -581931.32846
                  21485219.0004                                   21485213.1024
                                                                        52.7504
        40.5004
    266910.27748    237485.68046
                  20548855.5004                                   20548851.5044
                                                                        51.0004
        41.5004
   1074894.62147    848714.23445
                  23186724.1174                                   23186720.1684
                                                                        45.2504
        33.5004
  -1128803.86347   -817317.64545
                  22841342.0394                                   22841336.8094
                                                                        47.7504
        30.0004
   1809499.97347   1403020.39544
                  24218792.1484                                   24218788.6764
                                                                        44.0004
        28.0004
   1599963.66047   1244859.57044
                  23362737.0784                                   23362732.4024
                                                                        42.5004
        26.2504
   -112725.97348    -52683.05946
                  21898295.9384                                   21898289.1374
                                                                        48.0004
        36.0004
    300276.57047    257270.02345
                  22540535.7584                                   22540532.1914
                                                                        46.5004
        31.7504
    259254.41047    230848.95744
                  23659778.0164                                   23659773.8164
                                                                        44.2504
        28.5004
 09 10  7 23 16 30.0000000  0  9G02G04G12G13G17G20G23G30G31
   -985067.80548   -713565.88346
                  21453072.3524                                   21453066.5124
                                                                        52.7504
        40.0004
    177264.20348    167631.59047
                  20531796.5704                                   20531792.4104
                                                                        52.0004
        42.2504
   1042842.46147    823738.51645
                  23180624.5314                                   23180620.4304
                                                                        45.0004
        33.7504
  -1320384.56647   -966601.28945
                  22804885.6724                                   22804880.8404
                                                                        47.7504
        30.5004
   1827742.27047   1417234.89144
                  24222263.8444                                   24222260.4104
                                                                        43.7504
        28.0004
   1604012.33247   1248014.38744
                  23363507.3984                                   23363502.1884
                                                                        42.5004
        25.0004
   -229353.03148   -143561.28945
                  21876102.6564                                   21876095.5164
                                                                        49.7504
        35.5004
    213274.08647    189475.87545
                  22523979.5164                                   22523976.1884
                                                                        46.5004
        31.2504
    169162.25447    160647.25044
                  23642633.9384                                   23642629.7734
                                                                        43.7504
        29.0004
 09 10  7 23 17  0.0000000  0  9G02G04G12G13G17G20G23G30G31
  -1153447.19948   -844770.59046
                  21421031.0394                                   21421024.7624
                                                                        52.2504
        40.5004
     88329.22748     98331.62147
                  20514872.4924                                   20514868.6054
                                                                        51.2504
        42.7504
   1011417.05147    799251.18445
                  23174644.4694                                   23174640.0824
                                                                        45.5004
        34.0004
  -1511427.20347  -1115465.66444
                  22768531.3594                                   22768526.6764
                                                                        47.7504
        29.5004
   1846265.75847   1431668.71144
                  24225788.1414                                   24225784.9804
                                                                        42.2504
        27.2504
   1608461.49646   1251481.26644
                  23364354.2194                                   23364348.5234
                                                                        41.2504
        24.7504
   -345210.58248   -233839.89145
                  21854055.7504                                   21854048.6644
                                                                        49.5004
        35.5004
    127093.29747    122322.01245
                  22507580.1174                                   22507576.6254
                                                                        46.2504
        31.0004
     79813.38746     91024.73044
                  23625631.9844                                   23625626.6914
                                                                        41.2504
        29.2504
 09 10  7 23 17 30.0000000  0  9G02G04G12G13G17G20G23G30G31
  -1321272.18748   -975543.30546
                  21389094.9144                                   21389088.9414
                                                                        52.5004
        40.7504
       106.19148     29586.40647
                  20498084.2274                                   20498080.1414
                                                                        51.2504
        42.5004
    980617.37147    775251.43045
                  23168783.5164                                   23168779.2034
                                                                        45.2504
        34.0004
  -1701927.69147  -1263907.58244
                  22732279.9844                                   22732275.6954
                                                                        47.2504
        29.7504
   1865068.88747   1446320.57444
                  24229366.5554                                   24229362.3324
                                                                        43.0004
        26.0004
   1613309.86746   1255259.21544
                  23365276.7034                                   23365270.9614
                                                                        41.2504
        24.0004
   -460297.22348   -323517.79345
                  21832155.5234                                   21832148.6024
                                                                        49.7504
        35.7504
     41734.52347     55808.68045
                  22491336.5394                                   22491333.0784
                                                                        44.0004
        31.5004
     -8791.35247     21982.07044
                  23608770.6564                                   23608765.5274
                                                                        43.5004
        28.5004
 09 10  7 23 18  0.0000000  0  9G02G04G12G13G17G20G23G30G31
  -1488536.77748  -1105879.34846
                  21357265.3594                                   21357259.2584
                                                                        52.7504
        40.5004
    -87401.16848    -38601.14847
                  20481432.2584                                   20481428.1294
                                                                        50.7504
        42.0004
    950445.04347    751740.50445
                  23163042.1024                                   23163037.9384
                                                                        46.0004
        33.2504
  -1891879.02347  -1411921.58245
                  22696133.2814                                   22696129.0824
                                                                        47.2504
        30.0004
   1884153.32447   1461191.78144
                  24232997.6884                                   24232994.0434
                                                                        43.7504
        28.7504
   1618558.91046   1259349.38344
                  23366275.3524                                   23366270.2814
                                                                        40.5004
        24.5004
   -574608.41848   -412591.46145
                  21810402.5784                                   21810396.2464
                                                                        50.5004
        35.5004
    -42798.89547    -10061.53145
                  22475250.3914                                   22475246.7194
                                                                        44.5004
        31.0004
    -96648.44147    -46478.01244
                  23592052.5004                                   23592047.0704
                                                                        44.2504
        28.7504
 09 10  7 23 18 30.0000000  0  8G02G04G12G13G20G23G30G31
  -1655242.13748  -1235779.62546
                  21325542.2814                                   21325536.1524
                                                                        52.5004
        40.5004
   -174196.63348   -106233.97347
                  20464915.3984                                   20464911.8134
                                                                        52.0004
        43.0004
    920894.25447    728713.91445
                  23157418.7664                                   23157414.7424
                                                                        45.0004
        33.0004
  -2081281.46547  -1559507.89545
                  22660091.4064                                   22660086.7074
                                                                        47.0004
        30.5004
   1624202.92646   1263747.29344
                  23367349.4694                                   23367344.6644
                                                                        41.0004
        26.2504
   -688146.43748   -501062.64846
                  21788796.8594                                   21788789.8914
                                                                        49.5004
        36.5004
   -126510.52747    -75291.37545
                  22459320.2974                                   22459317.1094
                                                                        46.2504
        30.5004
   -183761.53547   -114358.36744
                  23575474.7114                                   23575470.0824
                                                                        43.0004
        29.0004
 09 10  7 23 19  0.0000000  0  8G02G04G12G13G20G23G30G31
  -1821382.57848  -1365239.69946
                  21293926.8204                                   21293920.7544
                                                                        52.7504
        40.5004
   -260276.34048   -173309.07047
                  20448534.8594                                   20448531.2974
                                                                        52.2504
        42.0004
    891966.59047    706172.87545
                  23151914.0394                                   23151909.7034
                                                                        46.2504
        33.7504
  -2270128.50447  -1706661.40245
                  22624154.6024                                   22624150.1484
                                                                        46.2504
        30.5004
   1630243.54346   1268454.21944
                  23368499.9694                                   23368494.4884
                                                                        40.2504
        26.2504
   -800906.69548   -588927.78146
                  21767339.8754                                   21767332.3204
                                                                        50.0004
        36.0004
   -209397.43047   -139878.59045
                  22443547.6254                                   22443544.1414
                                                                        47.5004
        31.2504
   -270127.05947   -181656.20745
                  23559040.0634                                   23559035.0004
                                                                        43.5004
        30.0004
 09 10  7 23 19 30.0000000  0  8G02G04G12G13G20G23G30G31
  -1986953.26648  -1494255.81646
                  21262419.8364                                   21262413.4494
                                                                        52.2504
        40.7504
   -345637.91448   -239824.59047
                  20432291.4304                                   20432287.5904
                                                                        52.0004
        42.2504
    863662.59047    684117.78945
                  23146527.8054                                   23146523.8014
                                                                        45.5004
        33.5004
  -2458413.92647  -1853377.29345
                  22588325.4774                                   22588320.6644
                                                                        46.2504
        31.5004
   1636681.60246   1273470.85944
                  23369724.2894                                   23369719.6954
                                                                        40.7504
        27.0004
   -912885.78948   -676184.22345
                  21746030.4064                                   21746023.9734
                                                                        50.0004
        35.7504
   -291457.24647   -203821.31245
                  22427932.2734                                   22427928.2154
                                                                        44.0004
        31.0004
   -355742.27747   -248369.39144
                  23542747.8054                                   23542743.1214
                                                                        42.2504
        28.0004
 09 10  7 23 20  0.0000000  0  8G02G04G12G13G20G23G30G31
  -2151949.30948  -1622824.16046
                  21231022.3594                                   21231015.7304
                                                                        52.2504
        41.0004
   -430278.83248   -305778.55147
                  20416184.8364                                   20416180.7894
                                                                        50.7504
        42.2504
    835982.72347    662549.05545
                  23141260.6094                                   23141256.4024
                                                                        45.5004
        34.0004
  -2646132.04347  -1999651.13345
                  22552604.1174                                   22552599.0744
                                                                        47.2504
        30.5004
   1643517.10546   1278797.21144
                  23371025.1804                                   23371020.4104
                                                                        40.7504
        25.7504
  -1024080.49247   -762829.45746
                  21724870.7424                                   21724864.3054
                                                                        47.2504
        36.0004
   -372687.80947   -267117.84445
                  22412474.5004                                   22412471.0124
                                                                        46.2504
        32.0004
   -440604.79347   -314496.06244
                  23526599.2424                                   23526594.4304
                                                                        42.2504
        29.0004
 09 10  7 23 20 30.0000000  0  8G02G04G12G13G20G23G30G31
  -2316379.14848  -1750951.30546
                  21199732.1644                                   21199726.3324
                                                                        52.5004
        41.0004
   -514209.13348   -371178.79347
                  20400213.6024                                   20400209.3364
                                                                        51.0004
        42.5004
    808914.57047    641456.96945
                  23136109.8674                                   23136105.2274
                                                                        45.7504
        33.5004
  -2833289.91847  -2145488.45345
                  22516989.1954                                   22516983.7854
                                                                        47.2504
        30.7504
   1650738.06646   1284423.94144
                  23372399.1724                                   23372394.3984
                                                                        40.5004
        24.7504
  -1134499.92248   -848870.57446
                  21703858.7344                                   21703852.2774
                                                                        48.2504
        36.5004
   -453099.53547   -329776.32045
                  22397172.6334                                   22397168.9734
                                                                        47.0004
        31.0004
   -524725.28147   -380044.53144
                  23510592.1024                                   23510586.8054
                                                                        43.7504
        27.7504
 09 10  7 23 21  0.0000000  0  8G02G04G12G13G20G23G30G31
  -2480242.80148  -1878637.26646
                  21168549.7894                                   21168544.0204
                                                                        52.7504
        40.7504
   -597431.78148   -436027.60547
                  20384376.4064                                   20384372.9414
                                                                        52.0004
        42.0004
    782453.42647    620837.89845
                  23131074.3914                                   23131069.8634
                                                                        46.0004
        33.0004
  -3019887.05947  -2290888.82445
                  22481480.3984                                   22481476.0864
                                                                        47.5004
        30.5004
   1658339.85746   1290347.36943
                  23373845.6094                                   23373841.3054
                                                                        40.5004
        22.5004
  -1244145.91848   -934309.01245
                  21682993.6644                                   21682986.8874
                                                                        49.5004
        35.7504
   -532695.57847   -391799.21145
                  22382026.1884                                   22382022.9344
                                                                        45.7504
        31.7504
   -608106.35547   -445016.81644
                  23494724.6954                                   23494720.0274
                                                                        42.7504
        28.2504
 09 10  7 23 21 30.0000000  0  8G02G04G12G13G20G23G30G31
  -1068119.58248   -778281.50446
                  21437267.8204                                   21437261.8794
                                                                        51.7504
        40.5004
    895468.94548    727271.66447
                  20668466.1954                                   20668462.3364
                                                                        52.5004
        42.0004
   2332011.01247   1828285.36345
                  23425945.2814                                   23425941.0274
                                                                        45.7504
        32.7504
  -1630501.08247  -1208250.37545
                  22745871.7194                                   22745867.2424
                                                                        45.5004
        30.2504
   3241733.22746   2524160.38343
                  23675155.4774                                   23675150.2664
                                                                        40.5004
        22.0004
    222398.91848    208453.18045
                  21962068.2814                                   21962061.5434
                                                                        49.2504
        35.7504
    963939.23047    774409.73045
                  22666825.9614                                   22666822.9454
                                                                        46.5004
        30.5004
    884667.52347    718183.59444
                  23778790.5944                                   23778785.3484
                                                                        43.5004
        28.5004
 09 10  7 23 22  0.0000000  0  8G02G04G12G13G20G23G30G31
  -1230863.63748   -905095.03946
                  21406298.6644                                   21406293.0784
                                                                        52.5004
        40.5004
    813642.41448    663510.72747
                  20652895.0634                                   20652890.9804
                                                                        52.0004
        42.5004
   2306738.46947   1808592.47345
                  23421135.9224                                   23421131.4884
                                                                        47.0004
        32.2504
  -1815986.11347  -1352784.14845
                  22710575.1884                                   22710571.0744
                                                                        46.2504
        31.0004
   3250071.53146   2530657.75443
                  23676742.1174                                   23676736.7934
                                                                        41.5004
        22.2504
    114282.98048    124206.98446
                  21941494.7664                                   21941488.1914
                                                                        50.0004
        36.2504
    885953.94947    713641.96545
                  22651986.2034                                   22651982.8094
                                                                        46.5004
        31.5004
    802745.84847    654348.48845
                  23763201.5164                                   23763196.8794
                                                                        43.0004
        30.2504
 09 10  7 23 22 30.0000000  0  8G02G04G12G13G20G23G30G31
  -1393050.84848  -1031474.68446
                  21375435.7424                                   21375429.7934
                                                                        52.5004
        41.0004
    732507.37548    600288.62147
                  20637455.8984                                   20637451.8754
                                                                        52.7504
        42.2504
   2282050.55947   1789355.12945
                  23416438.4694                                   23416434.1454
                                                                        46.2504
        33.0004
  -2000916.53547  -1496885.75845
                  22675384.5944                                   22675379.7974
                                                                        47.5004
        32.0004
   3258768.30147   2537434.42644
                  23678397.1254                                   23678392.2814
                                                                        42.7504
        24.0004
      6926.88748     40552.87546
                  21921064.9144                                   21921058.7504
                                                                        51.0004
        36.5004
    808767.03547    653496.32045
                  22637297.8284                                   22637295.1094
                                                                        47.0004
        31.5004
    721547.28147    591076.85944
                  23747749.0704                                   23747744.9064
                                                                        44.5004
        28.0004
 09 10  7 23 23  0.0000000  0  8G02G04G12G13G20G23G30G31
  -1554683.51248  -1157422.21546
                  21344677.9614                                   21344671.7074
                                                                        52.7504
        41.0004
    652059.32448    537601.82447
                  20622146.7814                                   20622142.8874
                                                                        53.0004
        42.0004
   2257940.87947   1770568.34845
                  23411850.1254                                   23411846.2704
                                                                        46.5004
        32.5004
  -2185293.67248  -1640556.25845
                  22640299.0234                                   22640293.9654
                                                                        48.0004
        33.0004
   3267817.60247   2544485.78944
                  23680119.3594                                   23680114.6214
                                                                        42.0004
        25.0004
    -99672.79348    -42511.81246
                  21900779.7814                                   21900773.3484
                                                                        50.0004
        36.5004
    732373.44147    593968.84445
                  22622761.0474                                   22622757.4694
                                                                        47.0004
        31.7504
    641067.11747    528365.00444
                  23732434.4304                                   23732429.8954
                                                                        44.2504
        28.0004
 09 10  7 23 23 30.0000000  0  8G02G04G12G13G20G23G30G31
  -1715758.66048  -1282935.30546
                  21314026.5474                                   21314020.6094
                                                                        52.2504
        41.5004
    572299.18848    475451.07446
                  20606969.2194                                   20606965.2774
                                                                        52.0004
        41.7504
   2234408.14547   1752231.13745
                  23407371.9614                                   23407368.2344
                                                                        46.2504
        33.2504
  -2369113.48847  -1783792.45745
                  22605318.9144                                   22605313.9304
                                                                        47.2504
        32.0004
   3277218.27747   2551810.96944
                  23681908.2734                                   23681903.7894
                                                                        42.5004
        25.2504
   -205514.68048   -124986.01246
                  21880638.8984                                   21880632.4964
                                                                        49.7504
        36.2504
    656773.41047    535059.71145
                  22608374.3134                                   22608371.1374
                                                                        45.2504
        30.5004
    561305.97347    466213.48844
                  23717256.0394                                   23717251.8674
                                                                        45.0004
        28.0004
 09 10  7 23 24  0.0000000  0  8G02G04G12G13G20G23G30G31
  -1876283.14148  -1408019.32446
                  21283479.5554                                   21283473.4734
                                                                        52.0004
        41.2504
    493217.37948    413828.89847
                  20591920.1804                                   20591916.6024
                                                                        52.0004
        42.2504
   2211440.64147   1734334.35245
                  23403001.3674                                   23402997.1954
                                                                        46.2504
        32.2504
  -2552382.15647  -1926599.19945
                  22570443.4454                                   22570439.2074
                                                                        47.0004
        31.5004
   3286958.77346   2559400.93443
                  23683761.2504                                   23683756.7854
                                                                        40.0004
        23.5004
   -310607.40248   -206876.44545
                  21860640.9454                                   21860633.7074
                                                                        49.5004
        35.7504
    581956.97747    476761.19545
                  22594137.4064                                   22594134.3594
                                                                        44.7504
        31.5004
    482254.31647    404614.72344
                  23702213.5784                                   23702208.8014
                                                                        45.0004
        29.5004
 09 10  7 23 24 30.0000000  0  8G02G04G12G13G20G23G30G31
  -2036255.45348  -1532673.06646
                  21253038.0944                                   21253032.0354
                                                                        51.5004
        41.5004
    414813.16848    352734.71147
                  20577000.4144                                   20576997.1024
                                                                        52.5004
        42.7504
   2189035.66047   1716875.87945
                  23398737.7734                                   23398733.9844
                                                                        45.5004
        31.5004
  -2735096.93047  -2068974.34045
                  22535673.9534                                   22535669.9344
                                                                        46.2504
        32.0004
   3297036.84046   2567253.94543
                  23685679.1414                                   23685674.7624
                                                                        41.2504
        22.7504
   -414950.65648   -288182.88345
                  21840784.6564                                   21840778.1524
                                                                        50.0004
        35.7504
    507923.35247    419072.64545
                  22580048.9924                                   22580045.8404
                                                                        47.2504
        31.0004
    403911.36347    343568.23844
                  23687305.5704                                   23687300.8244
                                                                        45.0004
        29.2504
 09 10  7 23 25  0.0000000  0  8G02G04G12G13G20G23G30G31
  -2195676.16448  -1656896.99646
                  21222701.1254                                   21222695.6844
                                                                        51.2504
        41.2504
    337083.57048    292166.18447
                  20562208.8834                                   20562205.4774
                                                                        53.0004
        42.5004
   2167188.44947   1699852.04345
                  23394580.9064                                   23394576.7584
                                                                        46.2504
        32.2504
  -2917257.32047  -2210917.48845
                  22501010.0394                                   22501005.7304
                                                                        47.2504
        31.5004
   3307447.55546   2575366.18043
                  23687660.6804                                   23687655.8874
                                                                        38.2504
        22.7504
   -518546.40248   -368906.84045
                  21821071.1484                                   21821064.6764
                                                                        50.5004
        35.7504
    434669.32047    361991.56645
                  22566109.4694                                   22566106.1564
                                                                        46.2504
        31.7504
    326274.12947    283071.66444
                  23672531.6024                                   23672527.3834
                                                                        44.5004
        29.5004
 09 10  7 23 25 30.0000000  0  8G02G04G12G13G20G23G30G31
  -2354545.16048  -1780691.01646
                  21192469.4224                                   21192463.7664
                                                                        51.2504
        40.7504
    260026.53548    232121.73847
                  20547545.3834                                   20547541.7544
                                                                        52.2504
        42.2504
   2145894.82847   1683259.57445
                  23390528.8984                                   23390524.0044
                                                                        47.0004
        31.5004
  -3098862.13747  -2352427.72345
                  22466451.9924                                   22466447.8794
                                                                        47.2504
        32.0004
   3318186.96546   2583734.53143
                  23689703.5164                                   23689699.0124
                                                                        38.0004
        20.7504
   -621396.17248   -449049.52046
                  21801499.6884                                   21801492.7304
                                                                        50.0004
        36.0004
    362191.96547    305515.69945
                  22552317.5864                                   22552314.2854
                                                                        46.0004
        31.7504
    249340.16047    223123.08644
                  23657891.7504                                   23657887.5554
                                                                        44.5004
        29.7504
 09 10  7 23 26  0.0000000  0  8G02G04G12G13G20G23G30G31
  -2512861.80548  -1904054.64846
                  21162342.4304                                   21162336.5554
                                                                        51.2504
        41.2504
    183640.26648    172599.96546
                  20533009.7974                                   20533005.9734
                                                                        52.5004
        41.7504
   2125150.90247   1667095.42645
                  23386581.6564                                   23386576.9574
                                                                        46.5004
        32.5004
  -3279910.09848  -2493504.03145
                  22431999.8444                                   22431995.4964
                                                                        48.2504
        32.0004
   3329251.52346   2592356.26243
                  23691809.2734                                   23691804.7974
                                                                        40.0004
        22.2504
   -723501.04348   -528611.76646
                  21782069.5474                                   21782063.0594
                                                                        49.5004
        36.0004
    290489.14847    249643.36745
                  22538672.8754                                   22538670.0354
                                                                        45.2504
        31.5004
    173107.53547    163721.00044
                  23643385.1174                                   23643380.7664
                                                                        43.7504
        27.7504
 09 10  7 23 26 30.0000000  0  8G02G04G12G13G20G23G30G31
  -2670626.15648  -2026987.92246
                  21132321.2424                                   21132315.3484
                                                                        51.0004
        41.2504
    107922.22348    113598.88747
                  20518600.8524                                   20518597.1994
                                                                        53.0004
        42.5004
   2104952.07447   1651356.05145
                  23382737.6804                                   23382733.3954
                                                                        46.7504
        32.0004
  -3460400.05148  -2634145.52745
                  22397653.6254                                   22397649.3834
                                                                        48.7504
        32.0004
   3340636.91446   2601227.97344
                  23693976.7584                                   23693971.4414
                                                                        40.7504
        24.5004
   -824862.65648   -607594.84446
                  21762780.9384                                   21762774.0944
                                                                        48.7504
        36.0004
    219557.68047    194372.07845
                  22525175.2974                                   22525171.9804
                                                                        46.2504
        31.2504
     97573.57447    104863.32844
                  23629011.5554                                   23629007.4104
                                                                        44.5004
        29.0004
 09 10  7 23 27  0.0000000  0  8G02G04G12G13G20G23G30G31
  -2827838.94948  -2149491.41046
                  21102404.5234                                   21102398.5434
                                                                        51.2504
        41.7504
     32869.26648     55116.05147
                  20504318.5394                                   20504315.1374
                                                                        53.2504
        42.7504
   2085293.65247   1636037.73445
                  23378996.4694                                   23378992.5234
                                                                        47.0004
        32.5004
  -3640331.84848  -2774352.08245
                  22363413.6644                                   22363409.5864
                                                                        48.0004
        32.2504
   3352338.75446   2610346.27744
                  23696203.2664                                   23696198.7384
                                                                        41.7504
        25.7504
   -925483.06648   -686000.35246
                  21743633.3834                                   21743626.7774
                                                                        50.0004
        36.5004
    149393.97347    139699.03945
                  22511823.6024                                   22511819.9494
                                                                        45.0004
        30.5004
     22735.16047     46547.64144
                  23614770.0634                                   23614765.9924
                                                                        44.2504
        28.5004
 09 10  7 23 27 30.0000000  0  8G02G04G12G13G20G23G30G31
  -2984501.61748  -2271566.21146
                  21072592.7664                                   21072586.7974
                                                                        51.0004
        41.5004
    -41522.29748     -2851.40246
                  20490162.6414                                   20490158.9574
                                                                        53.0004
        41.5004
   2066169.43847   1621135.71545
                  23375357.5164                                   23375353.4694
                                                                        47.0004
        32.2504
  -3819705.93447  -2914124.06645
                  22329279.6644                                   22329275.5704
                                                                        47.7504
        32.2504
   3364351.00847   2619706.43444
                  23698489.4224                                   23698484.9264
                                                                        42.0004
        24.2504
  -1025365.52348   -763830.82846
                  21724626.2974                                   21724619.8714
                                                                        49.5004
        36.0004
     79993.93047     85621.06645
                  22498617.0704                                   22498613.9384
                                                                        45.0004
        31.2504
    -51411.66447    -11229.13744
                  23600660.6414                                   23600656.2774
                                                                        44.2504
        28.5004
 09 10  7 23 28  0.0000000  0  8G02G04G12G13G20G23G30G31
  -3140613.22348  -2393211.62146
                  21042885.7274                                   21042879.6454
                                                                        50.7504
        41.7504
   -115254.04748    -60304.72347
                  20476132.0314                                   20476128.3674
                                                                        53.2504
        42.2504
   2047576.14147   1606647.39545
                  23371819.6024                                   23371815.9454
                                                                        47.5004
        32.0004
  -3998520.29347  -3053459.91045
                  22295252.6644                                   22295248.2424
                                                                        47.5004
        31.5004
   3376670.64146   2629306.10943
                  23700833.1024                                   23700828.7774
                                                                        40.5004
        22.7504
  -1124510.45748   -841086.62946
                  21705759.8284                                   21705753.2854
                                                                        48.5004
        36.0004
     11355.56347     32136.60545
                  22485555.6724                                   22485552.3634
                                                                        45.5004
        30.5004
   -124868.82047    -68468.50044
                  23586682.1884                                   23586678.0314
                                                                        44.5004
        29.2504
 09 10  7 23 28 30.0000000  0  8G02G04G12G13G20G23G30G31
  -3296174.77748  -2514428.41046
                  21013283.3754                                   21013277.7854
                                                                        50.0004
        41.5004
   -188329.15648   -117246.37946
                  20462226.1954                                   20462222.4184
                                                                        52.7504
        41.7504
   2029508.62947   1592568.79345
                  23368381.2344                                   23368377.4654
                                                                        47.5004
        32.5004
  -4176774.94548  -3192359.60945
                  22261331.7814                                   22261327.0354
                                                                        48.0004
        31.0004
   3389292.80146   2639141.52343
                  23703235.0634                                   23703230.5394
                                                                        40.5004
        21.7504
  -1222920.52047   -917769.80546
                  21687032.8054                                   21687026.2194
                                                                        47.0004
        36.2504
    -56525.13747    -20757.47345
                  22472637.9924                                   22472635.6024
                                                                        44.2504
        30.5004
   -197639.20347   -125172.68045
                  23572834.4614                                   23572830.2814
                                                                        45.0004
        30.0004
 09 10  7 23 29  0.0000000  0  8G02G04G12G13G20G23G30G31
  -3451183.73848  -2635214.61746
                  20983785.9694                                   20983780.4224
                                                                        50.7504
        41.5004
   -260748.10548   -173676.73447
                  20448445.0084                                   20448441.4304
                                                                        53.5004
        42.2504
   2011964.31347   1578897.88345
                  23365043.1024                                   23365039.0434
                                                                        46.5004
        31.7504
  -4354466.61748  -3330820.64145
                  22227517.8594                                   22227513.9064
                                                                        48.0004
        32.0004
   3402215.44146   2649211.08243
                  23705694.2814                                   23705689.3834
                                                                        41.2504
        20.0004
  -1320595.19948   -993879.95346
                  21668445.9614                                   21668439.1914
                                                                        49.0004
        36.2504
   -123649.02047    -73061.81645
                  22459865.1414                                   22459862.1174
                                                                        44.0004
        31.0004
   -269723.82847   -181342.55144
                  23559117.0864                                   23559113.2504
                                                                        45.5004
        29.2504
 09 10  7 23 29 30.0000000  0  8G02G04G12G13G20G23G30G31
  -3605641.28948  -2755571.14547
                  20954393.8444                                   20954388.1174
                                                                        50.7504
        42.0004
   -332514.54748   -229598.64846
                  20434788.5474                                   20434784.9884
                                                                        52.5004
        41.7504
   1994937.58247   1565630.29345
                  23361802.4614                                   23361798.6294
                                                                        47.5004
        30.5004
  -4531595.83248  -3468843.39145
                  22193811.4924                                   22193807.1994
                                                                        48.5004
        32.2504
   3415433.34447   2659510.74643
                  23708210.1724                                   23708204.9494
                                                                        43.0004
        22.0004
  -1417537.52347  -1069419.44946
                  21649998.4534                                   21649992.2774
                                                                        47.7504
        36.0004
   -190020.33647   -124779.75045
                  22447235.4614                                   22447231.7544
                                                                        45.0004
        30.7504
   -341126.54747   -236981.06244
                  23545529.7034                                   23545525.8054
                                                                        45.0004
        29.0004
 09 10  7 23 30  0.0000000  0  8G02G04G12G13G20G23G30G31
  -2184121.05548  -1647893.04747
                  21224899.9064                                   21224893.7464
                                                                        51.5004
        42.0004
   1171793.66848    942589.56647
                  20721049.1644                                   20721045.5474
                                                                        53.5004
        42.2504
   3553846.42247   2780364.43445
                  23658453.1954                                   23658448.7934
                                                                        47.5004
        31.5004
  -3132733.71948  -2378820.94945
                  22460006.4844                                   22460001.9024
                                                                        49.0004
        32.2504
   5004363.73147   3897638.30643
                  24010572.8284                                   24010568.7934
                                                                        42.5004
        22.5004
     61675.90248     83214.36746
                  21931483.5704                                   21931477.1804
                                                                        48.7504
        36.0004
   1319782.40647   1051689.90245
                  22734541.1884                                   22734537.4844
                                                                        45.5004
        30.2504
   1163574.41847    935513.16444
                  23831864.8594                                   23831860.7304
                                                                        45.7504
        29.0004
 09 10  7 23 30 30.0000000  0  8G02G04G12G13G20G23G30G31
  -2337473.20748  -1767388.22346
                  21195718.0164                                   21195711.9384
                                                                        51.5004
        41.5004
   1101328.77748    887681.85947
                  20707639.7504                                   20707636.2234
                                                                        53.5004
        42.0004
   3537845.35247   2767896.07445
                  23655408.4304                                   23655404.3134
                                                                        47.2504
        31.5004
  -3308731.43748  -2515962.01245
                  22426515.2584                                   22426510.6454
                                                                        49.0004
        33.0004
   5018163.18847   3908391.11743
                  24013199.3054                                   24013194.8284
                                                                        43.0004
        22.7504
    -33803.32448      8814.98045
                  21913314.4144                                   21913307.9344
                                                                        49.5004
        35.5004
   1254911.37547   1001141.03145
                  22722196.4064                                   22722192.9184
                                                                        45.0004
        30.2504
   1093531.67647    880934.38344
                  23818536.3134                                   23818531.9024
                                                                        45.2504
        29.5004
 09 10  7 23 31  0.0000000  0  8G02G04G12G13G20G23G30G31
  -2490270.66848  -1886451.18446
                  21166641.6414                                   21166635.4964
                                                                        51.0004
        41.5004
   1031512.87148    833279.85247
                  20694354.2894                                   20694350.9064
                                                                        53.5004
        42.5004
   3522352.44147   2755823.64145
                  23652460.1254                                   23652455.8914
                                                                        46.5004
        31.7504
  -3484160.13748  -2652659.68745
                  22393132.2114                                   22393127.6994
                                                                        49.0004
        32.5004
   5032249.44947   3919367.38743
                  24015879.2504                                   24015875.2854
                                                                        42.2504
        22.2504
   -128551.36748    -65014.67246
                  21895284.4384                                   21895277.7034
                                                                        49.5004
        36.0004
   1190787.52747    951174.37945
                  22709994.3914                                   22709991.2274
                                                                        45.0004
        30.7504
   1024166.63747    826883.69144
                  23805336.5554                                   23805331.8634
                                                                        45.0004
        28.5004
 09 10  7 23 31 30.0000000  0  8G02G04G12G13G20G23G30G31
  -2642516.61748  -2005084.38746
                  21137670.5234                                   21137664.2974
                                                                        51.0004
        41.0004
    962340.10248    779378.98447
                  20681191.3984                                   20681187.7034
                                                                        53.2504
        42.0004
   3507359.95347   2744141.16045
                  23649607.0864                                   23649603.3594
                                                                        47.2504
        32.2504
  -3659022.00848  -2788915.68045
                  22359856.8054                                   22359852.4774
                                                                        48.5004
        32.7504
   5046615.22346   3930561.45743
                  24018613.7664                                   24018609.0474
                                                                        41.5004
        20.7504
   -222573.25048   -138278.49245
                  21877392.7584                                   21877386.3954
                                                                        48.7504
        35.7504
   1127404.75047    901785.18445
                  22697932.3444                                   22697929.4184
                                                                        45.5004
        30.5004
    955473.39147    773356.50044
                  23792265.0234                                   23792260.4304
                                                                        45.2504
        28.0004
 09 10  7 23 32  0.0000000  0  8G02G04G12G13G20G23G30G31
  -2794207.10548  -2123284.77346
                  21108804.5004                                   21108798.5594
                                                                        50.7504
        40.7504
    893811.61748    725980.16047
                  20668150.9384                                   20668147.3594
                                                                        53.0004
        42.0004
   3492867.34447   2732848.17645
                  23646849.5554                                   23646845.6334
                                                                        47.0004
        32.0004
  -3833312.40247  -2924726.37545
                  22326690.1414                                   22326686.1414
                                                                        47.7504
        32.5004
   5061260.20746   3941973.12143
                  24021400.1174                                   24021396.0944
                                                                        40.5004
        19.5004
   -315867.38748   -210975.22746
                  21859639.3674                                   21859633.0984
                                                                        48.2504
        36.0004
   1064763.54347    852973.84045
                  22686012.6024                                   22686009.0434
                                                                        44.7504
        30.7504
    887453.05947    720353.63744
                  23779320.7974                                   23779316.1134
                                                                        45.0004
        28.5004
 09 10  7 23 32 30.0000000  0  8G02G04G12G13G20G23G30G31
  -2945338.71148  -2241049.65246
                  21080044.9614                                   21080039.1334
                                                                        52.0004
        41.5004
    825928.73848    673084.39847
                  20655233.1024                                   20655229.4184
                                                                        53.0004
        42.0004
   3478873.34447   2721943.71945
                  23644186.1174                                   23644182.7194
                                                                        46.0004
        32.0004
  -4007026.77048  -3060088.19945
                  22293633.7664                                   22293629.0274
                                                                        48.2504
        33.0004
   5076183.70746   3953601.79343
                  24024240.0234                                   24024235.7464
                                                                        40.5004
        20.5004
   -408432.04348   -283103.53145
                  21842024.8134                                   21842018.2624
                                                                        49.7504
        35.7504
   1002864.04747    804740.45744
                  22674233.6094                                   22674229.9414
                                                                        45.0004
        29.2504
    820106.39547    667875.71944
                  23766505.1254                                   23766500.6844
                                                                        43.7504
        28.7504
 09 10  7 23 33  0.0000000  0  8G02G04G12G13G20G23G30G31
  -3095911.56648  -2358379.14846
                  21051391.7974                                   21051385.6954
                                                                        52.0004
        41.5004
    758688.86748    620689.68447
                  20642438.0314                                   20642434.4924
                                                                        52.7504
        42.2504
   3465374.15647   2711424.83245
                  23641617.7034                                   23641613.3164
                                                                        46.5004
        32.5004
  -4180164.14148  -3195000.44545
                  22260686.7974                                   22260682.4494
                                                                        48.7504
        32.7504
   5091382.32046   3965444.82843
                  24027131.9534                                   24027127.7934
                                                                        40.2504
        21.5004
   -500268.47348   -354664.39846
                  21824548.9064                                   21824542.9104
                                                                        49.5004
        36.0004
    941703.64847    757082.98444
                  22662595.2344                                   22662591.8634
                                                                        46.0004
        29.2504
    753430.81047    615920.69344
                  23753817.4064                                   23753813.0084
                                                                        43.5004
        28.2504
 09 10  7 23 33 30.0000000  0  8G02G04G12G13G20G23G30G31
  -3245928.23848  -2475275.25046
                  21022844.7344                                   21022838.6914
                                                                        52.0004
        41.2504
    692086.81648    568791.98847
                  20629763.7034                                   20629760.3364
                                                                        52.5004
        42.2504
   3452362.23847   2701285.65245
                  23639141.5004                                   23639137.6054
                                                                        46.7504
        31.0004
  -4352726.45748  -3329464.58245
                  22227849.3524                                   22227844.8634
                                                                        48.5004
        32.0004
   5106848.88346   3977496.65243
                  24030075.3914                                   24030071.1294
                                                                        41.2504
        22.5004
   -591381.36348   -425661.46546
                  21807210.6484                                   21807204.4224
                                                                        50.0004
        36.2504
    881276.51247    709996.90244
                  22651095.9614                                   22651092.6604
                                                                        46.0004
        29.0004
    687420.73847    564484.27344
                  23741255.8984                                   23741251.2624
                                                                        44.5004
        28.5004
 09 10  7 23 34  0.0000000  0  8G02G04G12G13G20G23G30G31
  -3395390.69948  -2591739.50046
                  20994403.1564                                   20994397.0354
                                                                        51.7504
        41.5004
    626118.02348    517387.72346
                  20617210.1254                                   20617206.6254
                                                                        52.7504
        41.7504
   3439831.10247   2691521.07845
                  23636756.9534                                   23636752.8244
                                                                        46.0004
        31.2504
  -4524714.80548  -3463481.46945
                  22195121.1564                                   22195116.4654
                                                                        49.0004
        33.0004
   5122577.60547   3989752.79743
                  24033068.8134                                   24033064.9144
                                                                        42.0004
        23.0004
   -681774.70748   -496097.84045
                  21790009.9144                                   21790003.0634
                                                                        50.2504
        35.5004
    821577.37547    663478.08645
                  22639736.0554                                   22639732.2814
                                                                        46.2504
        31.0004
    622071.45347    513562.73844
                  23728820.3524                                   23728816.0204
                                                                        43.5004
        27.7504
 09 10  7 23 34 30.0000000  0  8G02G04G12G13G20G23G30G31
  -3544294.88748  -2707768.74646
                  20966067.7584                                   20966061.7854
                                                                        51.7504
        41.5004
    560784.43848    466478.43447
                  20604777.7504                                   20604774.2934
                                                                        53.2504
        42.0004
   3427780.89147   2682131.26645
                  23634463.6724                                   23634459.5274
                                                                        46.0004
        31.0004
  -4696123.66848  -3597046.82045
                  22162503.1174                                   22162498.7584
                                                                        48.7504
        32.7504
   5138568.84446   4002213.47743
                  24036111.7664                                   24036107.7584
                                                                        41.0004
        22.5004
   -771445.84848   -565971.45746
                  21772945.5864                                   21772939.1884
                                                                        50.5004
        36.0004
    762607.58647    617527.58644
                  22628514.2344                                   22628510.5554
                                                                        45.7504
        29.7504
    557384.55947    463157.36344
                  23716510.6804                                   23716506.4734
                                                                        44.2504
        27.5004
 09 10  7 23 35  0.0000000  0  8G02G04G12G13G20G23G30G31
  -3692640.89848  -2823363.02746
                  20937838.1414                                   20937832.1564
                                                                        52.0004
        41.5004
    496083.02048    416061.74247
                  20592465.3674                                   20592461.9184
                                                                        52.2504
        42.0004
   3416206.93447   2673112.54345
                  23632261.6484                                   23632257.4654
                                                                        45.0004
        30.2504
  -4866952.96548  -3730160.54745
                  22129995.4454                                   22129990.5204
                                                                        49.5004
        33.5004
   5154818.01246   4014875.15243
                  24039202.7344                                   24039199.2274
                                                                        39.7504
        20.0004
   -860397.17648   -635284.17245
                  21756018.7424                                   21756012.5904
                                                                        49.7504
        35.7504
    704363.20347    572142.34844
                  22617430.6414                                   22617427.1564
                                                                        46.0004
        29.5004
    493356.66847    413265.49244
                  23704326.2274                                   23704321.8634
                                                                        43.2504
        27.5004
 09 10  7 23 35 30.0000000  0  8G02G04G12G13G20G23G30G31
  -3840424.95348  -2938519.43747
                  20909715.9614                                   20909710.0824
                                                                        52.2504
        42.0004
    432015.49648    366138.99247
                  20580273.8674                                   20580270.3014
                                                                        52.5004
        42.0004
   3405108.66047   2664464.51645
                  23630148.9064                                   23630145.0864
                                                                        45.7504
        30.5004
  -5037197.37948  -3862818.52745
                  22097598.5234                                   22097594.1334
                                                                        49.0004
        33.0004
   5171325.57846   4027738.18843
                  24042344.4534                                   24042340.6334
                                                                        39.5004
        18.2504
   -948626.48448   -704034.29345
                  21739229.1094                                   21739223.1414
                                                                        50.5004
        35.5004
    646845.25847    527323.15644
                  22606485.2194                                   22606482.1524
                                                                        47.0004
        29.7504
    429989.30947    363888.32044
                  23692267.8754                                   23692263.3834
                                                                        43.0004
        25.7504
 09 10  7 23 36  0.0000000  0  8G02G04G12G13G20G23G30G31
  -3987647.18048  -3053238.06246
                  20881700.1724                                   20881694.6374
                                                                        52.5004
        41.7504
    368578.84448    316707.83247
                  20568202.4304                                   20568198.5004
                                                                        53.5004
        42.5004
   3394481.22747   2656183.35545
                  23628127.5004                                   23628123.2704
                                                                        46.0004
        30.7504
  -5206856.42248  -3995020.37145
                  22065313.7114                                   22065309.4844
                                                                        49.2504
        33.0004
   5188087.05946   4040799.07043
                  24045534.6024                                   24045529.9884
                                                                        39.5004
        20.0004
  -1036136.03948   -772223.56245
                  21722576.6884                                   21722570.3524
                                                                        50.0004
        35.7504
    590050.16447    483067.23044
                  22595677.5554                                   22595674.5704
                                                                        45.7504
        29.5004
    367279.35547    315023.40644
                  23680334.5554                                   23680329.9264
                                                                        42.5004
        25.5004
 09 10  7 23 36 30.0000000  0  8G02G04G12G13G20G23G30G31
  -4134312.58648  -3167522.78946
                  20853790.9844                                   20853784.5824
                                                                        52.0004
        41.7504
    305765.28948    267762.19547
                  20556249.2424                                   20556245.7304
                                                                        53.2504
        42.5004
   3384315.27047   2648261.81345
                  23626193.1254                                   23626188.8954
                                                                        46.0004
        30.5004
  -5375934.56648  -4126769.56645
                  22033139.1884                                   22033134.9654
                                                                        49.7504
        33.5004
   5205093.50446   4054050.81343
                  24048770.3594                                   24048766.1954
                                                                        38.7504
        20.5004
  -1122932.64148   -839857.30145
                  21706059.6414                                   21706053.7234
                                                                        49.7504
        35.5004
    533969.63347    439368.10944
                  22585005.7344                                   22585002.1724
                                                                        46.0004
        29.5004
    305218.80547    266664.55144
                  23668524.4844                                   23668520.5984
                                                                        42.5004
        26.5004
 09 10  7 23 37  0.0000000  0  8G02G04G12G13G20G23G30G31
  -4280419.62548  -3281372.43047
                  20825987.4924                                   20825981.6844
                                                                        52.2504
        42.0004
    243573.98848    219301.43447
                  20544414.5084                                   20544411.2704
                                                                        52.7504
        42.0004
   3374607.87947   2640697.58645
                  23624345.6884                                   23624341.4064
                                                                        46.2504
        31.7504
  -5544428.94548  -4258063.88745
                  22001075.8754                                   22001071.7034
                                                                        49.5004
        33.5004
   5222342.66446   4067491.64543
                  24052053.0164                                   24052049.2894
                                                                        41.2504
        22.2504
  -1209017.00848   -906936.04346
                  21689678.8674                                   21689672.2194
                                                                        49.5004
        36.0004
    478602.09447    396224.55545
                  22574469.4144                                   22574466.2234
                                                                        46.7504
        30.5004
    243806.52046    218810.83644
                  23656838.6564                                   23656834.1174
                                                                        41.2504
        26.0004
 09 10  7 23 37 30.0000000  0  8G02G04G12G13G20G23G30G31
  -4425960.91448  -3394781.22347
                  20798292.0004                                   20798286.1054
                                                                        52.7504
        42.0004
    182010.10248    171329.57447
                  20532699.6094                                   20532696.1254
                                                                        52.2504
        42.0004
   3365362.25047   2633493.19545
                  23622586.5314                                   23622582.3524
                                                                        45.5004
        30.5004
  -5712331.05948  -4388896.71545
                  21969125.1644                                   21969120.3164
                                                                        50.0004
        33.5004
   5239838.27747   4081124.55143
                  24055382.9384                                   24055379.0394
                                                                        42.2504
        23.5004
  -1294383.10548   -973455.08245
                  21673434.1334                                   21673427.8714
                                                                        50.7504
        35.5004
    423951.67647    353639.80945
                  22564070.2814                                   22564066.8634
                                                                        45.7504
        30.0004
    183047.12146    171465.87544
                  23645276.7894                                   23645272.1954
                                                                        41.2504
        26.0004
 09 10  7 23 38  0.0000000  0  8G02G04G12G13G20G23G30G31
  -4570940.34048  -3507752.20747
                  20770703.3364                                   20770697.5124
                                                                        52.0004
        42.0004
    121066.91848    123841.37147
                  20521102.5634                                   20521098.4414
                                                                        53.2504
        42.0004
   3356569.78547   2626641.88745
                  23620913.0004                                   23620909.3594
                                                                        45.2504
        30.5004
  -5879644.30548  -4519270.66445
                  21937286.6724                                   21937282.0554
                                                                        50.5004
        33.7504
   5257572.13347   4094943.12543
                  24058757.6484                                   24058753.3634
                                                                        42.0004
        21.7504
  -1379037.01248  -1039419.17645
                  21657324.8914                                   21657318.3954
                                                                        50.0004
        35.5004
    370011.05947    311608.15244
                  22553805.3054                                   22553802.5044
                                                                        44.5004
        29.7504
    122933.50447    124624.12544
                  23633837.2034                                   23633833.2384
                                                                        43.2504
        25.7504
 09 10  7 23 38 30.0000000  0  8G02G04G12G13G20G23G30G31
  -3139934.60948  -2392682.79746
                  21043014.4224                                   21043008.6024
                                                                        52.5004
        41.7504
   1636162.45748   1304435.29747
                  20809415.5634                                   20809411.9024
                                                                        52.7504
        42.7504
   4923645.17647   3847739.55945
                  23919117.4774                                   23919113.7894
                                                                        45.7504
        30.0004
  -4470943.48448  -3421581.71145
                  22205353.4614                                   22205348.7384
                                                                        49.2504
        33.2504
   6850959.00046   5336543.25043
                  24361968.7584                                   24361964.8014
                                                                        40.5004
        20.7504
    112440.80948    122771.32845
                  21941143.6724                                   21941137.4774
                                                                        50.2504
        35.2504
   1892197.57047   1497727.50845
                  22843468.1094                                   22843465.1414
                                                                        44.5004
        30.0004
   1638883.64547   1305883.96544
                  23922313.2664                                   23922308.4104
                                                                        44.0004
        26.7504
 09 10  7 23 39  0.0000000  0  8G02G04G12G13G20G23G30G31
  -3283790.23048  -2504778.07846
                  21015639.8674                                   21015633.8134
                                                                        52.0004
        41.7504
   1576453.31648   1257908.68846
                  20798053.2734                                   20798049.4064
                                                                        53.0004
        41.7504
   4915746.45747   3841584.71545
                  23917614.5164                                   23917610.7274
                                                                        45.2504
        30.7504
  -4637076.00448  -3551035.60945
                  22173739.1724                                   22173734.6954
                                                                        49.0004
        33.5004
   6869159.07446   5350725.09442
                  24365431.5164                                   24365427.9414
                                                                        38.7504
        17.7504
     29205.25448     57912.44546
                  21925304.8444                                   21925298.0514
                                                                        49.7504
        36.0004
   1839667.04347   1456794.60945
                  22833471.7814                                   22833468.4804
                                                                        44.5004
        30.0004
   1580053.78147   1260042.49644
                  23911118.4614                                   23911113.5164
                                                                        43.0004
        27.0004
 09 10  7 23 39 30.0000000  0  8G02G04G12G13G20G23G30G31
  -3427081.71148  -2616433.77747
                  20988372.4454                                   20988366.4414
                                                                        52.2504
        42.0004
   1517359.49648   1211861.56346
                  20786808.1254                                   20786804.5044
                                                                        53.5004
        41.7504
   4908290.10947   3835774.57445
                  23916195.7664                                   23916191.2194
                                                                        46.0004
        31.0004
  -4802614.62148  -3680026.74645
                  22142238.5704                                   22142233.8204
                                                                        49.2504
        33.5004
   6887588.64846   5365085.74242
                  24368939.1414                                   24368935.3554
                                                                        38.5004
        17.7504
    -53321.93748     -6394.45745
                  21909600.0554                                   21909593.5784
                                                                        49.5004
        35.2504
   1787838.71147   1416408.89545
                  22823609.6804                                   22823606.3324
                                                                        45.0004
        30.2504
   1521863.65247   1214699.51644
                  23900045.0704                                   23900040.4264
                                                                        43.5004
        26.7504
 09 10  7 23 40  0.0000000  0  8G02G04G12G13G20G23G30G31
  -3569807.59448  -2727648.74247
                  20961212.5004                                   20961206.3484
                                                                        52.2504
        42.0004
   1458879.91848   1166293.06647
                  20775679.7664                                   20775676.1024
                                                                        53.5004
        42.0004
   4901272.99247   3830306.66845
                  23914860.1254                                   23914856.4614
                                                                        44.5004
        30.7504
  -4967557.03948  -3808553.29345
                  22110850.8674                                   22110846.3484
                                                                        49.7504
        34.5004
   6906245.16846   5379623.33643
                  24372489.3834                                   24372485.4654
                                                                        40.2504
        19.7504
   -135140.95748    -70149.54345
                  21894030.3984                                   21894024.4534
                                                                        49.0004
        35.2504
   1736710.39147   1376568.64545
                  22813879.6174                                   22813876.7664
                                                                        45.7504
        30.7504
   1464311.38747   1169853.59444
                  23889093.2664                                   23889088.4654
                                                                        43.7504
        27.2504
 09 10  7 23 40 30.0000000  0  8G02G04G12G13G20G23G30G31
  -3711966.99248  -2838422.28947
                  20934160.5394                                   20934154.4964
                                                                        51.7504
        42.2504
   1401012.80149   1121201.80546
                  20764667.9064                                   20764664.2234
                                                                        54.0004
        41.7504
   4894691.80147   3825178.44145
                  23913607.8594                                   23913604.1174
                                                                        45.2504
        30.2504
  -5131901.44948  -3936613.87145
                  22079577.3754                                   22079572.7894
                                                                        49.0004
        33.7504
   6925125.56346   5394335.28943
                  24376082.5314                                   24376077.9614
                                                                        41.7504
        20.7504
   -216253.10248   -133353.81645
                  21878595.2734                                   21878588.8014
                                                                        49.2504
        35.7504
   1686279.82447   1337272.10544
                  22804283.3984                                   22804279.9694
                                                                        45.5004
        29.7504
   1407395.59847   1125503.62544
                  23878263.0164                                   23878258.1374
                                                                        45.0004
        28.7504
 09 10  7 23 41  0.0000000  0  8G02G04G12G13G20G23G30G31
  -3853561.85948  -2948755.95347
                  20907215.8134                                   20907209.8914
                                                                        52.5004
        42.0004
   1343753.86748   1076584.45347
                  20753771.9224                                   20753768.6564
                                                                        52.7504
        42.0004
   4888540.47747   3820385.16844
                  23912437.1024                                   23912433.4534
                                                                        44.2504
        29.7504
  -5295648.72348  -4064209.14545
                  22048417.2974                                   22048412.7114
                                                                        49.5004
        34.7504
   6944224.62946   5409217.63743
                  24379716.9224                                   24379712.7854
                                                                        40.5004
        22.7504
   -296662.36748   -196010.38745
                  21863294.0234                                   21863287.4884
                                                                        50.0004
        35.0004
   1636541.86747   1298515.25444
                  22794818.1334                                   22794815.2814
                                                                        45.0004
        29.7504
   1351111.33247   1081645.74644
                  23867552.5004                                   23867547.7274
                                                                        45.7504
        28.0004
 09 10  7 23 41 30.0000000  0  7G02G04G12G13G23G30G31
  -3994586.19948  -3058645.05146
                  20880379.8204                                   20880373.5434
                                                                        52.0004
        41.7504
   1287106.40648   1032443.57846
                  20742992.2734                                   20742988.6914
                                                                        53.0004
        41.7504
   4882820.39847   3815927.96944
                  23911348.2344                                   23911344.6604
                                                                        44.5004
        29.5004
  -5458792.44548  -4191334.11745
                  22017371.9774                                   22017367.5394
                                                                        49.2504
        34.5004
   -376364.71148   -258116.10245
                  21848127.2114                                   21848120.4264
                                                                        49.5004
        35.0004
   1587499.30547   1260300.27044
                  22785486.1644                                   22785482.6524
                                                                        45.0004
        29.0004
   1295461.38347   1038282.12944
                  23856962.3364                                   23856957.9024
                                                                        45.7504
        28.5004
 09 10  7 23 42  0.0000000  0  7G02G04G12G13G23G30G31
  -4135037.62548  -3168087.72747
                  20853652.8284                                   20853647.0704
                                                                        51.5004
        42.2504
   1231069.75848    988778.65646
                  20732328.7504                                   20732325.1254
                                                                        53.0004
        41.7504
   4877529.05547   3811804.83244
                  23910341.9304                                   23910337.8554
                                                                        44.5004
        29.7504
  -5621329.21948  -4317986.14845
                  21986442.4304                                   21986437.0594
                                                                        49.2504
        33.7504
   -455360.15248   -319670.99245
                  21833094.8914                                   21833088.6604
                                                                        49.7504
        35.0004
   1539150.56647   1222625.93044
                  22776285.1884                                   22776282.4454
                                                                        43.5004
        29.5004
   1240445.14847    995412.35244
                  23846493.4614                                   23846488.6764
                                                                        45.2504
        29.0004
 09 10  7 23 42 30.0000000  0  7G02G04G12G13G23G30G31
  -4274913.74648  -3277082.10546
                  20827035.2114                                   20827029.1484
                                                                        52.2504
        41.7504
   1175644.54748    945590.18847
                  20721781.8594                                   20721777.9304
                                                                        53.0004
        42.0004
   4872665.52747   3808015.05545
                  23909416.7894                                   23909412.6334
                                                                        44.7504
        30.0004
  -5783255.38348  -4444162.37145
                  21955628.7344                                   21955624.0354
                                                                        50.0004
        34.5004
   -533647.93448   -380674.46145
                  21818197.2034                                   21818190.9574
                                                                        49.5004
        35.7504
   1491495.52747   1185492.11744
                  22767216.4924                                   22767213.8984
                                                                        44.7504
        29.7504
   1186062.63347    953036.35944
                  23836144.0314                                   23836140.1564
                                                                        44.2504
        28.5004
 09 10  7 23 43  0.0000000  0  7G02G04G12G13G23G30G31
  -4414210.69148  -3385625.17647
                  20800527.9384                                   20800522.0084
                                                                        51.2504
        42.2504
   1120831.48848    902878.70347
                  20711351.1174                                   20711347.6724
                                                                        53.2504
        42.0004
   4868228.52747   3804557.65645
                  23908572.2814                                   23908568.3714
                                                                        46.0004
        30.0004
  -5944566.84448  -4569859.63345
                  21924932.0864                                   21924927.3484
                                                                        49.5004
        34.5004
   -611226.75448   -441125.49645
                  21803434.3594                                   21803428.2304
                                                                        48.2504
        35.5004
   1444533.84047   1148898.59445
                  22758280.3594                                   22758277.5474
                                                                        44.5004
        30.2504
   1132314.12547    911154.39844
                  23825916.1884                                   23825911.8524
                                                                        44.5004
        28.0004
 09 10  7 23 43 30.0000000  0  7G02G04G12G13G23G30G31
  -4552926.80148  -3493715.64847
                  20774131.3754                                   20774125.1294
                                                                        50.5004
        42.2504
   1066629.62948    860643.48447
                  20701037.0234                                   20701033.3204
                                                                        53.5004
        42.7504
   4864215.61747   3801430.71544
                  23907808.1724                                   23907804.6684
                                                                        44.5004
        29.5004
  -6105260.86748  -4695075.76645
                  21894352.8364                                   21894348.8484
                                                                        49.7504
        34.0004
   -688096.89847   -501024.29745
                  21788806.3914                                   21788800.0474
                                                                        47.7504
        35.2504
   1398264.00447   1112844.17245
                  22749475.6564                                   22749472.5234
                                                                        44.5004
        30.5004
   1079198.47747    869765.56344
                  23815808.5394                                   23815804.6914
                                                                        44.0004
        29.5004
 09 10  7 23 44  0.0000000  0  8G02G04G12G13G29G23G30G31
  -4691069.52048  -3601359.32047
                  20747843.5944                                   20747837.4144
                                                                        51.5004
        42.0004
   1013029.16448    818876.89847
                  20690837.1804                                   20690833.3444
                                                                        53.2504
        42.0004
   4860614.45347   3798624.59844
                  23907123.3594                                   23907119.7194
                                                                        45.0004
        29.0004
  -6265344.27748  -4819816.09445
                  21863889.9924                                   21863885.7584
                                                                        50.0004
        34.2504
   5983822.87556   4704225.34454
                  24332996.0784                                   24332992.2624
                                                                        41.7504
        25.5004
   -764268.00048   -560378.39845
                  21774311.6024                                   21774305.0944
                                                                        48.7504
        35.0004
   1352675.28147   1077320.50845
                  22740800.7974                                   22740796.9614
                                                                        45.2504
        30.0004
   1026705.32847    828861.78944
                  23805819.7664                                   23805815.5004
                                                                        44.7504
        28.0004
 09 10  7 23 44 30.0000000  0  8G02G04G12G13G29G23G30G31
  -4828646.49248  -3708562.14547
                  20721663.4304                                   20721657.4064
                                                                        50.7504
        42.2504
    960019.58648    777570.73046
                  20680749.7734                                   20680746.0594
                                                                        53.7504
        41.7504
   4857413.30947   3796130.18844
                  23906514.6094                                   23906510.1414
                                                                        44.0004
        28.5004
  -6424823.73048  -4944085.78145
                  21833542.2504                                   21833537.5164
                                                                        49.7504
        34.2504
   5789523.13747   4552823.01644
                  24296021.2034                                   24296018.5944
                                                                        42.2504
        25.7504
   -839749.98848   -619195.53545
                  21759948.1644                                   21759941.2034
                                                                        49.2504
        34.5004
   1307756.09047   1042318.52745
                  22732252.8364                                   22732249.6054
                                                                        43.5004
        30.2504
    974823.73047    788434.55144
                  23795946.9384                                   23795943.2154
                                                                        44.0004
        27.7504
 09 10  7 23 45  0.0000000  0  8G02G04G12G13G29G23G30G31
  -4965663.17248  -3815328.38747
                  20695589.9614                                   20695584.1134
                                                                        51.0004
        42.0004
    907592.90648    736718.77346
                  20670773.3204                                   20670769.3634
                                                                        53.0004
        41.7504
   4854602.69947   3793940.07445
                  23905979.9614                                   23905975.5864
                                                                        44.5004
        30.0004
  -6583703.64148  -5067888.29345
                  21803308.2274                                   21803303.7544
                                                                        49.5004
        34.0004
   5595510.64546   4401644.52044
                  24259101.7814                                   24259099.5314
                                                                        41.5004
        26.7504
   -914549.91048   -677481.18045
                  21745713.8444                                   21745707.4264
                                                                        48.5004
        35.5004
   1263497.87947   1007831.62544
                  22723830.1724                                   22723827.2584
                                                                        44.2504
        29.2504
    923545.64547    748477.57444
                  23786188.4224                                   23786184.5904
                                                                        44.0004
        27.5004
 09 10  7 23 45 30.0000000  0  8G02G04G12G13G29G23G30G31
  -5102116.77748  -3921655.86747
                  20669623.6484                                   20669617.6724
                                                                        51.5004
        42.0004
    855749.55948    696321.39146
                  20660907.8444                                   20660904.0164
                                                                        53.5004
        41.7504
   4852180.77747   3792052.82445
                  23905518.6024                                   23905514.5204
                                                                        44.0004
        30.2504
  -6741980.57048  -5191220.94945
                  21773189.0784                                   21773184.8204
                                                                        49.7504
        35.0004
   5401789.27346   4250692.87144
                  24222236.5784                                   24222234.9144
                                                                        39.5004
        25.7504
   -988667.23448   -735234.95345
                  21731609.7584                                   21731603.1604
                                                                        50.0004
        34.7504
   1219899.78947    973859.09044
                  22715534.2034                                   22715531.0664
                                                                        45.0004
        29.2504
    872870.75047    708990.61344
                  23776545.9694                                   23776542.2194
                                                                        43.7504
        28.0004
 09 10  7 23 46  0.0000000  0  8G02G04G12G13G29G23G30G31
  -5238003.72348  -4027541.78947
                  20643765.3134                                   20643759.3794
                                                                        51.7504
        42.2504
    804490.24649    656379.07847
                  20651153.2814                                   20651149.8364
                                                                        54.2504
        42.0004
   4850146.94147   3790467.99644
                  23905131.9304                                   23905127.2344
                                                                        45.0004
        28.5004
  -6899650.24248  -5314080.42245
                  21743185.7814                                   21743181.1954
                                                                        49.7504
        35.0004
   5208363.48446   4099971.57044
                  24185429.6804                                   24185427.2544
                                                                        40.0004
        26.5004
  -1062100.75048   -792455.87545
                  21717635.8524                                   21717629.3914
                                                                        49.0004
        35.2504
   1176961.94547    940401.03544
                  22707363.3984                                   22707359.8634
                                                                        44.5004
        29.0004
    822799.75847    669974.22344
                  23767017.6254                                   23767013.6054
                                                                        43.2504
        27.0004
 09 10  7 23 46 30.0000000  0  8G02G04G12G13G29G23G30G31
  -5373325.05548  -4132986.98447
                  20618014.3134                                   20618008.4804
                                                                        51.7504
        42.7504
    753811.53148    616889.16846
                  20641509.5784                                   20641505.7544
                                                                        53.7504
        41.5004
   4848495.94947   3789181.50844
                  23904817.1094                                   23904813.2624
                                                                        45.2504
        28.5004
  -7056712.78148  -5436466.82045
                  21713297.8054                                   21713293.2624
                                                                        50.0004
        35.5004
   5015233.53146   3949480.76644
                  24148678.1804                                   24148676.0474
                                                                        40.2504
        26.5004
  -1134853.46148   -849146.30545
                  21703791.5164                                   21703785.2544
                                                                        49.0004
        35.5004
   1134679.96947    907454.03944
                  22699317.2504                                   22699313.6334
                                                                        44.5004
        29.5004
    773328.57847    631425.21544
                  23757603.7034                                   23757599.1024
                                                                        42.7504
        26.7504
 09 10  7 23 47  0.0000000  0  8G02G04G12G13G29G23G30G31
  -3932646.97348  -3010380.68446
                  20892166.7034                                   20892160.6684
                                                                        51.0004
        41.7504
   2279141.67248   1805458.11747
                  20931770.2814                                   20931766.3554
                                                                        52.2504
        42.0004
   6422653.08247   5015797.46544
                  24204369.4534                                   24204365.0984
                                                                        45.7504
        28.5004
  -5637732.73048  -4330768.08245
                  21983320.6334                                   21983316.4224
                                                                        50.0004
        35.0004
   6397836.25846   5026833.59444
                  24411778.7584                                   24411775.6804
                                                                        40.7504
        25.7504
    368503.90647    322300.98845
                  21989871.0394                                   21989864.7384
                                                                        47.0004
        35.0004
   2668481.14847   2102623.80944
                  22991189.6094                                   22991186.6454
                                                                        44.0004
        29.2504
   2299885.25846   1820949.88744
                  24048097.2274                                   24048093.1524
                                                                        40.2504
        25.2504
 09 10  7 23 47 30.0000000  0  8G02G04G12G13G29G23G30G31
  -4066816.76648  -3114928.56647
                  20866634.6094                                   20866628.9184
                                                                        51.0004
        42.5004
   2229636.58648   1766882.75446
                  20922349.6414                                   20922345.8874
                                                                        53.0004
        41.5004
   6421774.76647   5015113.05144
                  24204202.3054                                   24204197.9534
                                                                        45.0004
        28.0004
  -5793558.01248  -4452190.43445
                  21953668.1804                                   21953663.5314
                                                                        50.0004
        34.5004
   6205321.41446   4876822.09844
                  24375144.3754                                   24375141.1524
                                                                        39.7504
        24.5004
    297126.05547    266681.87945
                  21976288.0784                                   21976282.0554
                                                                        47.7504
        35.5004
   2627520.82447   2070706.67244
                  22983395.5004                                   22983392.1334
                                                                        44.5004
        28.0004
   2251625.05947   1783344.52744
                  24038913.7974                                   24038909.0234
                                                                        43.2504
        26.0004
 09 10  7 23 48  0.0000000  0  8G02G04G12G13G29G23G30G31
  -4200409.03148  -3219026.42646
                  20841212.8204                                   20841207.0594
                                                                        51.0004
        41.7504
   2180715.80148   1728762.68047
                  20913040.2424                                   20913036.7154
                                                                        53.5004
        42.0004
   6421277.84047   5014725.82044
                  24204107.0164                                   24204103.5824
                                                                        44.5004
        27.5004
  -5948761.85948  -4573128.45745
                  21924133.9844                                   21924129.3244
                                                                        49.5004
        34.5004
   6013116.71146   4727052.23444
                  24338568.7974                                   24338565.4614
                                                                        41.5004
        25.2504
    226434.09848    211597.23845
                  21962835.9384                                   21962829.4144
                                                                        48.2504
        35.2504
   2587217.37947   2039301.38744
                  22975725.5634                                   22975722.5704
                                                                        43.7504
        28.5004
   2203967.20347   1746208.53544
                  24029845.1724                                   24029840.2854
                                                                        44.0004
        27.0004
 09 10  7 23 48 30.0000000  0  8G02G04G12G13G29G23G30G31
  -4333423.19948  -3322673.82047
                  20815901.2664                                   20815895.4694
                                                                        51.5004
        42.5004
   2132377.47748   1691096.48446
                  20903842.0234                                   20903838.3284
                                                                        53.0004
        41.7504
   6421158.67247   5014632.94944
                  24204085.2504                                   24204081.2664
                                                                        44.2504
        29.0004
  -6103343.09448  -4693581.34045
                  21894717.7734                                   21894713.2464
                                                                        49.7504
        34.7504
   5821224.85247   4577526.15244
                  24302053.1094                                   24302050.0234
                                                                        42.0004
        27.2504
    156426.26648    157045.67245
                  21949513.8204                                   21949507.8634
                                                                        48.5004
        35.5004
   2547567.75047   2008405.57444
                  22968180.5634                                   22968177.5904
                                                                        44.5004
        29.0004
   2156909.44547   1709540.12944
                  24020890.4774                                   24020885.7234
                                                                        43.5004
        26.0004
 09 10  7 23 49  0.0000000  0  9G02G04G12G13G29G10G23G30G31
  -4465859.50048  -3425870.93047
                  20790699.2894                                   20790693.9344
                                                                        51.5004
        42.7504
   2084618.66048   1653881.81346
                  20894753.7974                                   20894750.7114
                                                                        53.2504
        41.7504
   6421412.97347   5014831.06344
                  24204133.4534                                   24204130.0904
                                                                        43.7504
        29.7504
  -6257301.04748  -4813548.57445
                  21865420.6804                                   21865416.3054
                                                                        48.7504
        34.5004
   5629646.37546   4428244.28144
                  24265596.1884                                   24265593.7624
                                                                        40.7504
        26.0004
   7533677.37157   5886798.01654
                  24193705.4384                                   24193701.9534
                                                                        44.0004
        26.2504
     87100.40248    103025.49245
                  21936321.2814                                   21936315.0164
                                                                        49.0004
        34.7504
   2508568.60547   1978016.62944
                  22960759.3674                                   22960756.3204
                                                                        45.2504
        29.2504
   2110448.59047   1673336.84044
                  24012049.6954                                   24012044.5944
                                                                        43.0004
        26.0004
 09 10  7 23 49 30.0000000  0  9G02G04G12G13G29G10G23G30G31
  -4597720.16048  -3528619.50047
                  20765607.1884                                   20765601.5864
                                                                        51.7504
        42.2504
   2037434.55148   1617115.00446
                  20885774.6884                                   20885771.4304
                                                                        53.0004
        41.7504
   6422034.03947   5015315.01244
                  24204251.4454                                   24204247.9964
                                                                        43.7504
        28.0004
  -6410637.26648  -4933031.34045
                  21836241.7734                                   21836237.4734
                                                                        49.2504
        34.5004
   5438379.77046   4279205.44544
                  24229200.0084                                   24229196.8484
                                                                        41.5004
        26.5004
   7323600.33247   5723101.65644
                  24153729.8054                                   24153726.3094
                                                                        42.5004
        26.0004
     18451.77048     49533.03945
                  21923258.5084                                   21923251.9694
                                                                        48.5004
        35.5004
   2470214.16047   1948130.04344
                  22953460.8284                                   22953457.5234
                                                                        44.5004
        29.7504
   2064579.13747   1637594.38344
                  24003320.2114                                   24003316.4384
                                                                        43.0004
        26.5004
 09 10  7 23 50  0.0000000  0  9G02G04G12G13G29G10G23G30G31
  -4729007.71548  -3630921.48047
                  20740623.9224                                   20740618.1524
                                                                        51.7504
        42.7504
   1990820.12948   1580792.09046
                  20876904.3524                                   20876901.0234
                                                                        53.5004
        41.5004
   6423015.11347   5016079.46944
                  24204438.7504                                   24204434.6724
                                                                        44.7504
        28.5004
  -6563353.32048  -5052030.82445
                  21807180.7344                                   21807176.4304
                                                                        49.5004
        34.7504
   5247423.94946   4130408.76644
                  24192862.0084                                   24192859.6484
                                                                        41.0004
        25.2504
   7113717.67647   5559556.77344
                  24113789.9774                                   24113786.6334
                                                                        42.0004
        24.7504
    -49524.32448     -3435.36745
                  21910323.0004                                   21910316.5394
                                                                        48.5004
        35.0004
   2432497.98847   1918740.79745
                  22946284.2274                                   22946281.1524
                                                                        45.0004
        30.0004
   2019295.62947   1602308.50844
                  23994703.1564                                   23994699.2544
                                                                        42.5004
        26.7504
 09 10  7 23 50 30.0000000  0  9G02G04G12G13G29G10G23G30G31
  -4859717.81648  -3732773.50847
                  20715750.7114                                   20715744.6294
                                                                        51.2504
        42.5004
   1944777.05548   1544914.36746
                  20868142.6254                                   20868139.0394
                                                                        53.0004
        41.7504
   6424356.03947   5017124.29744
                  24204693.3984                                   24204689.9494
                                                                        44.2504
        28.2504
  -6715444.18448  -5170543.19145
                  21778239.2034                                   21778234.6954
                                                                        49.0004
        35.5004
   5056784.56646   3981858.66844
                  24156583.8134                                   24156581.8874
                                                                        41.2504
        26.0004
   6904034.94146   5396167.67643
                  24073887.9384                                   24073885.1174
                                                                        40.7504
        23.2504
   -116825.62948    -55877.96545
                  21897516.0084                                   21897509.4224
                                                                        48.2504
        35.5004
   2395421.34047   1889849.91844
                  22939228.5394                                   22939225.4264
                                                                        45.0004
        29.5004
   1974599.39847   1567480.23844
                  23986198.1724                                   23986193.9534
                                                                        43.0004
        26.5004
 09 10  7 23 51  0.0000000  0  9G02G04G12G13G29G10G23G30G31
  -4989844.42248  -3834170.85947
                  20690988.4304                                   20690982.2274
                                                                        52.2504
        42.5004
   1899308.43448   1509484.27046
                  20859490.3364                                   20859486.8054
                                                                        53.2504
        41.7504
   6426058.81347   5018451.14844
                  24205017.3754                                   24205013.7544
                                                                        44.5004
        28.7504
  -6866903.27348  -5288563.24245
                  21749417.4534                                   21749412.7274
                                                                        49.5004
        35.0004
   4866468.44146   3833560.49644
                  24120369.0704                                   24120366.2234
                                                                        41.5004
        28.2504
   6694558.53547   5232939.37544
                  24034026.2274                                   24034023.5164
                                                                        42.0004
        26.2504
   -183449.06248   -107792.33245
                  21884837.6954                                   21884831.5204
                                                                        49.2504
        35.7504
   2358986.12547   1861458.84845
                  22932295.3054                                   22932291.5634
                                                                        45.5004
        30.2504
   1930493.06647   1533111.63344
                  23977804.5234                                   23977800.6334
                                                                        43.0004
        27.2504
 09 10  7 23 51 30.0000000  0  9G02G04G12G13G29G10G23G30G31
  -5119383.43048  -3935110.34047
                  20666337.8364                                   20666331.7704
                                                                        52.2504
        42.5004
   1854416.06648   1474503.19946
                  20850947.6414                                   20850944.1334
                                                                        53.0004
        41.7504
   6428123.18047   5020059.73444
                  24205410.6024                                   24205406.5784
                                                                        43.7504
        26.2504
  -7017725.39148  -5406086.96945
                  21720716.4454                                   21720711.9654
                                                                        49.0004
        35.0004
   4676481.28947   3685518.62144
                  24084216.0394                                   24084212.5164
                                                                        43.7504
        28.5004
   6485293.66447   5069875.89144
                  23994204.7344                                   23994201.3754
                                                                        43.7504
        28.2504
   -249392.26248   -159176.64145
                  21872289.1644                                   21872282.6094
                                                                        49.2504
        34.7504
   2323193.09847   1833568.18444
                  22925483.9384                                   22925480.5084
                                                                        45.2504
        29.5004
   1886978.11347   1499203.84444
                  23969523.6564                                   23969520.0904
                                                                        42.7504
        27.2504
 09 10  7 23 52  0.0000000  0  9G02G04G12G13G29G10G23G30G31
  -5248331.61748  -4035589.44147
                  20641799.7274                                   20641793.8094
                                                                        51.7504
        42.5004
   1810100.47348   1439971.55146
                  20842514.5634                                   20842511.0984
                                                                        52.2504
        41.5004
   6430547.97347   5021949.19144
                  24205871.5944                                   24205867.6804
                                                                        42.0004
        27.2504
  -7167907.07848  -5523111.67245
                  21692138.2734                                   21692133.4614
                                                                        49.5004
        35.2504
   4486827.34447   3537736.36344
                  24048125.3984                                   24048122.4184
                                                                        43.2504
        28.5004
   6276244.20747   4906980.28544
                  23954423.7664                                   23954420.1174
                                                                        44.0004
        27.0004
   -314654.23048   -210030.13745
                  21859870.8594                                   21859864.1804
                                                                        49.2504
        35.0004
   2288042.07847   1806177.76644
                  22918794.4304                                   22918791.5124
                                                                        44.5004
        28.7504
   1844054.47746   1465756.81644
                  23961356.2114                                   23961351.9844
                                                                        40.7504
        26.0004
 09 10  7 23 52 30.0000000  0  9G02G04G12G13G29G10G23G30G31
  -5376690.22748  -4135609.10247
                  20617374.1174                                   20617367.9454
                                                                        52.2504
        42.5004
   1766357.67648   1405886.24246
                  20834190.4694                                   20834186.8914
                                                                        52.7504
        41.5004
   6433328.08247   5024115.47344
                  24206400.7194                                   24206396.7504
                                                                        43.0004
        26.7504
  -7317448.48448  -5639637.43745
                  21663681.1334                                   21663676.2544
                                                                        49.5004
        34.7504
   4297506.39147   3390213.58644
                  24012099.0704                                   24012095.8754
                                                                        42.0004
        27.2504
   6067409.58247   4744252.05944
                  23914683.2504                                   23914680.5704
                                                                        43.2504
        27.5004
   -379238.84048   -260355.82045
                  21847580.7194                                   21847574.4964
                                                                        49.7504
        35.2504
   2253528.06647   1779283.71544
                  22912227.2974                                   22912222.9694
                                                                        45.5004
        29.5004
   1801717.77747   1432767.16044
                  23953300.2584                                   23953295.7774
                                                                        43.5004
        28.5004
 09 10  7 23 53  0.0000000  0  9G02G04G12G13G29G10G23G30G31
  -5504457.32048  -4235167.86347
                  20593060.6564                                   20593054.8754
                                                                        52.2504
        42.7504
   1723187.19148   1372246.90646
                  20825975.6484                                   20825972.0354
                                                                        52.5004
        41.7504
   6436461.05547   5026556.77044
                  24206997.3834                                   24206992.9884
                                                                        43.2504
        28.0004
  -7466346.91848  -5755662.20345
                  21635347.0164                                   21635342.0904
                                                                        49.2504
        35.5004
   4108521.68846   3242952.82044
                  23976135.2894                                   23976132.9344
                                                                        40.5004
        24.5004
   5858793.08646   4581693.82443
                  23874984.8364                                   23874981.9734
                                                                        41.7504
        22.7504
   -443146.27348   -310153.83645
                  21835419.3754                                   21835412.5164
                                                                        49.5004
        34.7504
   2219649.09847   1752884.51244
                  22905779.9064                                   22905776.2894
                                                                        44.5004
        29.2504
   1759966.77046   1400233.90644
                  23945354.6644                                   23945351.4344
                                                                        41.2504
        28.2504
 09 10  7 23 53 30.0000000  0  9G02G04G12G13G29G10G23G30G31
  -5631630.59048  -4334263.89547
                  20568860.6254                                   20568854.1414
                                                                        52.5004
        42.7504
   1680588.63748   1339053.23846
                  20817869.2814                                   20817865.5664
                                                                        53.0004
        41.0004
   6439944.78147   5029271.33644
                  24207660.1804                                   24207656.5124
                                                                        43.7504
        28.0004
  -7614599.17648  -5871183.43746
                  21607135.3984                                   21607130.7774
                                                                        49.2504
        36.0004
   3919876.68846   3095956.76644
                  23940237.2974                                   23940234.5514
                                                                        39.5004
        24.5004
   5650397.33647   4419307.55144
                  23835328.8754                                   23835325.1334
                                                                        43.0004
        26.5004
   -506376.59048   -359424.22745
                  21823387.0554                                   21823380.2934
                                                                        48.7504
        35.2504
   2186404.06647   1726979.29344
                  22899453.4384                                   22899449.9104
                                                                        45.0004
        28.2504
   1718800.94147   1368156.60244
                  23937521.7194                                   23937517.7544
                                                                        42.2504
        27.7504
 09 10  7 23 54  0.0000000  0  9G02G04G12G13G29G10G23G30G31
  -5758214.53148  -4432900.75447
                  20544772.5394                                   20544766.0944
                                                                        53.0004
        42.5004
   1638554.95348   1306299.71146
                  20809870.5864                                   20809867.1374
                                                                        51.7504
        41.5004
   6443771.10247   5032252.87944
                  24208388.1564                                   24208384.2664
                                                                        43.0004
        27.5004
  -7762209.28948  -5986204.31645
                  21579046.2734                                   21579041.2974
                                                                        50.0004
        35.2504
   3731568.43846   2949223.11744
                  23904403.6174                                   23904400.5084
                                                                        40.0004
        24.2504
   5442218.97747   4257090.69544
                  23795713.5704                                   23795710.5944
                                                                        42.7504
        26.7504
   -568936.50448   -408172.22745
                  21811481.9144                                   21811475.5474
                                                                        49.5004
        35.0004
   2153785.16447   1701561.96144
                  22893246.2274                                   22893242.7854
                                                                        45.5004
        28.5004
   1678212.45346   1336529.19944
                  23929797.6094                                   23929793.5164
                                                                        40.7504
        28.0004
 09 10  7 23 54 30.0000000  0  9G02G04G12G13G29G10G23G30G31
  -5884203.19548  -4531073.73847
                  20520797.6024                                   20520791.4774
                                                                        51.7504
        42.0004
   1597089.48448   1273988.93846
                  20801979.9844                                   20801976.5474
                                                                        53.0004
        41.2504
   6447941.51247   5035502.52044
                  24209181.5864                                   24209177.8914
                                                                        43.2504
        28.2504
  -7909170.74648  -6100719.73845
                  21551080.2424                                   21551075.4654
                                                                        49.2504
        35.2504
   3543604.04746   2802757.40244
                  23868635.8364                                   23868632.7384
                                                                        40.2504
        26.7504
   5234265.20747   4095048.84444
                  23756141.4224                                   23756138.2854
                                                                        43.7504
        28.5004
   -630822.54348   -456395.15245
                  21799705.4454                                   21799699.4264
                                                                        49.2504
        34.5004
   2121794.64847   1676634.27044
                  22887158.5084                                   22887155.2734
                                                                        43.7504
        28.2504
   1638204.59447   1305354.22344
                  23922184.5084                                   23922180.3634
                                                                        43.0004
        27.0004
 09 10  7 23 55  0.0000000  0  9G02G04G12G13G29G10G23G30G31
  -6009596.14148  -4628782.54347
                  20496936.2344                                   20496930.0784
                                                                        52.2504
        43.0004
   1556189.98848   1242119.19946
                  20794196.9844                                   20794193.2894
                                                                        52.7504
        41.0004
   6452451.80147   5039017.02044
                  24210039.7194                                   24210036.3634
                                                                        43.7504
        28.0004
  -8055482.12948  -6214728.60245
                  21523238.0234                                   21523233.3094
                                                                        49.7504
        35.5004
   3355985.32446   2656561.03944
                  23832932.7424                                   23832930.5704
                                                                        40.7504
        28.7504
   5026536.78947   3933182.57444
                  23716611.7274                                   23716608.6724
                                                                        42.5004
        28.7504
   -692036.50848   -504094.36345
                  21788057.0234                                   21788050.6804
                                                                        48.5004
        34.5004
   2090429.27747   1652193.71944
                  22881190.1644                                   22881186.4734
                                                                        43.5004
        27.7504
   1598774.45346   1274629.42244
                  23914680.9454                                   23914676.8634
                                                                        41.7504
        26.7504
 09 10  7 23 55 30.0000000  0  9G02G04G12G13G29G10G23G30G31
  -4558968.16448  -3498423.08247
                  20772981.2344                                   20772975.1094
                                                                        52.0004
        43.7504
   3091276.20748   2438290.27346
                  21086314.2974                                   21086310.4494
                                                                        53.0004
        41.5004
   8032719.12547   6270394.12944
                  24510754.9064                                   24510751.1524
                                                                        43.5004
        26.5004
  -6625717.06248  -5100625.97345
                  21795313.5084                                   21795308.7114
                                                                        49.5004
        35.0004
   4744140.40246   3738240.36744
                  24097090.3984                                   24097087.2114
                                                                        40.7504
        29.2504
   6394462.82046   4999099.00444
                  23976919.8284                                   23976916.1564
                                                                        41.2504
        27.5004
    822842.21548    676330.59045
                  22076328.7424                                   22076322.5514
                                                                        49.0004
        34.2504
   3635107.07847   2855838.73844
                  23175132.3754                                   23175129.3914
                                                                        43.7504
        27.5004
   3135341.06646   2471954.01244
                  24207078.9844                                   24207075.6334
                                                                        41.5004
        25.0004
 09 10  7 23 56  0.0000000  0  9G02G04G12G13G29G10G23G30G31
  -4683168.12548  -3595202.27747
                  20749347.0234                                   20749341.2274
                                                                        52.5004
        42.7504
   3051501.87948   2407297.29347
                  21078745.3284                                   21078741.4534
                                                                        53.0004
        42.0004
   8037898.80947   6274430.24644
                  24511740.6954                                   24511736.5204
                                                                        42.5004
        27.5004
  -6770725.18448  -5213619.32045
                  21767719.2424                                   21767715.0004
                                                                        49.5004
        35.7504
   4557217.62546   3592586.30544
                  24061520.0784                                   24061517.1024
                                                                        41.2504
        27.7504
   6187189.90647   4837587.68844
                  23937476.4144                                   23937473.1254
                                                                        42.0004
        24.7504
    762966.38748    629674.10245
                  22064935.0004                                   22064928.3244
                                                                        49.5004
        35.0004
   3604981.61347   2832364.34444
                  23169400.2734                                   23169396.7584
                                                                        44.5004
        29.2504
   3097058.07047   2442123.10944
                  24199794.9224                                   24199790.6134
                                                                        42.0004
        25.0004
 09 10  7 23 56 30.0000000  0  9G02G04G12G13G29G10G23G30G31
  -4806774.83648  -3691519.17647
                  20725825.3834                                   20725819.2584
                                                                        52.5004
        42.7504
   3012283.69148   2376737.65246
                  21071282.5084                                   21071279.0084
                                                                        52.7504
        41.2504
   8043404.01247   6278720.00044
                  24512788.3134                                   24512784.0984
                                                                        44.2504
        26.7504
  -6915083.41448  -5326106.30145
                  21740249.0474                                   21740244.1684
                                                                        50.0004
        35.2504
   4370642.10246   3447202.81344
                  24026015.3594                                   24026012.6764
                                                                        40.5004
        28.7504
   5980143.51647   4676252.84844
                  23898076.8054                                   23898074.1914
                                                                        42.2504
        26.2504
    703753.37948    583534.07445
                  22053666.8754                                   22053660.5164
                                                                        48.7504
        34.5004
   3575468.31347   2809366.94544
                  23163784.2504                                   23163780.6214
                                                                        45.2504
        29.5004
   3059341.32046   2412733.37944
                  24192617.9064                                   24192613.2504
                                                                        41.5004
        24.5004
 09 10  7 23 57  0.0000000  0  9G02G04G12G13G29G10G23G30G31
  -4929785.06248  -3787371.30147
                  20702417.1564                                   20702411.3134
                                                                        52.5004
        42.0004
   2973622.03548   2346611.66446
                  21063925.6254                                   21063921.7704
                                                                        53.5004
        41.0004
   8049233.66447   6283262.58244
                  24513897.8364                                   24513893.2974
                                                                        44.0004
        27.2504
  -7058787.80548  -5438083.78945
                  21712902.6564                                   21712898.3014
                                                                        50.0004
        35.7504
   4184418.36346   3302093.46144
                  23990578.2974                                   23990575.1174
                                                                        40.5004
        27.7504
   5773327.65247   4515097.62944
                  23858721.5944                                   23858718.0904
                                                                        43.0004
        27.7504
    645203.84048    537911.02345
                  22042525.2344                                   22042519.1994
                                                                        49.0004
        34.5004
   3546566.45347   2786845.99644
                  23158284.6024                                   23158281.4534
                                                                        45.7504
        29.5004
   3022190.72746   2383784.85244
                  24185547.7734                                   24185543.5124
                                                                        41.5004
        24.5004
 09 10  7 23 57 30.0000000  0  9G02G04G12G13G29G10G23G30G31
  -5052198.97748  -3882758.76647
                  20679122.5554                                   20679116.7384
                                                                        52.0004
        43.0004
   2935513.16448   2316916.41846
                  21056673.4614                                   21056669.9924
                                                                        52.7504
        41.5004
   8055382.97347   6288054.25044
                  24515067.0704                                   24515063.7154
                                                                        42.0004
        27.0004
  -7201838.85248  -5549552.19945
                  21685681.0314                                   21685676.8834
                                                                        50.0004
        35.7504
   3998546.82446   3157258.53944
                  23955207.8754                                   23955205.0554
                                                                        40.2504
        26.5004
   5566742.07447   4354121.88744
                  23819409.6804                                   23819406.5004
                                                                        42.5004
        28.2504
    587314.48448    492802.44145
                  22031509.3914                                   22031502.6294
                                                                        48.5004
        34.2504
   3518271.48047   2764797.95744
                  23152900.0784                                   23152896.2464
                                                                        45.5004
        29.2504
   2985602.43447   2355274.49644
                  24178586.0634                                   24178581.1254
                                                                        42.5004
        25.0004
 09 10  7 23 58  0.0000000  0  9G02G04G12G13G29G10G23G30G31
  -5174016.14148  -3977681.24247
                  20655941.4844                                   20655935.6254
                                                                        51.7504
        42.7504
   2897955.51648   2287650.69146
                  21049526.8284                                   21049522.9344
                                                                        51.7504
        41.5004
   8061848.28146   6293092.14844
                  24516298.0944                                   24516294.5204
                                                                        41.5004
        28.0004
  -7344235.08648  -5660510.33246
                  21658584.1254                                   21658579.3754
                                                                        50.0004
        36.5004
   3813029.77047   3012699.82444
                  23919905.5944                                   23919902.2504
                                                                        42.2504
        27.0004
   5360389.09847   4193327.41844
                  23780141.7974                                   23780138.2974
                                                                        43.7504
        27.5004
    530083.55948    448206.91845
                  22020618.6884                                   22020612.1094
                                                                        48.7504
        34.0004
   3490580.14147   2743220.27744
                  23147630.5704                                   23147627.0084
                                                                        44.5004
        29.0004
   2949573.93447   2327200.34444
                  24171730.1334                                   24171725.3054
                                                                        43.2504
        25.2504
 09 10  7 23 58 30.0000000  0  9G02G04G12G13G29G10G23G30G31
  -5295235.44548  -4072137.84447
                  20632874.2504                                   20632868.3834
                                                                        52.7504
        43.0004
   2860947.61748   2258813.37546
                  21042484.0004                                   21042480.6724
                                                                        51.0004
        41.0004
   8068627.25846   6298374.41844
                  24517587.3524                                   24517584.1804
                                                                        40.0004
        27.0004
  -7485974.43748  -5770956.65645
                  21631611.9384                                   21631607.8284
                                                                        50.7504
        35.7504
   3627869.63346   2868419.23444
                  23884670.2194                                   23884667.8284
                                                                        41.5004
        27.7504
   5154270.81347   4032715.80544
                  23740919.1334                                   23740915.1484
                                                                        43.5004
        28.0004
    473510.20748    404123.78145
                  22009853.0004                                   22009846.4804
                                                                        49.0004
        34.0004
   3463490.52747   2722111.47744
                  23142475.5944                                   23142471.5824
                                                                        45.5004
        28.2504
   2914103.41846   2299560.95744
                  24164980.5554                                   24164975.7584
                                                                        41.0004
        27.2504
 09 10  7 23 59  0.0000000  0  9G02G04G12G13G29G10G23G30G31
  -5415856.60948  -4166128.35947
                  20609920.5864                                   20609914.8794
                                                                        53.2504
        42.7504
   2824487.44548   2230402.84846
                  21035545.9844                                   21035542.7034
                                                                        52.5004
        41.0004
   8075715.77746   6303897.90644
                  24518937.1484                                   24518933.5164
                                                                        40.0004
        29.2504
  -7627055.92248  -5880890.39546
                  21604765.2974                                   21604760.9614
                                                                        50.0004
        36.5004
   3443068.05147   2724418.04344
                  23849503.9694                                   23849501.1054
                                                                        42.2504
        28.0004
   4948389.02347   3872288.48844
                  23701740.9384                                   23701737.8134
                                                                        43.7504
        29.0004
    417592.27748    360551.37145
                  21999212.1094                                   21999205.7934
                                                                        48.7504
        34.0004
   3436999.19947   2701468.87944
                  23137434.8134                                   23137430.8054
                                                                        45.2504
        29.2504
   2879188.14547   2272354.22744
                  24158336.0554                                   24158331.7774
                                                                        44.5004
        27.5004
 09 10  7 23 59 30.0000000  0  9G02G04G12G13G29G10G23G30G31
  -5535877.68748  -4259651.27047
                  20587081.5554                                   20587075.3754
                                                                        52.7504
        42.7504
   2788574.20348   2202418.50446
                  21028712.1644                                   21028708.4804
                                                                        53.0004
        41.2504
   8083111.74646   6309660.97344
                  24520344.4614                                   24520340.8524
                                                                        41.5004
        28.7504
  -7767476.75448  -5990309.19946
                  21578044.0474                                   21578039.6954
                                                                        50.2504
        36.0004
   3258628.44147   2580698.92644
                  23814406.4064                                   23814403.1724
                                                                        42.7504
        28.5004
   4742746.24247   3712047.42244
                  23662607.6954                                   23662604.6334
                                                                        43.0004
        27.2504
    362329.32048    317489.32845
                  21988695.9384                                   21988689.2154
                                                                        49.0004
        34.0004
   3411104.64847   2681291.30544
                  23132506.8284                                   23132503.2504
                                                                        44.2504
        27.5004
   2844826.92647   2245579.23844
                  24151797.5474                                   24151793.0434
                                                                        43.0004
        28.2504
