     2.11           OBSERVATION DATA    G (GPS)             RINEX VERSION / TYPE
teqc  2019Feb25                         20221121 12:28:02UTCPGM / RUN BY / DATE
OSX ker:10.11.6|Core i5|gcc 4.3 -m64|OSX ker:10.10+|=+      COMMENT
BIT 2 OF LLI FLAGS DATA COLLECTED UNDER A/S CONDITION       COMMENT
04712780                                                    MARKER NAME
2780                                                        MARKER NUMBER
-Unknown-           -Unknown-                               OBSERVER / AGENCY
0220400471          TRIMBLE R7          2.30                REC # / TYPE / VERS
-Unknown-           TRM39105.00     NONE                    ANT # / TYPE
  1449460.7568 -1709239.8610  5952440.8517                  APPROX POSITION XYZ
        0.0000        0.0000        0.0000                  ANTENNA: DELTA H/E/N
     1     1                                                WAVELENGTH FACT L1/2
    20    L1    L2    L5    L6    L7    L8    C1    P1    C2# / TYPES OF OBSERV
          P2    C5    C6    C7    C8    S1    S2    S5    S6# / TYPES OF OBSERV
          S7    S8                                          # / TYPES OF OBSERV
    30.0000                                                 INTERVAL
    15                                                      LEAP SECONDS
Forced Modulo Decimation to 30 seconds                      COMMENT
 SNR is mapped to RINEX snr flag value [0-9]                COMMENT
  L1 & L2: min(max(int(snr_dBHz/6), 0), 9)                  COMMENT
teqc edited: Beidou # 1 - 37 excluded                       COMMENT
  2009    10     5     0     0    0.0000000     GPS         TIME OF FIRST OBS
                                                            END OF HEADER
 09 10  5  0  0  0.0000000  0  8G02G04G12G13G29G23G30G31
 -15611098.54748 -12092610.22747
                  20882862.6884                                   20882857.2504
                                                                        51.2504
        42.0004
  -7472592.26248  -5778117.03946
                  20942202.7664                                   20942199.7584
                                                                        52.5004
        41.2504
  -1767911.47747  -1358072.94544
                  24227179.1724                                   24227174.8324
                                                                        44.7504
        27.7504
 -17913601.37548 -13879346.14845
                  21970980.7584                                   21970976.8014
                                                                        50.0004
        35.0004
  -1523575.23846  -1143855.50044
                  24398061.3284                                   24398059.7034
                                                                        39.7504
        24.5004
 -10048618.25848  -7775585.89145
                  22003426.0704                                   22003420.1684
                                                                        48.0004
        35.7504
  -7050991.86747  -5454780.07044
                  23010430.8134                                   23010427.8954
                                                                        44.0004
        27.2504
  -7404657.83246  -5727092.72744
                  24070676.3204                                   24070671.4184
                                                                        40.7504
        25.2504
 09 10  5  0  0 30.0000000  0  8G02G04G12G13G29G23G30G31
 -15735112.69948 -12189244.63747
                  20859263.1564                                   20859257.6054
                                                                        51.0004
        42.2504
  -7512464.26248  -5809186.21146
                  20934615.8914                                   20934612.6844
                                                                        53.0004
        41.5004
  -1759286.33647  -1351352.17644
                  24228820.8834                                   24228815.8954
                                                                        44.5004
        27.5004
 -18059419.59048 -13992970.80545
                  21943232.4304                                   21943228.2304
                                                                        50.0004
        34.2504
  -1706586.28946  -1286461.23444
                  24363235.8284                                   24363232.5824
                                                                        40.5004
        24.0004
 -10109539.69148  -7823056.89845
                  21991832.9144                                   21991826.9804
                                                                        48.5004
        35.7504
  -7081903.27047  -5478866.94944
                  23004549.7664                                   23004546.5944
                                                                        44.2504
        28.0004
  -7442560.98847  -5756627.87144
                  24063463.5784                                   24063459.2814
                                                                        44.0004
        25.0004
 09 10  5  0  1  0.0000000  0  8G02G04G12G13G29G23G30G31
 -15858564.11348 -12285440.49246
                  20835771.7034                                   20835766.0904
                                                                        51.0004
        41.7504
  -7551769.82448  -5839813.91846
                  20927136.3524                                   20927132.8834
                                                                        51.5004
        41.5004
  -1750299.81247  -1344349.77344
                  24230530.6024                                   24230526.6414
                                                                        44.2504
        27.5004
 -18204630.37548 -14106122.07445
                  21915599.8444                                   21915595.6484
                                                                        49.7504
        34.5004
  -1889301.84847  -1428837.02744
                  24328466.5554                                   24328463.3244
                                                                        42.5004
        25.5004
 -10169794.00448  -7870008.21545
                  21980366.4694                                   21980360.7034
                                                                        48.5004
        35.0004
  -7112177.72347  -5502457.36744
                  22998788.0084                                   22998785.1684
                                                                        44.5004
        29.5004
  -7479881.54346  -5785708.56244
                  24056361.9844                                   24056357.2074
                                                                        40.5004
        27.2504
 09 10  5  0  1 30.0000000  0  8G02G04G12G13G29G23G30G31
 -15981454.96948 -12381199.62947
                  20812386.0784                                   20812380.6914
                                                                        51.0004
        42.7504
  -7590513.96148  -5870004.24246
                  20919763.5314                                   20919760.2074
                                                                        52.5004
        41.0004
  -1740957.51647  -1337070.07844
                  24232308.6724                                   24232304.8364
                                                                        43.2504
        27.7504
 -18349235.60948 -14218801.58245
                  21888082.3204                                   21888078.5354
                                                                        48.7504
        34.7504
  -2071722.55547  -1570983.22944
                  24293753.0084                                   24293750.1954
                                                                        42.5004
        26.0004
 -10229385.39548  -7916442.99645
                  21969026.7894                                   21969020.7424
                                                                        48.5004
        35.2504
  -7141821.00047  -5525556.02344
                  22993147.0864                                   22993144.1134
                                                                        45.0004
        29.2504
  -7516625.21547  -5814339.88744
                  24049369.5084                                   24049365.0904
                                                                        42.0004
        27.0004
 09 10  5  0  2  0.0000000  0  9G02G04G12G13G29G10G23G30G31
 -16103782.49248 -12476519.78547
                  20789108.1334                                   20789103.0514
                                                                        51.5004
        43.0004
  -7628696.47348  -5899756.98446
                  20912497.5234                                   20912494.3984
                                                                        52.5004
        41.0004
  -1731261.35947  -1329514.66844
                  24234153.6724                                   24234150.1524
                                                                        43.0004
        27.7504
 -18493231.23848 -14331005.98445
                  21860680.9614                                   21860677.0164
                                                                        49.2504
        34.0004
  -2253843.38346  -1712895.60244
                  24259096.0234                                   24259093.9884
                                                                        41.7504
        24.5004
   -254563.18057   -178501.36754
                  24211371.4694                                   24211368.1254
                                                                        43.0004
        26.5004
 -10288313.73448  -7962361.06645
                  21957812.8834                                   21957807.1174
                                                                        48.2504
        35.7504
  -7170834.40647  -5548164.00844
                  22987626.1094                                   22987623.2384
                                                                        44.0004
        29.5004
  -7552792.73046  -5842522.34844
                  24042487.0394                                   24042482.7664
                                                                        40.5004
        27.0004
 09 10  5  0  2 30.0000000  0  9G02G04G12G13G29G10G23G30G31
 -16225549.20748 -12571402.86747
                  20765936.3204                                   20765931.2814
                                                                        51.5004
        42.7504
  -7666322.43048  -5929075.97746
                  20905337.6954                                   20905334.5704
                                                                        52.5004
        41.5004
  -1721218.21147  -1321688.79344
                  24236065.1414                                   24236061.0744
                                                                        44.0004
        28.5004
 -18636619.44948 -14442737.07845
                  21833394.8134                                   21833391.3444
                                                                        48.5004
        34.5004
  -2435666.87946  -1854576.12943
                  24224495.8054                                   24224493.2974
                                                                        40.7504
        22.2504
   -455480.73447   -335060.48044
                  24173138.2114                                   24173135.3094
                                                                        42.5004
        25.5004
 -10346583.70748  -8007766.02745
                  21946724.4534                                   21946718.2664
                                                                        49.0004
        35.2504
  -7199223.50847  -5570285.42245
                  22982224.0944                                   22982221.3014
                                                                        44.5004
        30.0004
  -7588389.72746  -5870260.20344
                  24035712.6484                                   24035708.6024
                                                                        39.5004
        26.0004
 09 10  5  0  3  0.0000000  0  9G02G04G12G13G29G10G23G30G31
 -16346757.85948 -12665851.21547
                  20742871.4844                                   20742866.0314
                                                                        51.0004
        42.2504
  -7703396.81648  -5957965.16046
                  20898282.9384                                   20898279.4804
                                                                        53.0004
        41.5004
  -1710835.30147  -1313598.26244
                  24238040.8754                                   24238036.8674
                                                                        44.2504
        29.2504
 -18779401.55948 -14553995.79745
                  21806224.3524                                   21806220.8134
                                                                        49.5004
        35.0004
  -2617194.25846  -1996025.91844
                  24189952.3594                                   24189950.0164
                                                                        39.7504
        24.2504
   -656221.44147   -491481.80944
                  24134937.9844                                   24134935.0554
                                                                        43.2504
        25.2504
 -10404199.86748  -8052661.65645
                  21935760.6724                                   21935754.2114
                                                                        49.0004
        35.5004
  -7226994.23447  -5591924.96145
                  22976939.5704                                   22976935.9024
                                                                        45.0004
        30.0004
  -7623420.94547  -5897557.15644
                  24029046.2974                                   24029042.4224
                                                                        42.0004
        27.2504
 09 10  5  0  3 30.0000000  0  9G02G04G12G13G29G10G23G30G31
 -16467403.80548 -12759861.00447
                  20719913.0004                                   20719907.5594
                                                                        52.0004
        42.2504
  -7739918.38348  -5986423.56246
                  20891333.0084                                   20891329.8014
                                                                        53.0004
        41.5004
  -1700112.42247  -1305242.83644
                  24240082.0164                                   24240077.2544
                                                                        44.0004
        28.7504
 -18921572.77348 -14664778.52345
                  21779170.5704                                   21779166.5744
                                                                        50.0004
        35.0004
  -2798420.46947  -2137241.23044
                  24155466.4064                                   24155465.0864
                                                                        42.0004
        25.7504
   -856780.34046   -647761.43044
                  24096772.5864                                   24096769.7304
                                                                        41.5004
        24.0004
 -10461161.00848  -8097047.07845
                  21924921.0864                                   21924914.7154
                                                                        48.0004
        34.5004
  -7254146.70747  -5613082.94944
                  22971773.0704                                   22971769.2424
                                                                        45.5004
        28.0004
  -7657885.52346  -5924412.40244
                  24022487.8834                                   24022484.0664
                                                                        40.2504
        26.0004
 09 10  5  0  4  0.0000000  0  9G02G04G12G13G29G10G23G30G31
 -16587484.89148 -12853430.65646
                  20697062.6804                                   20697056.7774
                                                                        51.0004
        41.7504
  -7775887.39548  -6014451.52346
                  20884488.4384                                   20884485.3094
                                                                        53.2504
        41.5004
  -1689051.38347  -1296623.89144
                  24242186.2194                                   24242182.2304
                                                                        42.5004
        28.0004
 -19063130.14148 -14775082.92245
                  21752232.5554                                   21752228.4774
                                                                        48.7504
        35.2504
  -2979340.96147  -2278218.10244
                  24121039.0314                                   24121036.4964
                                                                        43.5004
        27.7504
  -1057154.64146   -803897.16844
                  24058642.6094                                   24058639.5704
                                                                        40.5004
        24.2504
 -10517467.44148  -8140922.71145
                  21914206.6414                                   21914200.5634
                                                                        49.2504
        34.5004
  -7280681.22347  -5633759.16844
                  22966723.0864                                   22966719.8444
                                                                        43.7504
        28.2504
  -7691785.16047  -5950827.69944
                  24016036.8364                                   24016033.0164
                                                                        42.0004
        25.7504
 09 10  5  0  4 30.0000000  0  9G02G04G12G13G29G10G23G30G31
 -16706997.43448 -12946557.30147
                  20674319.9774                                   20674314.1214
                                                                        52.0004
        42.2504
  -7811302.63348  -6042047.85246
                  20877749.2274                                   20877745.9144
                                                                        53.0004
        41.5004
  -1677652.23047  -1287741.43044
                  24244355.1254                                   24244351.1994
                                                                        42.2504
        27.2504
 -19204069.35248 -14884905.65645
                  21725413.0084                                   21725408.4774
                                                                        49.5004
        35.5004
  -3159951.46947  -2418953.40244
                  24086669.5944                                   24086667.0984
                                                                        43.0004
        28.2504
  -1257339.69947   -959885.45344
                  24020549.3754                                   24020546.4344
                                                                        43.7504
        27.2504
 -10573116.27348  -8184285.69545
                  21903617.4384                                   21903611.2544
                                                                        49.5004
        34.5004
  -7306597.90247  -5653953.92644
                  22961791.4304                                   22961788.1524
                                                                        44.0004
        28.0004
  -7725118.82447  -5976801.95344
                  24009693.9614                                   24009689.9224
                                                                        42.5004
        27.5004
 09 10  5  0  5  0.0000000  0  9G02G04G12G13G29G10G23G30G31
 -16825938.49648 -13039238.59047
                  20651686.5474                                   20651680.9654
                                                                        52.0004
        42.0004
  -7846163.30948  -6069212.10946
                  20871115.6884                                   20871112.2234
                                                                        52.5004
        41.0004
  -1665916.65646  -1278596.83644
                  24246588.2734                                   24246584.6054
                                                                        41.5004
        27.5004
 -19344386.59048 -14994243.67245
                  21698711.3204                                   21698707.5394
                                                                        49.5004
        35.5004
  -3340247.87146  -2559444.14144
                  24052359.7664                                   24052358.0234
                                                                        41.7504
        27.2504
  -1457331.10247  -1115722.89844
                  23982491.9304                                   23982488.3954
                                                                        43.2504
        27.2504
 -10628106.59048  -8227135.13345
                  21893153.1094                                   21893147.2814
                                                                        50.0004
        35.0004
  -7331897.18747  -5673667.60244
                  22956976.4224                                   22956973.7734
                                                                        45.0004
        27.7504
  -7757886.03546  -6002334.85244
                  24003458.6954                                   24003454.2974
                                                                        40.0004
        27.2504
 09 10  5  0  5 30.0000000  0  9G02G04G12G13G29G10G23G30G31
 -16944308.00048 -13131474.52347
                  20629161.4144                                   20629155.3714
                                                                        52.0004
        42.0004
  -7880472.52348  -6095946.58246
                  20864586.7344                                   20864583.6484
                                                                        53.0004
        41.5004
  -1653849.35947  -1269193.82444
                  24248884.7734                                   24248880.5664
                                                                        42.2504
        27.5004
 -19484080.96548 -15103096.44145
                  21672128.5084                                   21672124.1484
                                                                        49.5004
        35.0004
  -3520228.91446  -2699689.17643
                  24018109.9534                                   24018107.8984
                                                                        41.2504
        23.0004
  -1657128.37947  -1271409.08644
                  23944471.9774                                   23944468.7424
                                                                        44.0004
        26.7504
 -10682441.91448  -8269474.34045
                  21882813.3754                                   21882806.8914
                                                                        50.0004
        35.0004
  -7356583.15247  -5692903.39144
                  22952278.8134                                   22952275.8834
                                                                        44.5004
        28.5004
  -7790090.17647  -6027428.93744
                  23997330.3444                                   23997326.5664
                                                                        42.2504
        25.5004
 09 10  5  0  6  0.0000000  0  9G02G04G12G13G29G10G23G30G31
 -17062105.83248 -13223264.94547
                  20606744.7034                                   20606739.1524
                                                                        52.2504
        42.0004
  -7914233.02348  -6122253.52046
                  20858162.2664                                   20858159.1174
                                                                        53.0004
        41.7504
  -1641454.30547  -1259535.41444
                  24251243.4924                                   24251239.8404
                                                                        43.7504
        26.5004
 -19623152.04348 -15211463.54745
                  21645664.1024                                   21645660.1414
                                                                        50.2504
        35.2504
  -3699893.32446  -2839687.44143
                  23983921.1564                                   23983918.8634
                                                                        39.0004
        23.0004
  -1856730.75446  -1426943.34843
                  23906488.3054                                   23906485.1214
                                                                        41.0004
        22.5004
 -10736124.87948  -8311305.40245
                  21872598.0314                                   21872592.2234
                                                                        49.0004
        34.2504
  -7380659.69947  -5711664.34444
                  22947697.8444                                   22947694.3444
                                                                        44.0004
        29.0004
  -7821734.84447  -6052087.23844
                  23991309.1174                                   23991304.7034
                                                                        43.0004
        27.0004
 09 10  5  0  6 30.0000000  0  9G02G04G12G13G29G10G23G30G31
 -17179332.20748 -13314610.11747
                  20584437.5704                                   20584431.8364
                                                                        52.0004
        42.5004
  -7947446.83648  -6148134.40646
                  20851841.4614                                   20851838.6604
                                                                        53.0004
        41.5004
  -1628735.17247  -1249624.43444
                  24253664.4844                                   24253660.1954
                                                                        43.0004
        27.5004
 -19761598.96148 -15319344.35545
                  21619318.4064                                   21619314.4104
                                                                        49.5004
        35.2504
  -3879239.71946  -2979437.86744
                  23949792.5474                                   23949790.5984
                                                                        38.5004
        24.0004
  -2056137.43746  -1582325.16044
                  23868542.6954                                   23868539.3054
                                                                        40.5004
        24.5004
 -10789156.79348  -8352629.09845
                  21862506.0314                                   21862500.4414
                                                                        49.5004
        34.7504
  -7404129.55147  -5729952.44544
                  22943231.2584                                   22943228.5664
                                                                        44.2504
        28.5004
  -7852822.54347  -6076311.51644
                  23985393.1804                                   23985388.7234
                                                                        42.2504
        25.2504
 09 10  5  0  7  0.0000000  0  9G02G04G12G13G29G10G23G30G31
 -17295984.26248 -13405507.82847
                  20562239.2584                                   20562233.6724
                                                                        52.0004
        42.5004
  -7980113.92648  -6173589.20346
                  20845625.7584                                   20845622.2814
                                                                        53.0004
        41.2504
  -1615693.77047  -1239462.34044
                  24256145.7734                                   24256141.6764
                                                                        43.2504
        27.2504
 -19899417.91448 -15426735.76245
                  21593092.6024                                   21593088.5204
                                                                        49.5004
        35.2504
  -4058263.86746  -3118937.19944
                  23915725.9844                                   23915723.6484
                                                                        41.5004
        27.0004
  -2255344.18446  -1737551.16444
                  23830634.8914                                   23830631.5864
                                                                        41.0004
        26.5004
 -10841537.80548  -8393445.76245
                  21852538.8674                                   21852532.8284
                                                                        49.7504
        34.2504
  -7426994.14147  -5747768.94544
                  22938880.4844                                   22938877.2974
                                                                        43.7504
        29.0004
  -7883354.28546  -6100102.97344
                  23979582.7584                                   23979578.7114
                                                                        41.5004
        25.0004
 09 10  5  0  7 30.0000000  0  9G02G04G12G13G29G10G23G30G31
 -17412067.66448 -13495962.48847
                  20540149.2584                                   20540143.9654
                                                                        52.0004
        43.0004
  -8012242.62948  -6198624.51246
                  20839511.4844                                   20839508.3364
                                                                        53.0004
        41.0004
  -1602339.47347  -1229056.47344
                  24258686.8834                                   24258683.0864
                                                                        42.5004
        26.2504
 -20036613.98448 -15533641.75845
                  21566984.9844                                   21566980.9064
                                                                        49.5004
        35.5004
  -4236970.36346  -3258189.02344
                  23881719.1024                                   23881716.9534
                                                                        40.7504
        28.0004
  -2454356.07847  -1892625.27044
                  23792764.4774                                   23792760.9184
                                                                        42.5004
        27.5004
 -10893275.60948  -8433761.00045
                  21842693.1884                                   21842687.5824
                                                                        49.2504
        34.2504
  -7449263.04747  -5765121.44544
                  22934642.8444                                   22934639.8674
                                                                        44.0004
        27.7504
  -7913337.59047  -6123466.69944
                  23973877.3594                                   23973874.0704
                                                                        42.5004
        25.2504
 09 10  5  0  8  0.0000000  0  9G02G04G12G13G29G10G23G30G31
 -17527574.13348 -13585967.55147
                  20518169.4304                                   20518163.5474
                                                                        52.0004
        42.0004
  -8043828.03548  -6223236.58246
                  20833501.3914                                   20833497.9304
                                                                        53.2504
        41.2504
  -1588668.62147  -1218403.79744
                  24261288.5704                                   24261284.6174
                                                                        43.0004
        26.0004
 -20173178.92648 -15640056.09445
                  21540997.6564                                   21540993.2814
                                                                        48.7504
        34.7504
  -4415349.74647  -3397185.82844
                  23847775.8364                                   23847773.5864
                                                                        42.0004
        28.7504
  -2653164.14147  -2047540.59044
                  23754932.4384                                   23754929.5554
                                                                        42.0004
        28.7504
 -10944364.24248  -8473570.21945
                  21832971.3054                                   21832965.6134
                                                                        48.7504
        33.7504
  -7470931.48047  -5782006.02344
                  22930519.8984                                   22930516.5164
                                                                        44.0004
        28.2504
  -7942768.83646  -6146400.48444
                  23968276.8444                                   23968273.3954
                                                                        41.7504
        24.0004
 09 10  5  0  8 30.0000000  0  9G02G04G12G13G29G10G23G30G31
 -17642505.80948 -13675524.69947
                  20496298.5474                                   20496293.3444
                                                                        52.7504
        42.0004
  -8074874.12148  -6247428.26646
                  20827593.1414                                   20827590.0434
                                                                        53.0004
        41.0004
  -1574687.82047  -1207509.67244
                  24263948.9614                                   24263944.6884
                                                                        43.0004
        26.0004
 -20309113.65248 -15745979.29346
                  21515130.1644                                   21515125.8914
                                                                        50.0004
        36.0004
  -4593403.03146  -3535928.66444
                  23813892.3914                                   23813890.2664
                                                                        40.7504
        27.7504
  -2851769.39146  -2202297.88344
                  23717138.6954                                   23717135.1484
                                                                        41.0004
        27.0004
 -10994808.42248  -8512877.28145
                  21823372.0784                                   21823366.3874
                                                                        48.7504
        34.7504
  -7492004.79747  -5798426.77744
                  22926509.5784                                   22926506.2114
                                                                        44.5004
        29.2504
  -7971652.11747  -6168907.06643
                  23962780.4454                                   23962777.2304
                                                                        42.2504
        22.2504
 09 10  5  0  9  0.0000000  0  9G02G04G12G13G29G10G23G30G31
 -17756864.58248 -13764635.36747
                  20474536.8834                                   20474531.3524
                                                                        52.7504
        43.2504
  -8105385.21148  -6271203.04346
                  20821787.1954                                   20821783.6174
                                                                        52.2504
        41.0004
  -1560402.54747  -1196378.41044
                  24266667.4924                                   24266663.2034
                                                                        43.0004
        27.7504
 -20444418.94548 -15851412.03146
                  21489382.1644                                   21489378.7664
                                                                        50.0004
        36.2504
  -4771129.98046  -3674417.12144
                  23780072.0314                                   23780069.5864
                                                                        40.5004
        26.7504
  -3050172.45747  -2356897.66044
                  23679383.9304                                   23679380.3794
                                                                        42.0004
        25.7504
 -11044612.54348  -8551685.68445
                  21813894.6484                                   21813888.7624
                                                                        48.7504
        34.5004
  -7512488.77047  -5814388.38744
                  22922611.7344                                   22922608.5944
                                                                        45.5004
        28.7504
  -7999992.34046  -6190990.34043
                  23957388.2814                                   23957383.5594
                                                                        39.0004
        23.7504
 09 10  5  0  9 30.0000000  0  9G02G04G12G13G29G10G23G30G31
 -16295223.32448 -12625694.09447
                  20752677.7504                                   20752672.5554
                                                                        52.0004
        42.5004
  -6559939.82448  -5066959.83246
                  21115875.4304                                   21115872.6724
                                                                        50.7504
        41.0004
     29605.71947     42589.03544
                  24569236.5394                                   24569232.0314
                                                                        42.5004
        26.2504
 -19003666.65648 -14728747.92645
                  21763548.5864                                   21763544.6914
                                                                        50.0004
        35.5004
  -3373101.05946  -2585043.96944
                  24046108.3204                                   24046105.7974
                                                                        39.5004
        25.7504
  -1672942.56246  -1283731.48044
                  23941461.7424                                   23941458.9104
                                                                        40.5004
        25.2504
  -9518354.02348  -7362393.33245
                  22104332.2504                                   22104326.2664
                                                                        49.0004
        34.2504
  -5956963.25047  -4602290.69545
                  23218618.8134                                   23218615.8094
                                                                        44.0004
        30.0004
  -6452368.48046  -4985049.41444
                  24251890.8204                                   24251886.4104
                                                                        39.5004
        24.0004
 09 10  5  0 10  0.0000000  0  9G02G04G12G13G29G10G23G30G31
 -16408430.05948 -12713907.13747
                  20731135.3444                                   20731129.8244
                                                                        52.2504
        43.0004
  -6589383.25048  -5089902.69546
                  21110272.4144                                   21110269.5664
                                                                        52.0004
        41.0004
     44493.27746     54189.68044
                  24572068.7034                                   24572065.0904
                                                                        40.7504
        26.7504
 -19137705.82448 -14833194.06245
                  21738041.5394                                   21738037.9304
                                                                        50.0004
        35.7504
  -3550166.93046  -2723017.51244
                  24012413.9224                                   24012410.7424
                                                                        40.2504
        26.0004
  -1870932.50847  -1438009.29344
                  23903785.8834                                   23903782.5474
                                                                        43.0004
        25.7504
  -9566878.74648  -7400204.71545
                  22095097.8984                                   22095092.4024
                                                                        49.5004
        34.0004
  -5976272.94947  -4617337.09444
                  23214944.0004                                   23214940.8484
                                                                        45.0004
        28.5004
  -6479626.55147  -5006289.43444
                  24246703.9304                                   24246699.6294
                                                                        43.0004
        25.0004
 09 10  5  0 10 30.0000000  0  9G02G04G12G13G29G10G23G30G31
 -16521061.70348 -12801672.05947
                  20709702.4844                                   20709696.9304
                                                                        52.2504
        42.5004
  -6618297.50448  -5112433.26246
                  21104770.4384                                   21104767.1484
                                                                        50.5004
        41.5004
     59675.25846     66019.78944
                  24574957.9064                                   24574954.2194
                                                                        40.7504
        26.0004
 -19271111.58248 -14937146.51645
                  21712655.3134                                   21712651.6524
                                                                        50.2504
        35.7504
  -3726900.25046  -2860731.82444
                  23978782.3054                                   23978780.2774
                                                                        41.7504
        27.0004
  -2068715.11347  -1592125.51244
                  23866149.2274                                   23866146.1214
                                                                        43.2504
        28.2504
  -9614768.81248  -7437521.80545
                  22085984.9384                                   22085979.2154
                                                                        49.5004
        34.5004
  -5995002.20747  -4631931.39144
                  23211379.6724                                   23211377.1604
                                                                        45.2504
        28.5004
  -6506348.94946  -5027111.88744
                  24241618.8754                                   24241614.8594
                                                                        40.7504
        27.7504
 09 10  5  0 11  0.0000000  0  9G02G04G12G13G29G10G23G30G31
 -16633116.16848 -12888987.18047
                  20688378.8594                                   20688373.4224
                                                                        52.7504
        43.0004
  -6646683.23448  -5134551.95346
                  21099368.6334                                   21099365.4804
                                                                        52.2504
        41.0004
     75149.18846     78077.37544
                  24577903.3054                                   24577899.2034
                                                                        39.7504
        26.0004
 -19403881.15248 -15040603.23446
                  21687390.3754                                   21687386.1844
                                                                        49.2504
        36.2504
  -3903298.31247  -2998184.88744
                  23945215.3834                                   23945212.9104
                                                                        42.7504
        26.5004
  -2266287.38747  -1746077.89844
                  23828552.3204                                   23828548.7344
                                                                        43.2504
        27.0004
  -9662024.24648  -7474344.30945
                  22076992.5864                                   22076986.5204
                                                                        48.7504
        34.0004
  -6013152.67247  -4646074.68744
                  23207925.5164                                   23207922.6644
                                                                        44.5004
        27.5004
  -6532537.58247  -5047518.60944
                  24236635.8364                                   24236631.6724
                                                                        43.5004
        29.5004
 09 10  5  0 11 30.0000000  0  9G02G04G12G13G29G10G23G30G31
 -16744593.79748 -12975852.84447
                  20667165.3204                                   20667159.9534
                                                                        52.5004
        43.2504
  -6674543.35248  -5156261.10946
                  21094066.9534                                   21094064.0164
                                                                        50.0004
        41.5004
     90910.65646     90358.96544
                  24580901.9924                                   24580898.2894
                                                                        41.2504
        28.5004
 -19536014.62548 -15143564.31645
                  21662245.6564                                   21662241.9344
                                                                        50.7504
        35.7504
  -4079359.87547  -3135375.69544
                  23911711.5784                                   23911709.5234
                                                                        42.0004
        27.7504
  -2463648.64146  -1899865.74644
                  23790995.2734                                   23790992.4384
                                                                        41.5004
        28.7504
  -9708647.09848  -7510673.66845
                  22068120.6024                                   22068114.5474
                                                                        49.0004
        33.5004
  -6030727.97747  -4659769.84044
                  23204581.0004                                   23204578.2544
                                                                        43.7504
        26.5004
  -6558195.20746  -5067511.59844
                  24231752.7274                                   24231749.0354
                                                                        40.7504
        28.7504
 09 10  5  0 12  0.0000000  0  9G02G04G12G13G29G10G23G30G31
 -16855494.38348 -13062268.88347
                  20646061.6024                                   20646056.1914
                                                                        52.7504
        42.2504
  -6701880.55548  -5177562.86746
                  21088864.8524                                   21088861.7854
                                                                        53.0004
        41.0004
    106955.83647    102861.66844
                  24583955.4304                                   24583951.7344
                                                                        42.5004
        28.0004
 -19667511.11748 -15246029.03145
                  21637222.5394                                   21637219.0984
                                                                        50.0004
        35.5004
  -4255083.50446  -3272303.30944
                  23878272.4614                                   23878270.7734
                                                                        41.5004
        27.5004
  -2660797.89847  -2053488.44544
                  23753479.3134                                   23753476.7504
                                                                        42.7504
        28.5004
  -9754640.49648  -7546512.75045
                  22059368.5944                                   22059362.6174
                                                                        48.7504
        34.2504
  -6047731.71947  -4673019.55544
                  23201345.5314                                   23201342.6054
                                                                        43.2504
        26.2504
  -6583324.47747  -5087092.64844
                  24226970.8674                                   24226966.8284
                                                                        43.2504
        28.2504
 09 10  5  0 12 30.0000000  0  9G02G04G12G13G29G10G23G30G31
 -16965818.60248 -13148235.81247
                  20625067.8524                                   20625062.2234
                                                                        52.7504
        43.2504
  -6728697.41048  -5198459.12546
                  21083761.7274                                   21083758.5234
                                                                        52.7504
        41.0004
    123280.30147    115582.02344
                  24587062.2194                                   24587058.3014
                                                                        42.0004
        25.5004
 -19798370.22748 -15347997.09846
                  21612321.0784                                   21612317.0784
                                                                        50.5004
        36.0004
  -4430467.54746  -3408966.08244
                  23844897.9064                                   23844895.7504
                                                                        41.5004
        27.2504
  -2857733.94547  -2206945.06644
                  23716003.2034                                   23716000.3484
                                                                        42.5004
        28.7504
  -9800006.65248  -7581862.88345
                  22050735.1174                                   22050729.6724
                                                                        48.5004
        34.2504
  -6064168.03947  -4685827.07044
                  23198217.7504                                   23198214.7624
                                                                        44.0004
        26.5004
  -6607929.89146  -5106265.66044
                  24222288.4534                                   24222284.4384
                                                                        41.7504
        27.7504
 09 10  5  0 13  0.0000000  0  8G02G04G13G29G10G23G30G31
 -17075563.14548 -13233750.97347
                  20604183.8834                                   20604178.1644
                                                                        52.5004
        42.5004
  -6754993.48448  -5218949.58246
                  21078757.9844                                   21078754.7154
                                                                        51.2504
        40.7504
 -19928588.37948 -15449465.74646
                  21587541.3674                                   21587537.0234
                                                                        50.5004
        36.7504
  -4605508.20347  -3545361.45344
                  23811589.2194                                   23811586.4414
                                                                        43.7504
        28.2504
  -3054452.93746  -2360232.52044
                  23678568.9064                                   23678565.3054
                                                                        40.7504
        26.7504
  -9844745.67648  -7616724.45745
                  22042221.8134                                   22042215.9144
                                                                        48.7504
        34.2504
  -6080037.27347  -4698192.65644
                  23195197.8444                                   23195195.7504
                                                                        43.0004
        26.7504
  -6632010.60546  -5125029.78544
                  24217705.7424                                   24217702.4774
                                                                        38.5004
        25.0004
 09 10  5  0 13 30.0000000  0  8G02G04G13G29G10G23G30G31
 -17184727.97748 -13318814.50047
                  20583410.5394                                   20583405.0314
                                                                        52.5004
        42.5004
  -6780771.15248  -5239035.98446
                  21073852.3134                                   21073849.2464
                                                                        52.5004
        40.5004
 -20058164.64548 -15550434.16846
                  21562883.6334                                   21562879.6804
                                                                        51.0004
        36.5004
  -4780203.54747  -3681487.71144
                  23778345.9224                                   23778343.0634
                                                                        44.0004
        28.0004
  -3250953.93447  -2513350.13344
                  23641176.0164                                   23641172.2154
                                                                        42.5004
        25.7504
  -9888859.69148  -7651099.08645
                  22033827.4774                                   22033821.3754
                                                                        49.2504
        35.0004
  -6095343.52747  -4710119.64844
                  23192284.8834                                   23192282.6024
                                                                        42.0004
        26.5004
  -6655570.35946  -5143388.02344
                  24213222.7504                                   24213219.0354
                                                                        39.2504
        25.5004
 09 10  5  0 14  0.0000000  0  8G02G04G13G29G10G23G30G31
 -17293310.57848 -13403424.30947
                  20562748.1024                                   20562742.5044
                                                                        51.7504
        42.2504
  -6806031.16448  -5258719.10246
                  21069045.4844                                   21069042.3674
                                                                        52.2504
        41.0004
 -20187096.31248 -15650900.26646
                  21538348.8834                                   21538344.5124
                                                                        50.0004
        36.0004
  -4954550.05947  -3817342.14844
                  23745169.1094                                   23745166.1174
                                                                        44.5004
        26.7504
  -3447233.33246  -2666295.02744
                  23603825.0394                                   23603821.3324
                                                                        40.5004
        26.7504
  -9932348.64548  -7684986.53145
                  22025551.4144                                   22025545.7114
                                                                        49.2504
        33.7504
  -6110087.98447  -4721608.88744
                  23189479.4224                                   23189476.4304
                                                                        42.7504
        27.0004
  -6678609.63346  -5161340.72343
                  24208838.5864                                   24208834.5944
                                                                        41.0004
        22.7504
 09 10  5  0 14 30.0000000  0  8G02G04G13G29G10G23G30G31
 -17401308.22748 -13487578.30547
                  20542196.7114                                   20542190.9064
                                                                        52.7504
        42.7504
  -6830772.81248  -5277998.27046
                  21064337.4844                                   21064334.1884
                                                                        52.5004
        40.7504
 -20315379.94148 -15750861.41445
                  21513937.1954                                   21513932.9964
                                                                        50.7504
        35.5004
  -5128543.62547  -3952921.68044
                  23712058.9064                                   23712056.2344
                                                                        44.0004
        28.2504
  -3643287.02046  -2819064.12544
                  23566517.4924                                   23566513.6174
                                                                        41.5004
        27.5004
  -9975212.18448  -7718386.65245
                  22017394.7814                                   22017388.7464
                                                                        50.0004
        34.7504
  -6124271.23847  -4732660.81244
                  23186780.8204                                   23186778.0784
                                                                        43.2504
        27.0004
  -6701128.87946  -5178888.23843
                  24204552.6094                                   24204548.9694
                                                                        39.0004
        22.7504
 09 10  5  0 15  0.0000000  0  8G02G04G13G29G10G23G30G31
 -17508721.45748 -13571276.90247
                  20521756.6254                                   20521751.1604
                                                                        52.5004
        42.7504
  -6854999.62148  -5296876.41846
                  21059727.5864                                   21059724.1914
                                                                        53.0004
        40.5004
 -20443015.39148 -15850317.53946
                  21489648.7664                                   21489644.7234
                                                                        50.7504
        36.0004
  -5302182.81247  -4088225.00044
                  23679016.4224                                   23679013.9494
                                                                        44.0004
        27.5004
  -3839114.24647  -2971656.69544
                  23529252.4384                                   23529249.1844
                                                                        43.2504
        28.5004
 -10017452.85948  -7751301.32045
                  22009356.6804                                   22009350.6604
                                                                        49.7504
        34.5004
  -6137897.57447  -4743278.80144
                  23184187.8754                                   23184185.0004
                                                                        44.0004
        28.0004
  -6723131.61347  -5196033.20743
                  24200365.7664                                   24200361.9384
                                                                        42.0004
        23.5004
 09 10  5  0 15 30.0000000  0  9G02G04G05G13G29G10G23G30G31
 -17615555.93048 -13654524.52747
                  20501427.1094                                   20501421.3284
                                                                        52.0004
        42.2504
  -6878719.32048  -5315359.40246
                  21055214.0084                                   21055210.6174
                                                                        51.7504
        40.5004
   1326587.86757   1053113.42654
                  24296723.6564                                   24296720.0634
                                                                        44.5004
        28.5004
 -20570007.48048 -15949272.32045
                  21465483.0004                                   21465478.8134
                                                                        50.5004
        35.5004
  -5475471.92647  -4223255.48444
                  23646040.3054                                   23646038.3484
                                                                        43.5004
        27.0004
  -4034719.57447  -3124076.43444
                  23492030.5474                                   23492027.0314
                                                                        43.7504
        29.0004
 -10059079.19148  -7783737.37945
                  22001435.2974                                   22001429.8014
                                                                        50.0004
        34.0004
  -6150976.14547  -4753469.92244
                  23181699.1954                                   23181696.5394
                                                                        44.2504
        29.0004
  -6744626.74246  -5212782.75044
                  24196275.7114                                   24196271.4064
                                                                        40.0004
        24.0004
 09 10  5  0 16  0.0000000  0  9G02G04G05G13G29G10G23G30G31
 -17721816.49248 -13737324.98047
                  20481205.8984                                   20481199.8404
                                                                        52.5004
        42.7504
  -6901939.21148  -5333452.84046
                  21050795.0314                                   21050791.4884
                                                                        53.0004
        41.0004
   1130214.00047    900094.93044
                  24259354.4454                                   24259351.0594
                                                                        43.5004
        28.0004
 -20696360.68448 -16047729.30946
                  21441438.3984                                   21441434.5944
                                                                        50.5004
        36.5004
  -5648414.04347  -4358015.49644
                  23613131.3364                                   23613128.6954
                                                                        42.5004
        26.5004
  -4230106.30947  -3276325.85944
                  23454848.6564                                   23454846.1884
                                                                        43.0004
        28.5004
 -10100098.50048  -7815700.39845
                  21993629.8134                                   21993623.8404
                                                                        49.2504
        33.2504
  -6163515.22347  -4763240.55944
                  23179313.6334                                   23179310.5314
                                                                        43.0004
        28.5004
  -6765621.59847  -5229142.35544
                  24192281.1024                                   24192276.2194
                                                                        43.2504
        25.5004
 09 10  5  0 16 30.0000000  0  9G02G04G05G13G29G10G23G30G31
 -17827505.37148 -13819679.94547
                  20461094.2034                                   20461088.2544
                                                                        52.2504
        43.0004
  -6924664.39548  -5351160.77746
                  21046470.7894                                   21046467.4104
                                                                        53.2504
        40.7504
    933979.55547    747185.07444
                  24222012.3754                                   24222008.5944
                                                                        43.0004
        27.2504
 -20822076.81248 -16145689.93046
                  21417515.7664                                   21417511.3954
                                                                        50.7504
        36.5004
  -5821010.02347  -4492505.74244
                  23580286.4144                                   23580284.4304
                                                                        43.2504
        28.5004
  -4425275.90647  -3428405.96144
                  23417709.7274                                   23417706.9694
                                                                        43.7504
        29.2504
 -10140515.74248  -7847194.25845
                  21985938.1094                                   21985932.4384
                                                                        49.2504
        33.5004
  -6175521.43447  -4772596.06244
                  23177028.2584                                   23177025.8324
                                                                        43.2504
        28.5004
  -6786122.09047  -5245116.66844
                  24188379.0554                                   24188375.3404
                                                                        43.2504
        25.5004
 09 10  5  0 17  0.0000000  0  9G02G04G05G13G29G10G23G30G31
 -17932621.31648 -13901588.44547
                  20441091.0784                                   20441085.2894
                                                                        52.2504
        42.7504
  -6946895.86348  -5368483.97346
                  21042240.1414                                   21042236.6954
                                                                        52.5004
        40.7504
    737886.69146    594385.51644
                  24184697.1724                                   24184693.9844
                                                                        41.5004
        27.2504
 -20947154.19548 -16243152.98846
                  21393714.5634                                   21393710.2544
                                                                        50.7504
        36.2504
  -5993257.35247  -4626724.38744
                  23547509.8594                                   23547506.8874
                                                                        45.2504
        28.7504
  -4620225.64847  -3580314.81244
                  23380612.6024                                   23380608.8794
                                                                        44.0004
        27.7504
 -10180331.51248  -7878219.34445
                  21978361.5084                                   21978354.9384
                                                                        49.2504
        32.7504
  -6186997.09447  -4781538.14144
                  23174844.5004                                   23174841.8794
                                                                        43.2504
        27.7504
  -6806129.91047  -5260707.10544
                  24184572.0944                                   24184568.0474
                                                                        43.7504
        26.5004
 09 10  5  0 17 30.0000000  0  9G02G04G05G13G29G10G23G30G31
 -18037160.99248 -13983047.92247
                  20421197.7664                                   20421191.9574
                                                                        52.5004
        42.2504
  -6968633.32448  -5385422.26646
                  21038103.6804                                   21038100.4104
                                                                        53.5004
        41.0004
    541939.89146    441699.82444
                  24147409.2344                                   24147406.0784
                                                                        41.0004
        28.5004
 -21071588.84448 -16340115.12146
                  21370035.3284                                   21370031.1054
                                                                        50.5004
        36.2504
  -6165151.03947  -4760667.46144
                  23514799.4844                                   23514796.4104
                                                                        44.7504
        29.5004
  -4814951.12547  -3732048.93044
                  23343556.9774                                   23343553.3594
                                                                        44.5004
        28.0004
 -10219545.69548  -7908775.70745
                  21970899.5474                                   21970893.3054
                                                                        48.5004
        34.0004
  -6197942.31247  -4790066.81244
                  23172761.4774                                   23172758.6804
                                                                        42.5004
        26.2504
  -6825645.02747  -5275913.60544
                  24180858.3674                                   24180854.2934
                                                                        42.5004
        26.2504
 09 10  5  0 18  0.0000000  0  9G02G04G05G13G29G10G23G30G31
 -18141120.13748 -14064055.01247
                  20401415.3444                                   20401409.3324
                                                                        51.7504
        42.5004
  -6989874.89848  -5401974.15646
                  21034061.3914                                   21034058.5044
                                                                        52.0004
        40.2504
    346143.94946    289131.65244
                  24110150.8364                                   24110146.7704
                                                                        41.7504
        27.2504
 -21195375.78948 -16436572.55946
                  21346479.7344                                   21346475.6524
                                                                        50.7504
        36.0004
  -6336685.26647  -4894330.47344
                  23482157.1484                                   23482154.3674
                                                                        45.2504
        28.2504
  -5009447.16847  -3883604.29344
                  23306545.4304                                   23306541.2304
                                                                        44.5004
        27.0004
 -10258156.54348  -7938861.89845
                  21963551.5234                                   21963545.6294
                                                                        49.7504
        34.0004
  -6208357.02047  -4798182.18044
                  23170779.6724                                   23170776.3524
                                                                        43.0004
        25.7504
  -6844666.43746  -5290735.38744
                  24177238.7814                                   24177234.4344
                                                                        39.5004
        26.0004
 09 10  5  0 18 30.0000000  0  9G02G04G05G13G29G10G23G30G31
 -18244497.64848 -14144608.87947
                  20381742.8914                                   20381737.0904
                                                                        51.7504
        42.7504
  -7010621.72348  -5418140.53946
                  21030113.4614                                   21030110.4384
                                                                        53.0004
        40.2504
    150501.74647    136683.30545
                  24072921.8204                                   24072918.0864
                                                                        43.0004
        30.2504
 -21318512.98448 -16532523.69546
                  21323047.5394                                   21323043.4964
                                                                        50.5004
        36.7504
  -6507856.77047  -5027710.65644
                  23449584.4844                                   23449581.8874
                                                                        44.2504
        29.0004
  -5203710.52747  -4034978.29344
                  23269578.5944                                   23269574.4884
                                                                        43.7504
        26.7504
 -10296164.66848  -7968478.47745
                  21956318.6884                                   21956312.9574
                                                                        49.5004
        32.5004
  -6218242.91847  -4805885.47744
                  23168898.6724                                   23168895.1524
                                                                        43.5004
        25.7504
  -6863195.89846  -5305173.86743
                  24173712.8594                                   24173708.5554
                                                                        40.5004
        22.7504
 09 10  5  0 19  0.0000000  0  9G02G04G05G13G29G10G23G30G31
 -16771870.05948 -12997106.87147
                  20661974.6954                                   20661968.9414
                                                                        51.7504
        42.5004
  -5455455.86748  -4206322.99246
                  21326051.8594                                   21326048.7424
                                                                        52.0004
        40.0004
   1530440.82847   1211960.60244
                  24335514.8914                                   24335510.8094
                                                                        44.5004
        28.7504
 -19865576.14148 -15400365.10546
                  21599531.9304                                   21599528.2114
                                                                        50.7504
        36.2504
  -5103239.00047  -3933203.18744
                  23716873.5164                                   23716870.8134
                                                                        43.7504
        28.2504
  -3822314.18747  -2958565.53544
                  23532449.1644                                   23532446.0704
                                                                        43.0004
        28.0004
  -8758151.69948  -6770026.65645
                  22248993.0004                                   22248986.8554
                                                                        49.5004
        33.2504
  -4652183.92247  -3585579.74244
                  23466909.6644                                   23466906.2464
                                                                        43.5004
        25.5004
  -5305815.80546  -4091630.87943
                  24470071.1334                                   24470067.9144
                                                                        39.5004
        22.5004
 09 10  5  0 19 30.0000000  0  9G02G04G05G13G29G10G23G30G31
 -16874083.23848 -13076753.46947
                  20642524.2814                                   20642518.5554
                                                                        51.5004
        43.0004
  -5475220.16448  -4221723.72746
                  21322290.8914                                   21322287.8714
                                                                        53.2504
        40.7504
   1335109.48447   1059754.41044
                  24298344.3524                                   24298340.5824
                                                                        42.5004
        26.0004
 -19987411.96148 -15495302.07846
                  21576347.8834                                   21576343.1954
                                                                        50.5004
        36.7504
  -5273680.48447  -4066014.68744
                  23684439.5084                                   23684437.0944
                                                                        43.5004
        28.0004
  -4016109.02347  -3109574.48044
                  23495571.9304                                   23495568.1724
                                                                        43.2504
        29.5004
  -8794962.16048  -6798710.09445
                  22241987.7504                                   22241981.8524
                                                                        48.7504
        32.5004
  -4661023.12147  -3592467.35244
                  23465227.3364                                   23465224.4384
                                                                        43.7504
        27.0004
  -5323369.94547  -4105309.38744
                  24466731.5634                                   24466727.5664
                                                                        42.5004
        24.7504
 09 10  5  0 20  0.0000000  0  9G02G04G05G13G29G10G23G30G31
 -16975711.94148 -13155944.63747
                  20623184.8594                                   20623179.2544
                                                                        52.0004
        42.5004
  -5494494.48048  -4236742.71146
                  21318622.8984                                   21318620.1214
                                                                        52.5004
        40.2504
   1139937.61747    907672.52344
                  24261203.9774                                   24261201.0434
                                                                        42.2504
        28.5004
 -20108593.76648 -15589729.43446
                  21553287.2974                                   21553283.0554
                                                                        51.5004
        37.0004
  -5443752.19547  -4198538.03544
                  23652076.1334                                   23652074.0274
                                                                        43.5004
        29.2504
  -4209664.49647  -3260396.96144
                  23458738.8444                                   23458736.4844
                                                                        42.7504
        29.2504
  -8831175.00448  -6826928.00445
                  22235097.0314                                   22235090.9264
                                                                        49.5004
        33.5004
  -4669341.84847  -3598949.43044
                  23463644.5314                                   23463641.2624
                                                                        43.0004
        27.0004
  -5340438.65247  -4118609.62144
                  24463484.0004                                   24463479.5004
                                                                        42.5004
        25.2504
 09 10  5  0 20 30.0000000  0  9G02G04G05G13G29G10G23G30G31
 -17076757.29348 -13234681.31247
                  20603956.5784                                   20603951.0984
                                                                        52.2504
        42.5004
  -5513282.55548  -4251382.79346
                  21315048.2034                                   21315044.9654
                                                                        51.5004
        40.7504
    944925.29347    755714.98444
                  24224094.7034                                   24224091.5164
                                                                        42.0004
        28.0004
 -20229122.23048 -15683647.72346
                  21530351.5944                                   21530347.4844
                                                                        51.0004
        36.2504
  -5613453.53547  -4330772.75045
                  23619783.3594                                   23619780.7974
                                                                        43.5004
        30.7504
  -4402980.73847  -3411032.97744
                  23421952.2734                                   23421949.3634
                                                                        44.5004
        29.7504
  -8866793.71948  -6854682.84845
                  22228319.0944                                   22228313.3364
                                                                        50.0004
        33.5004
  -4677145.03547  -3605029.82444
                  23462159.5004                                   23462156.6914
                                                                        43.5004
        27.2504
  -5357025.91447  -4131534.68444
                  24460327.1484                                   24460323.2624
                                                                        42.7504
        25.7504
 09 10  5  0 21  0.0000000  0  9G02G04G05G13G29G10G23G30G31
 -17177219.43748 -13312963.44947
                  20584839.1644                                   20584833.1724
                                                                        51.5004
        43.5004
  -5531587.03548  -4265646.00046
                  21311564.6884                                   21311561.6954
                                                                        50.7504
        39.7504
    750073.27046    603882.34444
                  24187015.5784                                   24187012.3914
                                                                        41.5004
        28.2504
 -20348997.28548 -15777056.86746
                  21507540.0944                                   21507535.6134
                                                                        51.2504
        36.5004
  -5782782.86747  -4462717.52345
                  23587560.4224                                   23587558.3594
                                                                        43.7504
        30.0004
  -4596056.76647  -3561481.81244
                  23385211.0784                                   23385207.8244
                                                                        42.2504
        29.2504
  -8901821.62148  -6881977.48445
                  22221653.4534                                   22221647.4924
                                                                        49.5004
        33.7504
  -4684436.67247  -3610711.60544
                  23460771.8754                                   23460769.1954
                                                                        42.0004
        27.2504
  -5373135.84046  -4144087.81644
                  24457261.6024                                   24457257.0124
                                                                        39.5004
        25.7504
 09 10  5  0 21 30.0000000  0  9G02G04G05G13G29G10G23G30G31
 -17277097.17648 -13390790.32447
                  20565833.0704                                   20565827.2854
                                                                        52.0004
        43.2504
  -5549409.06648  -4279533.27746
                  21308172.9844                                   21308170.0204
                                                                        52.2504
        40.0004
    555383.96946    452176.43444
                  24149967.5944                                   24149964.2304
                                                                        41.5004
        29.7504
 -20468216.97748 -15869955.40246
                  21484853.2034                                   21484849.4924
                                                                        50.5004
        37.2504
  -5951737.66047  -4594370.47745
                  23555409.2504                                   23555407.1914
                                                                        44.0004
        30.2504
  -4788889.78947  -3711741.31244
                  23348516.4304                                   23348512.6134
                                                                        42.5004
        29.5004
  -8936259.35548  -6908812.23845
                  22215100.2274                                   22215094.8914
                                                                        49.2504
        33.0004
  -4691219.05147  -3615996.51244
                  23459481.8204                                   23459478.9494
                                                                        43.0004
        27.5004
  -5388769.81646  -4156270.13743
                  24454286.1804                                   24454281.9654
                                                                        41.5004
        23.2504
 09 10  5  0 22  0.0000000  0  9G02G04G05G13G29G10G23G30G31
 -17376389.32048 -13468160.79747
                  20546938.4224                                   20546932.8714
                                                                        52.0004
        42.2504
  -5566750.29348  -4293045.91446
                  21304873.3364                                   21304869.9184
                                                                        51.5004
        39.7504
    360859.49247    300598.98445
                  24112950.5554                                   24112947.3874
                                                                        42.2504
        31.0004
 -20586779.84448 -15962342.07846
                  21462291.4454                                   21462287.1334
                                                                        50.7504
        37.5004
  -6120314.99647  -4725729.40644
                  23523329.7504                                   23523327.1884
                                                                        43.5004
        29.2504
  -4981477.75047  -3861809.93044
                  23311867.9614                                   23311864.2814
                                                                        42.5004
        28.5004
  -8970108.07448  -6935187.92245
                  22208659.2894                                   22208653.1604
                                                                        49.5004
        32.5004
  -4697494.84846  -3620886.70744
                  23458287.4774                                   23458284.7734
                                                                        41.7504
        28.2504
  -5403929.53946  -4168082.87143
                  24451401.1564                                   24451397.1954
                                                                        39.7504
        22.5004
 09 10  5  0 22 30.0000000  0  9G02G04G05G13G29G10G23G30G31
 -17475097.23448 -13545076.06647
                  20528155.2814                                   20528148.9304
                                                                        53.0004
        43.0004
  -5583614.08248  -4306186.48846
                  21301664.1564                                   21301660.7854
                                                                        52.0004
        40.2504
    166499.58646    149149.68844
                  24075964.7194                                   24075961.2974
                                                                        41.5004
        27.5004
 -20704686.28548 -16054217.17646
                  21439854.6884                                   21439850.7304
                                                                        51.0004
        36.7504
  -6288514.27047  -4856793.63344
                  23491323.1024                                   23491320.0784
                                                                        43.5004
        29.7504
  -5173820.22347  -4011687.39844
                  23275266.9694                                   23275262.9264
                                                                        45.0004
        29.5004
  -9003372.38348  -6961108.40245
                  22202329.3204                                   22202323.1644
                                                                        49.2504
        33.7504
  -4703268.80547  -3625385.87144
                  23457188.3674                                   23457185.3874
                                                                        43.2504
        27.7504
  -5418619.57846  -4179529.64844
                  24448605.5864                                   24448601.8594
                                                                        40.7504
        24.5004
 09 10  5  0 23  0.0000000  0  9G02G04G05G13G29G10G23G30G31
 -17573218.46548 -13621534.16447
                  20509483.4384                                   20509477.5944
                                                                        52.7504
        43.2504
  -5600000.81648  -4318955.34446
                  21298545.9144                                   21298542.5234
                                                                        52.2504
        40.0004
    -27691.88747     -2168.30144
                  24039011.4614                                   24039007.2584
                                                                        43.0004
        26.7504
 -20821933.89548 -16145578.97346
                  21417543.3524                                   21417539.3954
                                                                        51.0004
        37.0004
  -6456331.49247  -4987560.18444
                  23459388.2274                                   23459385.7304
                                                                        42.7504
        29.5004
  -5365912.82047  -4161369.98044
                  23238712.3364                                   23238709.2854
                                                                        44.5004
        29.5004
  -9036051.77748  -6986573.00445
                  22196110.7424                                   22196104.7274
                                                                        49.5004
        33.2504
  -4708542.27047  -3629494.99644
                  23456184.4844                                   23456181.7504
                                                                        42.7504
        26.0004
  -5432840.66846  -4190610.98843
                  24445899.5474                                   24445895.5084
                                                                        41.5004
        23.0004
 09 10  5  0 23 30.0000000  0  9G02G04G05G13G29G10G23G30G31
 -17670752.12148 -13697534.32447
                  20490923.2424                                   20490917.6844
                                                                        52.0004
        43.0004
  -5615912.22348  -4331353.77346
                  21295517.8054                                   21295514.7074
                                                                        51.2504
        40.7504
   -221713.54747   -153354.15244
                  24002090.7504                                   24002087.0314
                                                                        43.0004
        28.5004
 -20938521.60248 -16236426.65646
                  21395357.2274                                   21395353.4964
                                                                        51.0004
        37.2504
  -6623764.44147  -5118027.35944
                  23427526.8364                                   23427524.2074
                                                                        43.5004
        29.5004
  -5557754.22347  -4310856.84445
                  23202206.4144                                   23202203.4184
                                                                        45.0004
        30.5004
  -9068148.05148  -7011583.20345
                  22190003.4774                                   22189997.5824
                                                                        49.2504
        33.0004
  -4713317.95747  -3633216.25044
                  23455276.2504                                   23455272.4024
                                                                        43.0004
        26.0004
  -5446595.40747  -4201328.95344
                  24443282.5234                                   24443278.2464
                                                                        43.0004
        25.2504
 09 10  5  0 24  0.0000000  0  9G02G04G05G13G29G10G23G30G31
 -17767698.69148 -13773077.06647
                  20472474.6484                                   20472468.7934
                                                                        52.2504
        42.7504
  -5631350.74648  -4343383.75446
                  21292580.2034                                   21292576.6214
                                                                        51.2504
        40.0004
   -415563.46547   -304405.99644
                  23965201.8054                                   23965198.7774
                                                                        43.2504
        29.5004
 -21054448.41048 -16326759.25446
                  21373297.5004                                   21373292.9264
                                                                        50.5004
        37.2504
  -6790811.28947  -5248193.73045
                  23395738.6094                                   23395735.9494
                                                                        42.5004
        30.2504
  -5749342.94147  -4460146.88745
                  23165748.3204                                   23165745.3984
                                                                        44.0004
        30.0004
  -9099663.77348  -7036140.93745
                  22184006.1024                                   22183999.7974
                                                                        48.7504
        33.0004
  -4717600.12546  -3636552.97344
                  23454461.1564                                   23454457.9104
                                                                        41.0004
        26.7504
  -5459886.84447  -4211685.91044
                  24440752.9614                                   24440748.8554
                                                                        43.0004
        24.7504
 09 10  5  0 24 30.0000000  0  9G02G04G05G13G29G10G23G30G31
 -17864059.11348 -13848163.08247
                  20454137.6724                                   20454132.1454
                                                                        51.2504
        43.5004
  -5646320.14148  -4355048.29346
                  21289731.3984                                   21289728.2304
                                                                        52.0004
        40.0004
   -609242.00047   -455324.43044
                  23928346.7504                                   23928342.9224
                                                                        42.7504
        29.7504
 -21169715.23448 -16416577.51246
                  21351362.9064                                   21351358.6454
                                                                        51.7504
        37.0004
  -6957471.65647  -5378059.00045
                  23364024.2974                                   23364021.7234
                                                                        43.5004
        30.2504
  -5940678.19147  -4609239.35945
                  23129338.7114                                   23129335.8364
                                                                        44.7504
        31.0004
  -9130602.62548  -7060249.09845
                  22178118.5704                                   22178112.7504
                                                                        49.2504
        32.7504
  -4721393.34846  -3639508.80544
                  23453739.0474                                   23453736.6414
                                                                        41.5004
        26.0004
  -5472719.03547  -4221685.03944
                  24438311.3754                                   24438306.9534
                                                                        43.0004
        27.0004
 09 10  5  0 25  0.0000000  0  9G02G04G05G13G29G10G23G30G31
 -17959832.88748 -13922792.10247
                  20435912.6954                                   20435907.1844
                                                                        52.0004
        43.5004
  -5660822.09848  -4366348.62146
                  21286971.9144                                   21286968.4964
                                                                        51.5004
        39.7504
   -802746.89847   -606107.57044
                  23891523.8594                                   23891520.5514
                                                                        43.0004
        29.7504
 -21284320.93448 -16505880.52746
                  21329553.5474                                   21329549.8554
                                                                        51.2504
        36.5004
  -7123742.60947  -5507620.74645
                  23332383.8984                                   23332381.1844
                                                                        43.0004
        30.2504
  -6131758.12947  -4758132.89144
                  23092977.4454                                   23092974.1134
                                                                        45.0004
        29.5004
  -9160966.46948  -7083909.19945
                  22172340.1884                                   22172334.7194
                                                                        49.2504
        33.0004
  -4724700.53946  -3642085.88744
                  23453109.6334                                   23453106.6604
                                                                        41.2504
        25.5004
  -5485094.32847  -4231328.12544
                  24435956.4304                                   24435952.3164
                                                                        43.5004
        25.7504
 09 10  5  0 25 30.0000000  0  9G02G04G05G13G29G10G23G30G31
 -18055019.62148 -13996963.70747
                  20417799.8674                                   20417793.6764
                                                                        51.7504
        42.7504
  -5674858.43448  -4377286.02346
                  21284300.8754                                   21284297.3834
                                                                        51.7504
        39.5004
   -996077.07447   -756754.43045
                  23854734.1954                                   23854730.9064
                                                                        43.7504
        30.5004
 -21398264.72348 -16594667.61346
                  21307870.6644                                   21307866.9384
                                                                        51.5004
        37.0004
  -7289622.48847  -5636877.75445
                  23300818.4774                                   23300815.4454
                                                                        43.7504
        30.2504
  -6322580.93447  -4906825.99645
                  23056665.0634                                   23056661.9064
                                                                        45.0004
        30.0004
  -9190757.66848  -7107123.15245
                  22166671.3284                                   22166665.0354
                                                                        49.5004
        33.0004
  -4727524.74647  -3644286.50444
                  23452572.5004                                   23452569.1884
                                                                        42.0004
        25.5004
  -5497015.46547  -4240617.29343
                  24433687.9304                                   24433683.7274
                                                                        42.5004
        23.5004
 09 10  5  0 26  0.0000000  0  9G02G04G05G13G29G10G23G30G31
 -18149619.78148 -14070678.19547
                  20399797.6564                                   20399792.0984
                                                                        52.5004
        43.5004
  -5688432.61348  -4387863.28546
                  21281717.4534                                   21281714.4104
                                                                        51.5004
        39.5004
  -1189232.23447   -907265.01645
                  23817978.4694                                   23817974.6604
                                                                        45.0004
        30.0004
 -21511547.48048 -16682939.89146
                  21286313.8914                                   21286309.8594
                                                                        50.7504
        36.7504
  -7455110.17647  -5765829.10545
                  23269327.2734                                   23269324.0394
                                                                        43.7504
        30.2504
  -6513146.09047  -5055318.40245
                  23020401.7504                                   23020398.4224
                                                                        44.7504
        31.0004
  -9219979.93048  -7129893.82845
                  22161110.8754                                   22161104.5124
                                                                        49.0004
        33.0004
  -4729870.80547  -3646114.59444
                  23452125.5164                                   23452122.6564
                                                                        42.0004
        26.7504
  -5508486.39546  -4249555.63743
                  24431503.6254                                   24431500.5044
                                                                        40.7504
        22.0004
 09 10  5  0 26 30.0000000  0  9G02G04G05G13G29G10G23G30G31
 -18243633.86348 -14143936.06647
                  20381907.6174                                   20381902.1644
                                                                        52.5004
        43.5004
  -5701546.93448  -4398082.14846
                  21279222.2274                                   21279218.7854
                                                                        51.2504
        40.2504
  -1382210.39547  -1057637.56245
                  23781255.4694                                   23781252.0864
                                                                        44.2504
        30.2504
 -21624168.88348 -16770697.02046
                  21264882.8054                                   21264879.1764
                                                                        51.5004
        36.7504
  -7620203.98047  -5894473.62144
                  23237910.1414                                   23237907.6844
                                                                        43.5004
        29.2504
  -6703451.31647  -5203608.12945
                  22984187.8524                                   22984184.8634
                                                                        45.0004
        31.5004
  -9248635.27348  -7152222.69145
                  22155657.5554                                   22155652.0084
                                                                        49.0004
        33.2504
  -4731742.07846  -3647572.69144
                  23451769.9774                                   23451767.1954
                                                                        41.7504
        25.5004
  -5519510.19146  -4258145.59843
                  24429407.4534                                   24429402.4384
                                                                        40.5004
        21.5004
 09 10  5  0 27  0.0000000  0  9G02G04G05G13G29G10G23G30G31
 -18337059.93748 -14216735.46547
                  20364129.0944                                   20364123.2734
                                                                        51.7504
        42.5004
  -5714203.12948  -4407944.10246
                  21276813.8524                                   21276810.4924
                                                                        51.0004
        40.2504
  -1575009.37947  -1207870.52745
                  23744566.3984                                   23744563.5124
                                                                        43.7504
        30.7504
 -21736126.78948 -16857937.08646
                  21243577.6954                                   21243573.9884
                                                                        50.5004
        36.5004
  -7784900.85247  -6022808.72344
                  23206569.8364                                   23206566.3444
                                                                        43.7504
        29.5004
  -6893494.81647  -5351693.98445
                  22948023.5314                                   22948020.3204
                                                                        43.7504
        31.2504
  -9276725.19948  -7174110.92645
                  22150312.0474                                   22150306.4804
                                                                        48.7504
        33.7504
  -4733141.26247  -3648662.95744
                  23451503.2974                                   23451501.0354
                                                                        43.0004
        26.5004
  -5530089.16846  -4266388.92243
                  24427394.3984                                   24427389.1804
                                                                        38.7504
        22.5004
 09 10  5  0 27 30.0000000  0  9G02G04G05G13G29G10G23G30G31
 -18429898.98848 -14289077.51647
                  20346462.5474                                   20346456.6914
                                                                        52.0004
        43.2504
  -5726403.51648  -4417450.93746
                  21274492.2734                                   21274489.0664
                                                                        51.2504
        39.5004
  -1767627.88347  -1357962.75845
                  23707913.5234                                   23707909.5234
                                                                        43.0004
        30.2504
 -21847421.02048 -16944659.82846
                  21222399.5474                                   21222395.3914
                                                                        51.0004
        36.5004
  -7949199.31247  -6150833.41045
                  23175304.5314                                   23175302.1254
                                                                        42.7504
        30.0004
  -7083274.48847  -5499574.26645
                  22911910.1884                                   22911906.8874
                                                                        44.2504
        30.7504
  -9304252.35548  -7195560.63745
                  22145074.3054                                   22145068.3594
                                                                        48.2504
        32.7504
  -4734072.25847  -3649388.53944
                  23451326.7584                                   23451324.3324
                                                                        43.0004
        27.0004
  -5540226.12146  -4274287.79744
                  24425465.4064                                   24425460.5944
                                                                        41.2504
        24.0004
 09 10  5  0 28  0.0000000  0  9G02G04G05G13G29G10G23G30G31
 -18522149.65648 -14360961.20747
                  20328907.5394                                   20328902.0784
                                                                        52.0004
        43.0004
  -5738149.23448  -4426603.46546
                  21272257.0394                                   21272253.9964
                                                                        51.0004
        39.7504
  -1960063.69947  -1507912.78544
                  23671293.4384                                   23671289.6884
                                                                        42.7504
        29.2504
 -21958049.92648 -17030864.14846
                  21201347.2664                                   21201343.2704
                                                                        50.2504
        36.7504
  -8113096.35947  -6278545.37144
                  23144116.0784                                   23144112.8954
                                                                        43.5004
        29.0004
  -7272787.81247  -5647246.97745
                  22875846.3674                                   22875843.5944
                                                                        43.5004
        30.5004
  -9331218.06248  -7216572.85945
                  22139942.7734                                   22139936.7974
                                                                        49.2504
        33.0004
  -4734536.36747  -3649750.17644
                  23451238.4694                                   23451235.6054
                                                                        43.2504
        26.5004
  -5549922.52346  -4281843.45343
                  24423619.5314                                   24423615.4654
                                                                        37.7504
        22.7504
 09 10  5  0 28 30.0000000  0  9G02G04G05G13G29G10G23G30G31
 -18613812.85948 -14432387.19947
                  20311464.8134                                   20311459.3284
                                                                        52.2504
        43.5004
  -5749443.38348  -4435404.14546
                  21270107.8134                                   21270104.7664
                                                                        50.7504
        40.0004
  -2152316.46547  -1657720.25844
                  23634708.6024                                   23634705.0004
                                                                        42.5004
        29.2504
 -22068014.45348 -17116550.80946
                  21180422.1644                                   21180417.7114
                                                                        51.2504
        36.2504
  -8276590.73447  -6405943.56645
                  23113004.1254                                   23113000.7584
                                                                        44.5004
        30.5004
  -7462034.45347  -5794711.86745
                  22839834.3284                                   22839831.1644
                                                                        44.5004
        30.7504
  -9357625.93748  -7237150.44145
                  22134917.5394                                   22134911.8984
                                                                        48.7504
        32.5004
  -4734538.83247  -3649752.09844
                  23451237.8754                                   23451234.8984
                                                                        43.7504
        26.0004
  -5559182.68046  -4289059.15644
                  24421857.6484                                   24421853.4064
                                                                        40.5004
        24.5004
 09 10  5  0 29  0.0000000  0  9G02G04G05G13G29G10G23G30G31
 -17129465.28548 -13275752.52747
                  20593926.5394                                   20593921.0124
                                                                        52.7504
        43.5004
  -4184868.71948  -3216255.14846
                  21567836.6254                                   21567833.2544
                                                                        50.7504
        39.0004
   -768958.69947   -579779.21545
                  23897953.5634                                   23897950.1174
                                                                        43.5004
        31.0004
 -20601890.60248 -15974116.68746
                  21459416.1334                                   21459412.0044
                                                                        51.7504
        36.7504
  -6864255.91447  -5305422.85945
                  23381762.5164                                   23381759.6844
                                                                        44.5004
        31.7504
  -6075586.67247  -4714362.91445
                  23103666.3524                                   23103663.5984
                                                                        44.2504
        31.2504
  -7808057.99248  -6029694.94945
                  22429790.4144                                   22429784.5744
                                                                        49.0004
        32.5004
  -3158664.16447  -2421797.92244
                  23751117.6254                                   23751113.4574
                                                                        43.0004
        26.0004
  -3992589.94146  -3068337.52043
                  24719970.1174                                   24719966.1024
                                                                        38.0004
        23.7504
 09 10  5  0 29 30.0000000  0  9G02G04G05G13G29G10G23G30G31
 -17219952.90248 -13346262.28947
                  20576707.2034                                   20576701.7814
                                                                        52.7504
        43.0004
  -4195267.01248  -3224357.78146
                  21565857.7114                                   21565854.9264
                                                                        50.5004
        39.2504
   -960840.78147   -729297.81645
                  23861439.8134                                   23861436.6094
                                                                        44.5004
        31.2504
 -20710524.63348 -16058766.72746
                  21438743.8834                                   21438739.9344
                                                                        51.2504
        37.0004
  -7026940.08647  -5432189.68745
                  23350804.5474                                   23350801.6294
                                                                        45.5004
        30.5004
  -6264294.35947  -4861407.85945
                  23067756.5474                                   23067753.5234
                                                                        45.5004
        32.0004
  -7833357.09448  -6049408.52345
                  22424976.0944                                   22424970.0554
                                                                        48.5004
        32.2504
  -3157754.51247  -2421089.18743
                  23751290.3524                                   23751286.6294
                                                                        42.2504
        22.5004
  -4000986.71146  -3074880.44944
                  24718372.4144                                   24718367.9774
                                                                        39.0004
        24.5004
 09 10  5  0 30  0.0000000  0 10G02G04G05G13G29G10G23G30G31G25
 -17309855.14148 -13416316.12147
                  20559599.8754                                   20559594.0124
                                                                        52.7504
        43.0004
  -4205222.81248  -3232115.52346
                  21563963.5084                                   21563960.2734
                                                                        50.5004
        39.2504
  -1152537.37947   -878672.03545
                  23824960.6564                                   23824957.8484
                                                                        43.7504
        30.7504
 -20818494.69548 -16142899.26246
                  21418198.1724                                   21418193.6214
                                                                        51.5004
        37.2504
  -7189217.99647  -5558639.96145
                  23319924.2814                                   23319921.2734
                                                                        43.5004
        30.5004
  -6452732.22347  -5008242.57445
                  23031897.8204                                   23031894.7114
                                                                        45.2504
        30.5004
  -7858107.29348  -6068694.30945
                  22420266.2814                                   22420259.7234
                                                                        48.0004
        31.7504
  -3156395.87547  -2420030.60944
                  23751548.2504                                   23751545.5474
                                                                        42.0004
        24.5004
  -4008958.22746  -3081092.01644
                  24716855.7894                                   24716851.4734
                                                                        41.2504
        25.7504
   4509642.66056   3531795.53553
                  24317205.7424                                   24317203.0084
                                                                        40.5004
        23.2504
 09 10  5  0 30 30.0000000  0 10G02G04G05G13G29G10G23G30G31G25
 -17399171.72348 -13485913.40247
                  20542603.3524                                   20542597.5084
                                                                        51.7504
        43.5004
  -4214738.99248  -3239530.72346
                  21562152.4924                                   21562149.2934
                                                                        50.0004
        39.2504
  -1344046.72747  -1027900.10545
                  23788518.1564                                   23788514.9184
                                                                        43.7504
        30.7504
 -20925800.60548 -16226514.23446
                  21397778.3754                                   21397773.9964
                                                                        51.5004
        36.7504
  -7351088.32847  -5684772.65245
                  23289121.3364                                   23289118.9064
                                                                        42.7504
        31.2504
  -6640898.85947  -5154865.91845
                  22996090.9694                                   22996087.6994
                                                                        45.0004
        30.7504
  -7882311.87548  -6087554.93745
                  22415660.5944                                   22415654.3284
                                                                        48.7504
        32.7504
  -3154591.94147  -2418624.97744
                  23751891.5164                                   23751888.6414
                                                                        42.5004
        25.7504
  -4016507.96546  -3086974.92644
                  24715419.4694                                   24715414.9344
                                                                        40.5004
        26.7504
   4338928.11346   3398771.21143
                  24284719.9384                                   24284717.2234
                                                                        40.0004
        21.7504
 09 10  5  0 31  0.0000000  0  9G02G04G05G13G29G10G23G30G25
 -17487907.37148 -13555058.04747
                  20525717.2814                                   20525711.7114
                                                                        52.0004
        42.7504
  -4223822.00048  -3246608.43446
                  21560423.8834                                   21560421.0314
                                                                        51.2504
        39.0004
  -1535372.28547  -1176985.02345
                  23752109.6564                                   23752106.1294
                                                                        45.0004
        30.2504
 -21032446.66448 -16309615.07046
                  21377484.3594                                   21377479.9964
                                                                        51.2504
        37.0004
  -7512553.37947  -5810589.53945
                  23258395.3204                                   23258392.9574
                                                                        44.5004
        31.0004
  -6828796.76647  -5301279.87945
                  22960335.5554                                   22960331.8284
                                                                        44.7504
        31.7504
  -7905977.55948  -6105995.74245
                  22411156.9774                                   22411151.0744
                                                                        49.0004
        32.2504
  -3152350.66847  -2416878.53144
                  23752318.4224                                   23752314.8794
                                                                        42.7504
        25.0004
   4168503.56346   3265972.81643
                  24252289.3054                                   24252286.1414
                                                                        39.0004
        20.2504
 09 10  5  0 31 30.0000000  0  9G02G04G05G13G29G10G23G30G25
 -17576057.57848 -13623746.41847
                  20508942.7114                                   20508937.6094
                                                                        52.0004
        43.5004
  -4232470.03948  -3253347.16046
                  21558778.4774                                   21558775.3204
                                                                        50.0004
        39.0004
  -1726508.46547  -1325922.30145
                  23715738.1174                                   23715734.6454
                                                                        42.7504
        30.0004
 -21138428.32048 -16392198.19546
                  21357316.6564                                   21357312.2034
                                                                        51.2504
        37.5004
  -7673607.12147  -5936085.93745
                  23227748.1884                                   23227745.1174
                                                                        43.7504
        31.5004
  -7016420.23847  -5447479.97745
                  22924632.1724                                   22924628.8914
                                                                        45.5004
        32.5004
  -7929102.85948  -6124015.46145
                  22406756.1884                                   22406750.6524
                                                                        48.5004
        33.0004
  -3149671.40647  -2414790.82044
                  23752829.0004                                   23752825.3244
                                                                        44.5004
        26.2504
   3998375.55546   3133405.59843
                  24219915.4224                                   24219911.8054
                                                                        40.0004
        19.7504
 09 10  5  0 32  0.0000000  0  9G02G04G05G13G29G10G23G30G25
 -17663618.07448 -13691975.26247
                  20492280.7344                                   20492275.0044
                                                                        52.2504
        43.7504
  -4240680.94948  -3259745.33646
                  21557216.0004                                   21557212.7504
                                                                        50.5004
        39.0004
  -1917448.82447  -1474706.95345
                  23679403.4534                                   23679400.3834
                                                                        44.5004
        30.2504
 -21243740.46148 -16474259.56246
                  21337276.2114                                   21337272.0434
                                                                        50.7504
        37.2504
  -7834243.03147  -6061256.67645
                  23197180.1024                                   23197176.7074
                                                                        43.7504
        31.0004
  -7203762.90247  -5593461.22345
                  22888981.7584                                   22888978.5634
                                                                        45.7504
        32.7504
  -7951685.12548  -6141611.96145
                  22402459.0314                                   22402453.1604
                                                                        48.2504
        32.7504
  -3146553.33247  -2412361.26644
                  23753422.0234                                   23753419.0124
                                                                        44.0004
        25.5004
   3828551.13747   3001074.88743
                  24187599.3594                                   24187595.2704
                                                                        42.5004
        23.0004
 09 10  5  0 32 30.0000000  0  9G02G04G05G13G29G10G23G30G25
 -17750581.40248 -13759738.78947
                  20475731.9064                                   20475726.3714
                                                                        52.5004
        43.7504
  -4248449.48448  -3265798.71146
                  21555737.8754                                   21555734.1884
                                                                        50.7504
        38.7504
  -2108184.62547  -1623332.23845
                  23643107.7274                                   23643104.0744
                                                                        44.5004
        31.0004
 -21348375.79348 -16555793.57446
                  21317364.8754                                   21317360.8554
                                                                        51.0004
        37.5004
  -7994451.76647  -6186094.58645
                  23166693.1884                                   23166689.9844
                                                                        43.5004
        31.0004
  -7390815.66847  -5739216.56245
                  22853386.9844                                   22853383.3094
                                                                        45.0004
        30.7504
  -7973719.94148  -6158781.86745
                  22398266.0554                                   22398259.6644
                                                                        48.5004
        32.2504
  -3142992.78947  -2409586.94544
                  23754099.4224                                   23754096.9064
                                                                        43.7504
        26.0004
   3659039.69947   2868988.04343
                  24155341.8834                                   24155338.6414
                                                                        43.0004
        22.7504
 09 10  5  0 33  0.0000000  0  9G02G04G05G13G29G10G23G30G25
 -17836946.20348 -13827035.92647
                  20459297.3054                                   20459291.6254
                                                                        52.5004
        43.2504
  -4255776.62948  -3271508.14146
                  21554343.1804                                   21554339.8204
                                                                        51.0004
        39.2504
  -2298713.18047  -1771796.00445
                  23606851.1414                                   23606847.4774
                                                                        43.5004
        30.7504
 -21452332.48848 -16636798.76646
                  21297582.6954                                   21297578.4024
                                                                        50.5004
        37.7504
  -8154230.20347  -6310597.24645
                  23136288.5554                                   23136285.1764
                                                                        44.5004
        31.2504
  -7577575.54347  -5884743.72745
                  22817847.2504                                   22817844.0864
                                                                        45.2504
        31.5004
  -7995208.18748  -6175525.89545
                  22394177.0634                                   22394170.2774
                                                                        49.0004
        32.2504
  -3138991.67647  -2406469.34844
                  23754861.0554                                   23754858.2544
                                                                        44.2504
        25.0004
   3489844.87547   2737147.92244
                  24123145.1564                                   24123141.7774
                                                                        42.5004
        25.0004
 09 10  5  0 33 30.0000000  0  9G02G04G05G13G29G10G23G30G25
 -17922717.26648 -13893870.37547
                  20442975.1884                                   20442969.7034
                                                                        53.2504
        42.7504
  -4262669.31648  -3276879.02746
                  21553031.6724                                   21553028.2464
                                                                        51.2504
        39.2504
  -2489037.66847  -1920100.79745
                  23570633.5554                                   23570630.1724
                                                                        43.0004
        31.2504
 -21555614.74248 -16717278.36346
                  21277928.5004                                   21277924.3054
                                                                        50.5004
        37.0004
  -8313581.12147  -6434766.75045
                  23105964.7814                                   23105961.4064
                                                                        44.2504
        31.2504
  -7764045.28147  -6030044.82845
                  22782363.5084                                   22782360.1884
                                                                        45.2504
        32.2504
  -8016157.41448  -6191849.88745
                  22390190.0394                                   22390183.8284
                                                                        48.0004
        32.0004
  -3134557.83647  -2403014.43744
                  23755705.0864                                   23755702.3594
                                                                        43.7504
        25.2504
   3320964.55146   2605552.96544
                  24091008.0634                                   24091005.1684
                                                                        41.0004
        26.5004
 09 10  5  0 34  0.0000000  0  9G02G04G05G13G29G10G23G30G25
 -18007896.25848 -13960243.57847
                  20426766.4614                                   20426760.8834
                                                                        53.0004
        42.7504
  -4269131.58248  -3281914.54346
                  21551801.6334                                   21551798.5434
                                                                        51.5004
        38.7504
  -2679157.77047  -2068246.29745
                  23534454.9924                                   23534452.0704
                                                                        43.5004
        31.0004
 -21658223.94948 -16797233.50846
                  21258402.4454                                   21258398.4344
                                                                        50.7504
        37.0004
  -8472504.05147  -6558602.81245
                  23075722.1174                                   23075719.9534
                                                                        43.5004
        32.0004
  -7950225.03947  -6175119.99645
                  22746934.8134                                   22746931.1764
                                                                        45.2504
        32.2504
  -8036571.56648  -6207756.99645
                  22386305.7504                                   22386299.2464
                                                                        48.2504
        31.5004
  -3129696.43747  -2399226.36744
                  23756629.4064                                   23756627.5044
                                                                        43.0004
        24.2504
   3152399.20746   2474203.39844
                  24058931.0394                                   24058927.6604
                                                                        41.2504
        24.2504
 09 10  5  0 34 30.0000000  0  9G02G04G05G13G29G10G23G30G25
 -18092485.56648 -14026157.29347
                  20410669.4454                                   20410663.8754
                                                                        52.7504
        43.0004
  -4275167.96948  -3286618.19946
                  21550653.1094                                   21550650.1604
                                                                        51.2504
        39.2504
  -2869074.66447  -2216233.35545
                  23498315.2114                                   23498311.5164
                                                                        45.2504
        33.2504
 -21760162.22748 -16876665.84046
                  21239004.6094                                   21238999.9344
                                                                        50.5004
        37.5004
  -8630999.12547  -6682105.40245
                  23045561.5554                                   23045559.6524
                                                                        43.0004
        30.5004
  -8136115.32047  -6319969.63345
                  22711560.4224                                   22711557.8324
                                                                        45.7504
        33.0004
  -8056455.53548  -6223251.07445
                  22382521.9384                                   22382515.6604
                                                                        48.0004
        31.2504
  -3124413.55547  -2395109.80543
                  23757635.0234                                   23757632.1214
                                                                        43.0004
        22.5004
   2984149.02046   2343099.45343
                  24026913.6094                                   24026911.4654
                                                                        40.5004
        22.7504
 09 10  5  0 35  0.0000000  0  9G02G04G05G13G29G10G23G30G25
 -18176485.33248 -14091611.63747
                  20394684.8524                                   20394679.0314
                                                                        53.0004
        43.2504
  -4280781.06648  -3290992.04346
                  21549585.0704                                   21549581.6914
                                                                        51.2504
        38.7504
  -3058787.02047  -2364061.07845
                  23462213.4924                                   23462210.2544
                                                                        44.5004
        31.0004
 -21861429.58248 -16955575.41846
                  21219733.6414                                   21219729.5314
                                                                        50.7504
        37.5004
  -8789065.09047  -6805273.68745
                  23015482.6804                                   23015480.0704
                                                                        42.2504
        31.7504
  -8321714.44147  -6464592.34845
                  22676242.7664                                   22676239.7894
                                                                        46.5004
        32.2504
  -8075811.44548  -6238333.53145
                  22378838.1024                                   22378832.3094
                                                                        48.0004
        32.2504
  -3118713.16447  -2390667.94543
                  23758720.1564                                   23758716.3204
                                                                        44.0004
        22.0004
   2816215.80546   2212242.42243
                  23994957.2664                                   23994954.3554
                                                                        41.0004
        22.7504
 09 10  5  0 35 30.0000000  0  9G02G04G05G13G29G10G23G30G25
 -18259897.26248 -14156607.93047
                  20378811.9774                                   20378806.4104
                                                                        53.0004
        42.5004
  -4285974.63348  -3295038.96146
                  21548596.8054                                   21548593.7464
                                                                        51.5004
        39.0004
  -3248294.76647  -2511729.39845
                  23426151.9614                                   23426148.0594
                                                                        44.5004
        30.7504
 -21962027.52748 -17033963.39546
                  21200590.1954                                   21200586.2584
                                                                        51.0004
        37.5004
  -8946701.36347  -6928107.15245
                  22985485.5004                                   22985483.0354
                                                                        43.0004
        32.0004
  -8507022.12547  -6608987.94145
                  22640979.5394                                   22640976.4574
                                                                        45.7504
        32.0004
  -8094644.13347  -6253008.30145
                  22375254.4384                                   22375248.7894
                                                                        47.5004
        31.7504
  -3112600.37947  -2385904.76244
                  23759883.1334                                   23759879.9264
                                                                        44.5004
        24.7504
   2648601.11747   2081633.80543
                  23963061.7974                                   23963058.1174
                                                                        43.0004
        22.7504
 09 10  5  0 36  0.0000000  0  9G02G04G05G13G29G10G23G30G25
 -18342722.64148 -14221147.23447
                  20363050.8674                                   20363044.9304
                                                                        53.0004
        42.5004
  -4290752.21148  -3298761.74246
                  21547687.5554                                   21547684.4344
                                                                        52.2504
        38.7504
  -3437597.30147  -2659237.85945
                  23390128.4924                                   23390124.6134
                                                                        45.0004
        32.5004
 -22061956.89848 -17111830.44146
                  21181574.7424                                   21181570.3164
                                                                        50.5004
        37.2504
  -9103907.07847  -7050605.09445
                  22955570.7814                                   22955567.9654
                                                                        43.7504
        32.2504
  -8692037.96147  -6753156.10545
                  22605772.4774                                   22605768.5864
                                                                        46.2504
        33.0004
  -8112957.12948  -6267278.11345
                  22371769.7424                                   22371763.6564
                                                                        48.0004
        32.0004
  -3106079.58647  -2380823.70744
                  23761124.3754                                   23761121.3364
                                                                        44.7504
        25.0004
   2481305.15247   1951273.36343
                  23931226.2424                                   23931222.2464
                                                                        43.5004
        22.2504
 09 10  5  0 36 30.0000000  0  9G02G04G05G13G29G10G23G30G25
 -18424960.20748 -14285228.44147
                  20347401.5864                                   20347395.8164
                                                                        52.5004
        42.7504
  -4295114.91048  -3302161.19546
                  21546857.2584                                   21546854.1024
                                                                        51.7504
        38.7504
  -3626692.31647  -2806584.62545
                  23354145.1724                                   23354141.1604
                                                                        44.5004
        31.0004
 -22161216.55148 -17189175.60246
                  21162686.0864                                   21162681.9064
                                                                        51.0004
        37.0004
  -9260679.41447  -7172765.27745
                  22925737.5394                                   22925734.7424
                                                                        42.5004
        31.7504
  -8876758.73447  -6897094.37545
                  22570621.2344                                   22570617.6844
                                                                        46.5004
        32.7504
  -8130751.84847  -6281144.09045
                  22368383.9614                                   22368377.6054
                                                                        47.5004
        32.2504
  -3099153.35547  -2375426.74644
                  23762442.3984                                   23762439.0594
                                                                        44.0004
        25.7504
   2314331.55147   1821164.03544
                  23899451.9304                                   23899448.1374
                                                                        42.5004
        24.2504
 09 10  5  0 37  0.0000000  0  9G02G04G05G13G29G10G23G30G25
 -18506610.58648 -14348852.09847
                  20331864.2194                                   20331858.1094
                                                                        52.7504
        42.7504
  -4299065.41848  -3305239.48046
                  21546105.6024                                   21546102.2464
                                                                        51.7504
        39.0004
  -3815578.41047  -2953768.62545
                  23318201.2974                                   23318197.6174
                                                                        45.5004
        31.0004
 -22259806.73048 -17265999.13346
                  21143924.8134                                   21143920.6684
                                                                        50.0004
        37.5004
  -9417016.80547  -7294586.59445
                  22895987.2504                                   22895984.6524
                                                                        42.7504
        31.0004
  -9061183.44947  -7040801.97745
                  22535526.2974                                   22535523.5124
                                                                        45.7504
        33.0004
  -8148030.95748  -6294608.23845
                  22365095.4694                                   22365089.3014
                                                                        48.0004
        31.0004
  -3091825.14547  -2369716.47344
                  23763836.6484                                   23763834.7074
                                                                        43.0004
        25.0004
   2147682.68447   1691307.86343
                  23867740.3134                                   23867736.3874
                                                                        42.5004
        23.7504
 09 10  5  0 37 30.0000000  0  9G02G04G05G13G29G10G23G30G25
 -18587674.16448 -14412018.53947
                  20316438.1334                                   20316432.4454
                                                                        52.5004
        42.5004
  -4302606.29348  -3307998.59446
                  21545431.7114                                   21545428.2384
                                                                        51.0004
        38.5004
  -4004254.28947  -3100788.83245
                  23282297.0784                                   23282293.3754
                                                                        45.0004
        32.0004
 -22357727.19948 -17342300.77746
                  21125291.1254                                   21125286.8874
                                                                        49.5004
        37.0004
  -9572917.42247  -7416067.50045
                  22866320.7424                                   22866317.3714
                                                                        43.0004
        31.5004
  -9245310.24647  -7184277.37545
                  22500487.9844                                   22500484.6684
                                                                        45.5004
        32.2504
  -8164797.48448  -6307672.97745
                  22361904.7504                                   22361899.0234
                                                                        48.2504
        32.2504
  -3084098.74647  -2363695.86744
                  23765306.6644                                   23765304.3014
                                                                        42.0004
        24.0004
   1981360.41847   1561706.13343
                  23836089.9694                                   23836086.5474
                                                                        43.2504
        23.0004
 09 10  5  0 38  0.0000000  0  9G02G04G05G13G29G10G23G30G25
 -18668151.28548 -14474728.03147
                  20301124.0944                                   20301118.2704
                                                                        53.0004
        42.5004
  -4305740.19948  -3310440.61746
                  21544835.4534                                   21544832.1094
                                                                        51.0004
        39.0004
  -4192718.36347  -3247643.96145
                  23246433.7194                                   23246430.1174
                                                                        44.5004
        32.5004
 -22454978.25448 -17418080.77746
                  21106785.1804                                   21106780.9384
                                                                        48.5004
        36.7504
  -9728379.62147  -7537206.91045
                  22836736.9304                                   22836734.0594
                                                                        43.0004
        31.5004
  -9429137.89847  -7327519.68045
                  22465506.7344                                   22465503.5824
                                                                        45.2504
        33.5004
  -8181054.51647  -6320340.75445
                  22358811.1484                                   22358805.1174
                                                                        47.2504
        32.0004
  -3075978.52746  -2357368.43044
                  23766851.5634                                   23766849.4384
                                                                        40.0004
        24.2504
   1815366.63747   1432360.35043
                  23804501.8914                                   23804498.4104
                                                                        42.2504
        22.7504
 09 10  5  0 38 30.0000000  0  9G02G04G05G13G29G10G23G30G25
 -17172618.43048 -13309377.79347
                  20585714.4454                                   20585708.6844
                                                                        52.7504
        43.5004
  -2733048.32048  -2084966.46546
                  21844108.5084                                   21844105.4534
                                                                        50.5004
        38.2504
  -2805542.35247  -2166727.59045
                  23510404.5474                                   23510401.2074
                                                                        45.0004
        32.5004
 -20976135.73848 -16265735.95346
                  21388199.3204                                   21388195.3014
                                                                        49.7504
        37.0004
  -8307975.28547  -6430398.24245
                  23107030.5474                                   23107027.7234
                                                                        43.5004
        31.5004
  -8037237.60547  -6242922.07445
                  22730376.3834                                   22730373.3164
                                                                        46.0004
        33.0004
  -6621382.99247  -5105012.24245
                  22655606.4614                                   22655600.3484
                                                                        47.7504
        32.0004
  -1492047.30146  -1123136.30943
                  24068264.2194                                   24068261.3444
                                                                        40.7504
        22.2504
   3225130.43446   2530877.75443
                  24072771.0004                                   24072767.8834
                                                                        41.7504
        23.0004
 09 10  5  0 39  0.0000000  0  9G02G04G05G13G29G10G23G30G25
 -17251921.61348 -13371172.50847
                  20570623.6954                                   20570617.9844
                                                                        52.5004
        42.7504
  -2735373.58648  -2086778.40246
                  21843666.3444                                   21843663.2274
                                                                        50.7504
        38.7504
  -2993577.27347  -2313248.36745
                  23474622.4614                                   23474619.1644
                                                                        44.0004
        33.0004
 -21072045.91048 -16340471.11746
                  21369948.2274                                   21369944.3244
                                                                        49.5004
        37.2504
  -8462553.49647  -6550848.78545
                  23077615.5474                                   23077613.1844
                                                                        43.0004
        32.0004
  -8220459.70347  -6385692.48445
                  22695510.6024                                   22695507.2234
                                                                        46.0004
        33.0004
  -6636626.67647  -5116890.38345
                  22652705.5944                                   22652699.7194
                                                                        47.2504
        31.0004
  -1483148.53546  -1116202.18444
                  24069957.8834                                   24069954.7274
                                                                        40.5004
        24.5004
   3059802.23846   2402050.59843
                  24041310.5164                                   24041307.0514
                                                                        40.5004
        22.5004
 09 10  5  0 39 30.0000000  0  9G02G04G05G13G29G10G23G30G25
 -17330639.10548 -13432510.80947
                  20555644.1414                                   20555638.3484
                                                                        52.5004
        43.0004
  -2737298.99648  -2088278.73846
                  21843299.9614                                   21843296.6724
                                                                        50.0004
        38.2504
  -3181395.85247  -2459600.52345
                  23438882.1804                                   23438878.7504
                                                                        44.5004
        32.2504
 -21167286.89148 -16414684.79746
                  21351824.4534                                   21351820.2344
                                                                        48.5004
        37.5004
  -8616687.76647  -6670953.36745
                  23048284.8594                                   23048282.6254
                                                                        43.7504
        32.7504
  -8403377.46547  -6528225.70745
                  22660702.5084                                   22660698.8984
                                                                        46.2504
        33.0004
  -6651368.65647  -5128377.55545
                  22649900.1644                                   22649894.1644
                                                                        47.2504
        31.2504
  -1473866.50047  -1108969.42243
                  24071724.0704                                   24071720.8874
                                                                        42.7504
        22.7504
   2894809.36346   2273484.76243
                  24009913.0084                                   24009909.4964
                                                                        41.2504
        23.0004
 09 10  5  0 40  0.0000000  0  9G02G04G05G13G29G10G23G30G25
 -17408768.62948 -13493390.92647
                  20540776.3674                                   20540771.0164
                                                                        52.0004
        43.5004
  -2738824.49648  -2089467.47346
                  21843009.6024                                   21843006.5984
                                                                        50.0004
        38.5004
  -3368994.60247  -2605781.31645
                  23403183.3984                                   23403179.9344
                                                                        47.0004
        32.5004
 -21261856.80148 -16488375.69546
                  21333828.4454                                   21333824.1844
                                                                        49.0004
        36.5004
  -8770374.25447  -6790709.06645
                  23019039.7034                                   23019037.0394
                                                                        44.0004
        32.7504
  -8585986.93447  -6670518.73445
                  22625952.5634                                   22625949.8284
                                                                        45.0004
        34.0004
  -6665608.97347  -5139473.82445
                  22647190.6484                                   22647184.4384
                                                                        47.7504
        31.2504
  -1464202.59447  -1101439.04743
                  24073563.5314                                   24073559.9734
                                                                        42.7504
        23.0004
   2730156.48446   2145183.84044
                  23978580.1724                                   23978576.6094
                                                                        41.2504
        24.0004
 09 10  5  0 40 30.0000000  0  9G02G04G05G13G29G10G23G30G25
 -17486311.74648 -13553814.10547
                  20526020.6024                                   20526014.6844
                                                                        51.2504
        43.0004
  -2739953.57848  -2090347.26246
                  21842794.7034                                   21842791.8164
                                                                        49.7504
        38.0004
  -3556372.77747  -2751790.27345
                  23367526.3524                                   23367522.8364
                                                                        46.5004
        33.5004
 -21355756.28148 -16561544.22346
                  21315959.9144                                   21315955.9024
                                                                        48.5004
        36.7504
  -8923611.68447  -6910114.82845
                  22989879.2734                                   22989876.6374
                                                                        44.2504
        32.7504
  -8768287.32047  -6812570.96145
                  22591262.6174                                   22591259.2194
                                                                        45.7504
        33.5004
  -6679352.04347  -5150182.66045
                  22644575.0474                                   22644569.0434
                                                                        46.0004
        31.0004
  -1454161.09047  -1093614.40244
                  24075473.8754                                   24075470.5514
                                                                        43.5004
        24.7504
   2565844.42247   2017148.43443
                  23947313.3914                                   23947310.1454
                                                                        42.0004
        23.7504
 09 10  5  0 41  0.0000000  0  9G02G04G05G13G29G10G23G30G25
 -17563267.15248 -13613779.31247
                  20511376.3204                                   20511370.4534
                                                                        51.5004
        42.7504
  -2740687.42648  -2090919.08246
                  21842655.4694                                   21842652.0554
                                                                        50.0004
        38.5004
  -3743527.96547  -2897625.43745
                  23331911.7034                                   23331908.2154
                                                                        46.5004
        32.5004
 -21448983.43048 -16634188.71546
                  21298219.4304                                   21298215.0474
                                                                        49.0004
        36.5004
  -9076397.54747  -7029168.74245
                  22960805.1334                                   22960802.3444
                                                                        44.0004
        32.7504
  -8950275.70347  -6954380.04345
                  22556631.1094                                   22556627.8714
                                                                        46.0004
        33.2504
  -6692599.12147  -5160505.02345
                  22642054.3444                                   22642047.8484
                                                                        47.0004
        30.7504
  -1443744.88346  -1085497.81643
                  24077456.1484                                   24077452.8324
                                                                        41.0004
        22.5004
   2401877.10546   1889381.78944
                  23916111.0394                                   23916107.5864
                                                                        41.7504
        25.2504
 09 10  5  0 41 30.0000000  0  9G02G04G05G13G29G10G23G30G25
 -17639635.82448 -13673287.34447
                  20496843.7344                                   20496838.0124
                                                                        51.0004
        42.5004
  -2741028.63748  -2091184.97346
                  21842589.8674                                   21842587.1334
                                                                        49.0004
        37.7504
  -3930458.35947  -3043285.47345
                  23296340.0314                                   23296336.7274
                                                                        46.7504
        32.2504
 -21541539.46548 -16706310.16846
                  21280606.5164                                   21280602.1094
                                                                        49.0004
        37.5004
  -9228729.54747  -7147869.01645
                  22931817.2344                                   22931814.0204
                                                                        44.7504
        32.2504
  -9131950.43447  -7095944.73445
                  22522059.7034                                   22522056.1764
                                                                        46.5004
        33.5004
  -6705352.54347  -5170442.71945
                  22639627.4694                                   22639621.0864
                                                                        47.0004
        31.5004
  -1432957.56646  -1077092.04743
                  24079508.7274                                   24079505.9184
                                                                        40.5004
        23.5004
   2238256.42646   1761885.15644
                  23884974.9774                                   23884971.3594
                                                                        40.7504
        24.7504
 09 10  5  0 42  0.0000000  0  9G02G04G05G13G29G10G23G30G25
 -17715417.64848 -13732338.09047
                  20482423.2034                                   20482417.2894
                                                                        52.0004
        42.5004
  -2740979.03948  -2091146.27346
                  21842599.3524                                   21842596.5514
                                                                        50.0004
        37.7504
  -4117162.66047  -3188769.29745
                  23260811.4534                                   23260807.7544
                                                                        46.0004
        33.2504
 -21633424.02348 -16777908.32046
                  21263121.4774                                   21263117.0704
                                                                        50.0004
        36.5004
  -9380605.95747  -7266214.25845
                  22902916.2734                                   22902913.3714
                                                                        45.0004
        32.5004
  -9313309.89147  -7237263.81645
                  22487547.9384                                   22487544.8014
                                                                        45.5004
        33.5004
  -6717615.15247  -5179997.91845
                  22637293.5004                                   22637287.5904
                                                                        46.5004
        31.0004
  -1421802.72746  -1068399.92243
                  24081630.5704                                   24081628.6724
                                                                        40.0004
        22.7504
   2074984.54746   1634660.22744
                  23853905.2734                                   23853901.8954
                                                                        41.0004
        24.7504
 09 10  5  0 42 30.0000000  0  9G02G04G05G13G29G10G23G30G25
 -17790614.32848 -13790932.85547
                  20468113.4924                                   20468107.5394
                                                                        51.7504
        42.7504
  -2740542.59048  -2090806.14546
                  21842682.4304                                   21842679.4144
                                                                        50.2504
        37.2504
  -4303640.06647  -3334076.31645
                  23225326.1024                                   23225322.5124
                                                                        47.7504
        33.7504
 -21724638.95348 -16848984.67646
                  21245763.4534                                   21245759.3244
                                                                        50.5004
        37.2504
  -9532026.42247  -7384204.23445
                  22874101.7424                                   22874099.1804
                                                                        45.2504
        32.2504
  -9494353.05547  -7378336.34445
                  22453096.8984                                   22453093.3244
                                                                        47.0004
        34.0004
  -6729391.04347  -5189173.91045
                  22635053.3984                                   22635047.0274
                                                                        46.7504
        30.5004
  -1410284.99246  -1059424.96543
                  24083822.3524                                   24083819.8164
                                                                        40.0004
        22.5004
   1912062.53146   1507707.81343
                  23822901.7274                                   23822899.0864
                                                                        40.0004
        22.7504
 09 10  5  0 43  0.0000000  0  9G02G04G05G13G29G10G23G30G25
 -17865223.49648 -13849069.85247
                  20453916.0004                                   20453910.0234
                                                                        51.7504
        42.7504
  -2739719.35248  -2090164.57446
                  21842839.2344                                   21842835.5784
                                                                        49.7504
        37.5004
  -4489887.05147  -3479203.79745
                  23189884.5314                                   23189880.7034
                                                                        46.7504
        33.2504
 -21815181.57448 -16919537.29346
                  21228533.7814                                   21228529.9844
                                                                        49.7504
        37.0004
  -9682986.74247  -7501835.68445
                  22845375.1024                                   22845371.8794
                                                                        44.5004
        33.0004
  -9675076.30547  -7519159.68045
                  22418706.1954                                   22418702.5554
                                                                        46.0004
        33.0004
  -6740680.52047  -5197970.90645
                  22632904.5234                                   22632898.3874
                                                                        46.7504
        31.0004
  -1398405.89546  -1050168.36343
                  24086083.2274                                   24086080.6684
                                                                        41.5004
        22.7504
   1749495.30146   1381032.01243
                  23791966.5554                                   23791963.3954
                                                                        40.2504
        23.2504
 09 10  5  0 43 30.0000000  0  9G02G04G05G13G29G10G23G30G25
 -17939247.13348 -13906750.50847
                  20439829.6954                                   20439823.9064
                                                                        52.0004
        42.7504
  -2738513.28148  -2089224.76646
                  21843068.7114                                   21843065.4064
                                                                        48.5004
        37.5004
  -4675903.17248  -3624151.38345
                  23154486.5004                                   23154482.7814
                                                                        48.2504
        33.5004
 -21905053.64148 -16989567.55146
                  21211431.5004                                   21211427.2584
                                                                        49.2504
        37.0004
  -9833486.43447  -7619108.20345
                  22816736.1564                                   22816733.2384
                                                                        44.7504
        33.0004
  -9855479.06247  -7659733.21945
                  22384376.2344                                   22384373.7384
                                                                        46.0004
        34.2504
  -6751487.73447  -5206392.12945
                  22630848.1254                                   22630841.9304
                                                                        47.0004
        31.0004
  -1386170.73847  -1040634.41843
                  24088411.1414                                   24088408.2894
                                                                        42.5004
        22.7504
   1587283.26247   1254632.90244
                  23761099.3914                                   23761095.4804
                                                                        42.2504
        25.0004
 09 10  5  0 44  0.0000000  0  9G02G04G05G13G29G10G23G30G25
 -18012684.52348 -13963974.44147
                  20425854.6884                                   20425848.8874
                                                                        51.5004
        43.2504
  -2736925.28948  -2087987.38346
                  21843371.1174                                   21843367.7894
                                                                        50.0004
        38.0004
  -4861685.91047  -3768917.14545
                  23119133.1024                                   23119129.8484
                                                                        46.5004
        33.5004
 -21994254.75848 -17059074.85246
                  21194457.3754                                   21194453.2154
                                                                        50.5004
        37.5004
  -9983522.08247  -7736019.10545
                  22788185.2814                                   22788182.1214
                                                                        44.5004
        32.0004
 -10035558.06647  -7800054.44145
                  22350108.7274                                   22350105.2894
                                                                        45.5004
        34.5004
  -6761813.85947  -5214438.45745
                  22628883.0164                                   22628876.6214
                                                                        44.7504
        30.5004
  -1373581.12947  -1030824.18443
                  24090806.7584                                   24090804.0744
                                                                        43.0004
        23.5004
   1425430.65247   1128513.97744
                  23730299.9694                                   23730296.2734
                                                                        42.0004
        25.2504
 09 10  5  0 44 30.0000000  0  9G02G04G05G13G29G10G23G30G25
 -18085536.02048 -14020741.78547
                  20411991.9534                                   20411985.9574
                                                                        52.2504
        42.7504
  -2734958.07848  -2086454.52046
                  21843745.5634                                   21843741.9804
                                                                        49.0004
        38.0004
  -5047233.65647  -3913499.78545
                  23083824.3594                                   23083821.0004
                                                                        46.5004
        33.5004
 -22082784.58648 -17128059.27746
                  21177610.5084                                   21177606.3834
                                                                        50.0004
        37.2504
 -10133092.56647  -7852567.53545
                  22759722.8204                                   22759719.3094
                                                                        45.0004
        31.7504
 -10215312.42247  -7940122.75845
                  22315902.2504                                   22315899.0164
                                                                        46.0004
        34.2504
  -6771661.87147  -5222112.24245
                  22627009.0634                                   22627003.0164
                                                                        46.0004
        30.5004
  -1360641.42647  -1020741.22743
                  24093269.4694                                   24093266.2774
                                                                        43.2504
        22.7504
   1263938.91446   1002676.30144
                  23699568.8984                                   23699565.7424
                                                                        41.0004
        25.2504
 09 10  5  0 45  0.0000000  0  9G02G04G05G13G29G10G23G30G25
 -18157800.94148 -14077052.10547
                  20398240.1094                                   20398234.2464
                                                                        52.2504
        43.2504
  -2732612.74248  -2084627.00446
                  21844191.3674                                   21844188.3054
                                                                        50.2504
        37.0004
  -5232543.73847  -4057897.21145
                  23048561.4454                                   23048557.5474
                                                                        46.7504
        33.5004
 -22170642.76648 -17196520.29346
                  21160892.0944                                   21160888.0704
                                                                        50.0004
        37.0004
 -10282194.62947  -7968750.99245
                  22731349.6334                                   22731346.4734
                                                                        46.0004
        33.0004
 -10394739.15247  -8079935.77745
                  22281758.7814                                   22281755.3524
                                                                        46.2504
        34.2504
  -6781033.63747  -5229414.91045
                  22625226.0554                                   22625219.4774
                                                                        46.2504
        30.5004
  -1347353.96547  -1010387.24244
                  24095797.6884                                   24095794.4414
                                                                        44.5004
        24.7504
   1102811.31647    877122.38744
                  23668906.8204                                   23668903.9494
                                                                        42.2504
        26.0004
 09 10  5  0 45 30.0000000  0  9G02G04G05G13G29G10G23G30G25
 -18229478.71148 -14132904.89847
                  20384600.3834                                   20384594.4384
                                                                        52.0004
        42.7504
  -2729891.00448  -2082506.18046
                  21844709.7274                                   21844706.1684
                                                                        50.0004
        37.5004
  -5417614.22347  -4202107.94545
                  23013343.7974                                   23013340.0824
                                                                        47.5004
        33.2504
 -22257828.05148 -17264456.89146
                  21144301.0864                                   21144297.0904
                                                                        49.5004
        37.2504
 -10430826.10247  -8084567.77345
                  22703066.1804                                   22703063.2274
                                                                        45.0004
        32.7504
 -10573835.64547  -8219491.46945
                  22247677.7734                                   22247674.6604
                                                                        46.7504
        34.5004
  -6789931.16047  -5236348.06245
                  22623532.4224                                   22623526.3484
                                                                        46.5004
        30.5004
  -1333721.62147   -999764.53943
                  24098391.8204                                   24098388.5784
                                                                        43.0004
        22.7504
    942050.97746    751854.60543
                  23638315.7034                                   23638312.1564
                                                                        41.7504
        23.7504
 09 10  5  0 46  0.0000000  0  9G02G04G05G13G29G10G23G30G25
 -18300569.58648 -14188300.36747
                  20371071.9924                                   20371066.2734
                                                                        52.0004
        42.0004
  -2726794.26248  -2080093.13346
                  21845298.8284                                   21845295.6294
                                                                        50.0004
        37.2504
  -5602442.30547  -4346129.80945
                  22978172.0944                                   22978168.0164
                                                                        47.0004
        34.2504
 -22344341.15648 -17331869.71146
                  21127838.2504                                   21127834.2424
                                                                        49.7504
        37.0004
 -10578984.24647  -8200015.68045
                  22674872.1884                                   22674869.3954
                                                                        45.5004
        33.0004
 -10752599.35947  -8358787.82045
                  22213659.8754                                   22213656.4304
                                                                        45.7504
        34.0004
  -6798356.26647  -5242913.09445
                  22621929.2814                                   22621922.8014
                                                                        46.2504
        30.2504
  -1319747.23447   -988875.35543
                  24101051.4304                                   24101047.8444
                                                                        43.2504
        22.7504
    781660.80947    626875.26643
                  23607794.7734                                   23607790.6764
                                                                        42.2504
        23.7504
 09 10  5  0 46 30.0000000  0  8G02G04G05G13G29G10G23G25
 -18371071.46948 -14243236.87147
                  20357656.0164                                   20357650.2584
                                                                        52.0004
        42.5004
  -2723323.15648  -2077388.38346
                  21845959.5084                                   21845956.1884
                                                                        49.5004
        37.2504
  -5787024.41448  -4489960.02345
                  22943047.2424                                   22943043.3244
                                                                        48.0004
        34.2504
 -22430179.28548 -17398756.55546
                  21111503.8284                                   21111499.3324
                                                                        50.0004
        36.7504
 -10726665.20747  -8315091.78145
                  22646770.0394                                   22646767.0514
                                                                        45.2504
        33.5004
 -10931026.52347  -8497821.98845
                  22179706.4924                                   22179702.9574
                                                                        46.7504
        34.0004
  -6806309.62547  -5249110.51645
                  22620416.3984                                   22620409.5204
                                                                        44.5004
        30.0004
    621645.18447    502187.71943
                  23577344.5864                                   23577341.0704
                                                                        42.7504
        22.5004
 09 10  5  0 47  0.0000000  0  8G02G04G05G13G29G10G23G25
 -18440985.96548 -14297715.69147
                  20344351.7034                                   20344345.6804
                                                                        51.7504
        42.5004
  -2719481.13748  -2074394.59046
                  21846690.6414                                   21846687.1134
                                                                        49.7504
        37.0004
  -5971360.32847  -4633598.42245
                  22907968.9844                                   22907965.1884
                                                                        47.2504
        34.0004
 -22515344.02748 -17465118.69946
                  21095297.4534                                   21095293.1764
                                                                        49.5004
        36.0004
 -10873868.51647  -8429795.69545
                  22618757.9614                                   22618755.3404
                                                                        45.7504
        33.5004
 -11109116.62947  -8636593.53945
                  22145817.1414                                   22145813.7034
                                                                        46.0004
        34.5004
  -6813795.45747  -5254943.59045
                  22618991.4384                                   22618985.1954
                                                                        44.2504
        30.2504
    462005.15247    377792.96544
                  23546966.0634                                   23546962.6994
                                                                        43.0004
        25.5004
 09 10  5  0 47 30.0000000  0  8G02G04G05G13G29G10G23G25
 -18510309.52348 -14351734.03947
                  20331160.0634                                   20331153.9344
                                                                        52.0004
        43.0004
  -2715266.32848  -2071110.30146
                  21847492.5474                                   21847489.4774
                                                                        49.7504
        37.0004
  -6155443.87947  -4777040.12945
                  22872939.3754                                   22872935.5004
                                                                        47.0004
        33.7504
 -22599832.84848 -17530954.22346
                  21079220.1174                                   21079215.8014
                                                                        49.2504
        37.0004
 -11020587.73447  -8544122.29345
                  22590838.2734                                   22590835.3524
                                                                        46.5004
        33.5004
 -11286863.22347  -8775097.32045
                  22111992.9774                                   22111989.1334
                                                                        46.5004
        34.2504
  -6820812.12147  -5260411.12945
                  22617656.4384                                   22617649.9964
                                                                        44.0004
        30.0004
    302746.87947    253695.60544
                  23516659.8364                                   23516655.9534
                                                                        43.5004
        24.0004
 09 10  5  0 48  0.0000000  0  8G02G04G05G13G29G10G23G25
 -18579040.23448 -14405290.43047
                  20318080.9534                                   20318075.3164
                                                                        52.2504
        42.7504
  -2710678.59848  -2067535.41046
                  21848365.4384                                   21848361.9184
                                                                        48.5004
        37.2504
  -6339271.41447  -4920282.35545
                  22837957.4304                                   22837954.0354
                                                                        46.5004
        33.7504
 -22683642.55948 -17596260.51246
                  21063271.5164                                   21063267.2034
                                                                        48.7504
        37.5004
 -11166818.94147  -8658068.60245
                  22563011.3364                                   22563008.4344
                                                                        44.5004
        34.0004
 -11464262.73047  -8913330.73445
                  22078234.9534                                   22078232.1644
                                                                        46.7504
        35.0004
  -6827359.94547  -5265513.31244
                  22616409.7504                                   22616404.0904
                                                                        45.2504
        29.7504
    143875.00047    129899.21144
                  23486427.6564                                   23486424.2074
                                                                        43.7504
        24.5004
 09 10  5  0 48 30.0000000  0  8G02G04G05G13G29G10G23G25
 -17071757.64548 -13230784.51247
                  20604907.1954                                   20604901.4064
                                                                        52.5004
        42.5004
  -1130302.18748   -836073.27046
                  22149101.2194                                   22149097.8754
                                                                        49.0004
        37.0004
  -4947416.52347  -3835720.09045
                  23102819.0944                                   23102815.3484
                                                                        46.2504
        34.0004
 -21191352.48048 -16433437.05546
                  21347244.7034                                   21347240.4844
                                                                        48.5004
        37.5004
  -9737137.14147  -7544030.81245
                  22835070.8674                                   22835067.5554
                                                                        45.0004
        33.5004
 -10065888.96947  -7823688.87545
                  22344336.9064                                   22344333.4964
                                                                        46.7504
        35.0004
  -5258022.80947  -4042653.19944
                  22915045.3444                                   22915038.7974
                                                                        44.0004
        29.5004
   1560816.00847   1234009.10244
                  23756062.8134                                   23756059.4804
                                                                        43.0004
        26.2504
 09 10  5  0 49  0.0000000  0  8G02G04G05G13G29G10G23G25
 -17139307.79348 -13283420.97747
                  20592053.0004                                   20592047.2384
                                                                        52.0004
        42.5004
  -1124980.14148   -831926.23446
                  22150113.7894                                   22150110.5234
                                                                        48.2504
        37.0004
  -5130731.01247  -3978562.57045
                  23067935.7424                                   23067932.2584
                                                                        46.7504
        33.7504
 -21273809.97348 -16497689.61746
                  21331553.5554                                   21331549.3204
                                                                        48.5004
        37.0004
  -9882391.32447  -7657215.79345
                  22807429.7194                                   22807426.5274
                                                                        46.0004
        33.5004
 -10242592.97747  -7961380.27745
                  22310711.4694                                   22310707.8404
                                                                        47.2504
        35.5004
  -5263645.28147  -4047034.37145
                  22913974.9064                                   22913968.9024
                                                                        44.0004
        30.0004
   1402720.00847   1110817.47744
                  23725977.6094                                   23725974.1374
                                                                        42.5004
        26.0004
 09 10  5  0 49 30.0000000  0  8G02G04G05G13G29G10G23G25
 -17206270.91048 -13335600.05547
                  20579309.9384                                   20579304.2544
                                                                        52.2504
        42.7504
  -1119296.84048   -827497.71146
                  22151195.5164                                   22151192.4184
                                                                        49.5004
        37.5004
  -5313788.78147  -4121205.00845
                  23033101.4304                                   23033097.3874
                                                                        46.7504
        34.5004
 -21355594.18748 -16561417.66846
                  21315990.7194                                   21315986.2854
                                                                        49.7504
        37.0004
 -10027157.05947  -7770020.33245
                  22779881.6564                                   22779878.6054
                                                                        45.7504
        33.5004
 -10418949.03947  -8098800.64145
                  22277151.9454                                   22277148.5474
                                                                        47.2504
        35.5004
  -5268811.48447  -4051060.00045
                  22912992.5164                                   22912985.3484
                                                                        45.0004
        30.2504
   1245012.73847    987928.66844
                  23695967.2584                                   23695963.8014
                                                                        42.2504
        25.2504
 09 10  5  0 50  0.0000000  0  8G02G04G05G13G29G10G23G25
 -17272650.53948 -13387324.45747
                  20566678.6564                                   20566672.9494
                                                                        51.7504
        42.5004
  -1113257.59848   -822791.82446
                  22152344.2114                                   22152341.0474
                                                                        48.2504
        36.7504
  -5496591.17647  -4263648.40246
                  22998314.9064                                   22998311.6214
                                                                        46.5004
        36.0004
 -21436708.54348 -16624623.64546
                  21300555.2034                                   21300550.7624
                                                                        49.7504
        37.0004
 -10171434.93047  -7882444.69545
                  22752426.6954                                   22752423.8164
                                                                        45.5004
        33.0004
 -10594958.03147  -8235950.48845
                  22243658.0634                                   22243654.7734
                                                                        46.5004
        35.0004
  -5273527.15247  -4054734.56244
                  22912095.0634                                   22912088.3364
                                                                        45.0004
        29.0004
   1087693.57447    865342.34444
                  23666030.2664                                   23666027.6994
                                                                        42.7504
        26.7504
 09 10  5  0 50 30.0000000  0  8G02G04G05G13G29G10G23G25
 -17338446.99648 -13438594.41847
                  20554157.9774                                   20554152.1414
                                                                        51.0004
        42.5004
  -1106864.59048   -817810.22746
                  22153561.0394                                   22153557.6454
                                                                        48.2504
        36.5004
  -5679136.53147  -4405891.44545
                  22963577.1804                                   22963573.6764
                                                                        46.0004
        35.2504
 -21517153.64848 -16687308.11346
                  21285246.8914                                   21285242.7774
                                                                        49.5004
        37.0004
 -10315223.18047  -7994487.41045
                  22725064.3054                                   22725061.2934
                                                                        45.7504
        33.5004
 -10770618.27047  -8372828.63345
                  22210231.4304                                   22210227.7934
                                                                        46.5004
        34.5004
  -5277795.10547  -4058060.25844
                  22911282.5554                                   22911276.2424
                                                                        45.5004
        29.0004
    930764.62547    743060.09044
                  23636167.9924                                   23636164.6994
                                                                        43.0004
        27.0004
 09 10  5  0 51  0.0000000  0  8G02G04G05G13G29G10G23G25
 -17403660.50848 -13489410.14147
                  20541748.1024                                   20541742.3014
                                                                        51.2504
        43.0004
  -1100120.11348   -812554.74646
                  22154844.5234                                   22154841.3484
                                                                        50.0004
        37.0004
  -5861423.06647  -4547932.88345
                  22928889.0554                                   22928886.1294
                                                                        46.2504
        35.0004
 -21596929.75448 -16749471.28546
                  21270065.9774                                   21270062.1334
                                                                        50.5004
        36.7504
 -10458519.89147  -8106147.02045
                  22697795.6254                                   22697792.4774
                                                                        46.5004
        33.5004
 -10945927.48047  -8509433.13745
                  22176870.7664                                   22176867.9614
                                                                        47.2504
        35.2504
  -5281617.88747  -4061039.02044
                  22910555.0004                                   22910548.3984
                                                                        45.0004
        29.2504
    774228.41847    621083.94544
                  23606379.7504                                   23606376.4844
                                                                        42.0004
        25.2504
 09 10  5  0 51 30.0000000  0  8G02G04G05G13G29G10G23G25
 -17468293.83248 -13539773.75447
                  20529449.0004                                   20529443.2894
                                                                        51.2504
        42.2504
  -1093028.60948   -807028.92646
                  22156194.2734                                   22156190.8524
                                                                        49.0004
        36.2504
  -6043451.32847  -4689773.05145
                  22894250.3914                                   22894247.2304
                                                                        45.2504
        35.0004
 -21676039.91848 -16811115.62546
                  21255011.9064                                   21255007.6994
                                                                        50.0004
        36.7504
 -10601325.87147  -8217424.32845
                  22670620.9144                                   22670618.2424
                                                                        47.0004
        33.5004
 -11120886.18047  -8645764.57045
                  22143577.4064                                   22143573.8054
                                                                        46.5004
        34.5004
  -5285000.60247  -4063674.91044
                  22909911.4224                                   22909905.6254
                                                                        44.2504
        29.0004
    618084.86746    499413.71944
                  23576666.3364                                   23576662.9774
                                                                        41.7504
        26.5004
 09 10  5  0 52  0.0000000  0  8G02G04G05G13G29G10G23G25
 -17532346.97748 -13589685.30547
                  20517260.1024                                   20517254.2624
                                                                        51.7504
        42.5004
  -1085591.69548   -801233.90646
                  22157609.3054                                   22157605.8014
                                                                        49.2504
        36.2504
  -6225218.66447  -4831409.87145
                  22859661.0554                                   22859658.3134
                                                                        46.0004
        34.5004
 -21754483.47348 -16872240.46946
                  21240084.6414                                   21240080.3244
                                                                        50.7504
        36.7504
 -10743638.55147  -8328317.28545
                  22643539.4774                                   22643536.6914
                                                                        46.0004
        34.0004
 -11295491.95747  -8781820.98445
                  22110350.9694                                   22110347.2894
                                                                        46.5004
        35.5004
  -5287945.03947  -4065969.28144
                  22909350.9224                                   22909344.8984
                                                                        45.7504
        29.2504
    462336.94947    378051.69544
                  23547028.5634                                   23547024.4924
                                                                        42.0004
        25.0004
 09 10  5  0 52 30.0000000  0  8G02G04G05G13G29G10G23G25
 -17595817.24248 -13639142.66047
                  20505182.1174                                   20505176.3444
                                                                        50.7504
        42.0004
  -1077808.80147   -795169.34045
                  22159090.3754                                   22159086.8444
                                                                        47.7504
        35.7504
  -6406720.70747  -4972840.01245
                  22825122.9774                                   22825119.6844
                                                                        46.0004
        35.5004
 -21832258.23048 -16932844.23046
                  21225284.5554                                   21225280.2934
                                                                        50.7504
        36.5004
 -10885453.07847  -8438822.07045
                  22616553.0634                                   22616550.1094
                                                                        46.5004
        34.5004
 -11469740.07847  -8917598.69546
                  22077192.6174                                   22077189.5314
                                                                        47.7504
        36.0004
  -5290450.95747  -4067921.96544
                  22908874.6484                                   22908868.0394
                                                                        45.0004
        29.5004
    306989.95347    257002.17244
                  23517467.2894                                   23517463.0984
                                                                        42.0004
        24.2504
 09 10  5  0 53  0.0000000  0  8G02G04G05G13G29G10G23G25
 -17658706.03948 -13688146.91047
                  20493214.5234                                   20493208.6294
                                                                        51.0004
        42.7504
  -1069682.64848   -788837.29346
                  22160636.7974                                   22160633.6454
                                                                        49.2504
        36.2504
  -6587956.20347  -5114062.42246
                  22790634.7974                                   22790631.0514
                                                                        47.0004
        36.0004
 -21909364.98048 -16992927.39146
                  21210611.6334                                   21210607.0594
                                                                        50.7504
        37.5004
 -11026768.04747  -8548937.49645
                  22589661.6024                                   22589658.4844
                                                                        46.0004
        34.5004
 -11643629.26647  -9053096.74245
                  22044102.6174                                   22044099.3094
                                                                        47.0004
        35.5004
  -5292521.69947  -4069535.53144
                  22908480.2814                                   22908473.7304
                                                                        45.5004
        28.5004
    152045.41446    136266.22344
                  23487982.1884                                   23487978.7424
                                                                        40.5004
        26.0004
 09 10  5  0 53 30.0000000  0  8G02G04G05G13G29G10G23G25
 -17721012.95348 -13736697.75047
                  20481358.2424                                   20481352.0594
                                                                        51.5004
        42.7504
  -1061215.02348   -782239.16845
                  22162247.8134                                   22162244.9884
                                                                        49.5004
        35.7504
  -6768922.55148  -5255075.15246
                  22756197.8054                                   22756194.5354
                                                                        48.0004
        36.2504
 -21985803.94548 -17052490.24246
                  21196065.7974                                   21196061.3164
                                                                        50.7504
        38.0004
 -11167581.42647  -8658662.11745
                  22562865.9774                                   22562862.8094
                                                                        47.2504
        34.2504
 -11817157.06647  -9188313.18445
                  22011081.6484                                   22011077.9964
                                                                        47.0004
        35.5004
  -5294159.12547  -4070811.46144
                  22908168.3054                                   22908162.3674
                                                                        45.2504
        29.2504
     -2493.94546     15845.96944
                  23458574.1884                                   23458571.0784
                                                                        41.5004
        25.2504
 09 10  5  0 54  0.0000000  0  8G02G04G05G13G29G10G23G25
 -17782737.76248 -13784795.00847
                  20469612.1564                                   20469606.5084
                                                                        51.7504
        42.7504
  -1052407.09448   -775375.85246
                  22163924.0944                                   22163920.4384
                                                                        49.2504
        36.2504
  -6949617.57447  -5395876.46146
                  22721812.5474                                   22721809.4654
                                                                        47.5004
        36.0004
 -22061574.65248 -17111532.35946
                  21181646.8984                                   21181642.8914
                                                                        51.0004
        36.0004
 -11307890.24647  -8767993.63745
                  22536165.8444                                   22536162.6994
                                                                        47.0004
        34.7504
 -11990320.91447  -9323246.02345
                  21978129.2894                                   21978126.1764
                                                                        47.2504
        35.7504
  -5295365.30147  -4071751.34044
                  22907939.2894                                   22907932.5904
                                                                        46.2504
        29.0004
   -156624.73047   -104255.93044
                  23429244.6094                                   23429240.9884
                                                                        43.7504
        26.5004
 09 10  5  0 54 30.0000000  0  8G02G04G05G13G29G10G23G25
 -17843879.35248 -13832437.82847
                  20457977.4924                                   20457971.3364
                                                                        51.7504
        42.2504
  -1043259.47748   -768247.81646
                  22165664.8834                                   22165661.5204
                                                                        49.0004
        36.0004
  -7130037.30947  -5536463.21545
                  22687479.5554                                   22687476.2344
                                                                        47.5004
        35.5004
 -22136675.78548 -17170052.61746
                  21167355.6334                                   21167351.5474
                                                                        51.2504
        37.0004
 -11447690.98447  -8876929.15245
                  22509562.3444                                   22509559.4454
                                                                        46.5004
        34.7504
 -12163116.85548  -9457892.18445
                  21945247.4304                                   21945243.7424
                                                                        48.0004
        35.5004
  -5296141.49247  -4072356.19944
                  22907791.5084                                   22907785.1604
                                                                        46.0004
        28.5004
   -310343.09846   -224036.46944
                  23399992.9304                                   23399989.6524
                                                                        41.5004
        26.5004
 09 10  5  0 55  0.0000000  0  8G02G04G05G13G29G10G23G25
 -17904441.32848 -13879628.98447
                  20446453.0704                                   20446446.8054
                                                                        52.5004
        42.2504
  -1033777.96548   -760859.63345
                  22167469.2034                                   22167465.6644
                                                                        49.5004
        35.5004
  -7310183.55148  -5676836.87945
                  22653199.3364                                   22653195.6604
                                                                        48.0004
        35.0004
 -22211111.49248 -17228054.32846
                  21153190.8054                                   21153186.6844
                                                                        51.0004
        37.0004
 -11586985.74247  -8985470.56245
                  22483055.4534                                   22483051.9884
                                                                        46.2504
        33.7504
 -12335546.37147  -9592252.81645
                  21912435.1094                                   21912431.3204
                                                                        47.0004
        35.2504
  -5296493.39847  -4072630.38344
                  22907724.1564                                   22907717.7814
                                                                        46.7504
        29.0004
   -463650.22746   -343496.56244
                  23370819.4924                                   23370815.3874
                                                                        41.7504
        28.2504
 09 10  5  0 55 30.0000000  0  8G02G04G05G13G29G10G23G25
 -17964422.69148 -13926367.73047
                  20435038.7974                                   20435033.1524
                                                                        52.7504
        43.0004
  -1023962.76248   -753211.41845
                  22169336.8284                                   22169333.7934
                                                                        49.0004
        35.7504
  -7490052.62548  -5816994.55945
                  22618971.0004                                   22618967.6994
                                                                        48.2504
        34.7504
 -22284880.60948 -17285536.69146
                  21139153.1094                                   21139149.0744
                                                                        51.0004
        37.0004
 -11725769.95347  -9093614.12945
                  22456645.8524                                   22456642.8634
                                                                        46.0004
        34.5004
 -12507605.47748  -9726324.84445
                  21879693.6564                                   21879689.8134
                                                                        48.2504
        35.5004
  -5296421.75047  -4072574.60244
                  22907738.9304                                   22907732.1294
                                                                        46.0004
        28.2504
   -616541.58246   -462632.64844
                  23341724.8674                                   23341721.6994
                                                                        41.2504
        27.5004
 09 10  5  0 56  0.0000000  0  8G02G04G05G13G29G10G23G25
 -18023823.76248 -13972654.31647
                  20423735.2584                                   20423729.7234
                                                                        52.5004
        43.0004
  -1013815.62148   -745304.53946
                  22171267.7424                                   22171264.6524
                                                                        48.5004
        36.0004
  -7669642.40648  -5956934.62545
                  22584796.3594                                   22584792.6604
                                                                        48.2504
        35.2504
 -22357983.36348 -17342499.84846
                  21125242.3754                                   21125238.2114
                                                                        51.5004
        37.2504
 -11864042.50847  -9201358.96145
                  22430333.4224                                   22430330.2074
                                                                        46.5004
        34.5004
 -12679292.37147  -9860106.84446
                  21847022.3524                                   21847018.8554
                                                                        47.5004
        36.5004
  -5295928.81247  -4072190.49244
                  22907831.8524                                   22907825.6484
                                                                        45.7504
        28.2504
   -769014.75446   -581442.85944
                  23312710.1724                                   23312706.7934
                                                                        41.7504
        26.7504
 09 10  5  0 56 30.0000000  0  8G02G04G05G13G29G10G23G25
 -18082641.41848 -14018486.26647
                  20412542.2584                                   20412536.5944
                                                                        51.7504
        43.0004
  -1003335.50847   -737138.20745
                  22173261.7974                                   22173258.6844
                                                                        47.7504
        35.2504
  -7848947.78148  -6096653.02746
                  22550675.8594                                   22550672.4304
                                                                        48.0004
        36.2504
 -22430417.09048 -17398941.70346
                  21111458.5394                                   21111453.9654
                                                                        51.7504
        36.7504
 -12001797.68047  -9308700.63345
                  22404119.6094                                   22404116.2894
                                                                        46.2504
        34.5004
 -12850601.89147  -9993594.76246
                  21814423.2424                                   21814420.1564
                                                                        47.7504
        36.5004
  -5295014.24247  -4071477.83244
                  22908006.0394                                   22907999.6254
                                                                        46.2504
        29.5004
   -921064.32846   -699923.02744
                  23283775.6724                                   23283772.7974
                                                                        40.7504
        27.0004
 09 10  5  0 57  0.0000000  0  8G02G04G05G13G29G10G23G25
 -18140879.74248 -14063866.75447
                  20401460.0394                                   20401454.1174
                                                                        52.0004
        42.2504
   -992528.10548   -728716.84845
                  22175318.8204                                   22175315.2774
                                                                        48.2504
        35.5004
  -8027970.07048  -6236150.86746
                  22516608.8444                                   22516605.1844
                                                                        48.2504
        36.0004
 -22502185.43048 -17454865.05546
                  21097801.2814                                   21097797.0944
                                                                        51.0004
        36.7504
 -12139036.87147  -9415640.23445
                  22378004.0084                                   22378000.5554
                                                                        46.5004
        34.0004
 -13021535.15648 -10126789.48046
                  21781895.7664                                   21781892.2344
                                                                        48.5004
        36.5004
  -5293683.82847  -4070441.15644
                  22908258.8054                                   22908253.0784
                                                                        46.0004
        28.5004
  -1072691.16047   -818073.69144
                  23254922.2424                                   23254919.2114
                                                                        42.2504
        25.7504
 09 10  5  0 57 30.0000000  0  8G02G04G05G13G29G10G23G25
 -18198540.25448 -14108796.98047
                  20390487.8594                                   20390482.1024
                                                                        52.2504
        42.2504
   -981396.59047   -720042.91445
                  22177436.8674                                   22177433.4184
                                                                        47.2504
        35.5004
  -8206708.56647  -6375427.58246
                  22482596.4384                                   22482592.5004
                                                                        47.7504
        36.5004
 -22573290.56248 -17510271.63346
                  21084270.4064                                   21084266.2074
                                                                        51.0004
        36.5004
 -12275759.50447  -9522177.32845
                  22351986.2664                                   22351982.9384
                                                                        46.0004
        34.7504
 -13192091.56648 -10259690.55946
                  21749439.9924                                   21749436.4614
                                                                        48.7504
        36.5004
  -5291941.43047  -4069083.46944
                  22908590.6414                                   22908584.1764
                                                                        46.0004
        28.0004
  -1223894.10547   -935894.03944
                  23226149.5314                                   23226145.5314
                                                                        43.0004
        25.7504
 09 10  5  0 58  0.0000000  0  8G02G04G05G13G29G10G23G25
 -16680199.64848 -12925674.41447
                  20679418.5474                                   20679412.3594
                                                                        52.2504
        42.0004
    605478.70748    516483.33245
                  22479409.1334                                   22479405.5664
                                                                        48.7504
        35.0004
  -6809733.69547  -5286875.71146
                  22748431.9924                                   22748427.8164
                                                                        47.7504
        36.0004
 -21068308.22748 -16337558.09846
                  21370659.0704                                   21370654.7464
                                                                        50.7504
        36.5004
 -10836537.35547  -8400705.52345
                  22625861.9064                                   22625857.9184
                                                                        47.7504
        34.7504
 -11786841.33248  -9164690.34846
                  22016850.2114                                   22016846.5434
                                                                        49.0004
        36.7504
  -3714367.48447  -2839805.07444
                  23208792.7664                                   23208787.1054
                                                                        45.0004
        28.0004
    200756.22747    174223.16844
                  23497251.0164                                   23497247.2114
                                                                        42.0004
        26.0004
 09 10  5  0 58 30.0000000  0  8G02G04G05G13G29G10G23G25
 -16736703.34848 -12969703.24647
                  20668665.9454                                   20668659.9844
                                                                        51.5004
        42.7504
    617255.19548    525659.84445
                  22481650.1484                                   22481647.1054
                                                                        48.7504
        35.5004
  -6987896.18047  -5425703.57446
                  22714528.2344                                   22714524.9844
                                                                        47.0004
        37.0004
 -21138085.42648 -16391929.94146
                  21357381.1174                                   21357376.7814
                                                                        51.0004
        37.0004
 -10972218.58247  -8506431.13345
                  22600041.9774                                   22600039.0164
                                                                        47.2504
        35.5004
 -11956634.46148  -9296996.64546
                  21984539.5784                                   21984536.4264
                                                                        49.0004
        37.2504
  -3711805.68447  -2837808.86344
                  23209279.9064                                   23209274.3404
                                                                        43.0004
        25.0004
     50410.79347     57070.98044
                  23468641.6804                                   23468637.7934
                                                                        43.2504
        27.0004
 09 10  5  0 59  0.0000000  0  8G02G04G05G13G29G10G23G25
 -16792629.40248 -13013282.02747
                  20658023.6094                                   20658017.9654
                                                                        51.5004
        42.0004
    629350.87148    535085.05945
                  22483951.6644                                   22483948.3284
                                                                        48.7504
        35.2504
  -7165767.81647  -5564304.85546
                  22680680.4144                                   22680676.9414
                                                                        46.2504
        36.0004
 -21207199.84848 -16445785.30146
                  21344229.1724                                   21344224.3324
                                                                        51.0004
        36.7504
 -11107376.40647  -8611748.89845
                  22574322.3754                                   22574319.0434
                                                                        47.5004
        34.7504
 -12126043.37948  -9429003.57846
                  21952302.2114                                   21952298.4104
                                                                        49.2504
        36.2504
  -3708837.86347  -2835496.24244
                  23209845.4924                                   23209838.7274
                                                                        44.0004
        28.0004
    -99502.43747    -59744.50844
                  23440114.0084                                   23440110.4264
                                                                        44.2504
        28.2504
 09 10  5  0 59 30.0000000  0  8G02G04G05G13G29G10G23G25
 -16847979.04748 -13056411.69547
                  20647491.2734                                   20647484.9924
                                                                        51.2504
        43.2504
    641763.31348    544757.11345
                  22486313.8914                                   22486310.2894
                                                                        48.5004
        34.5004
  -7343347.19947  -5702678.36746
                  22646888.0314                                   22646884.9264
                                                                        46.2504
        36.2504
 -21275651.96548 -16499124.61346
                  21331202.8914                                   21331198.5984
                                                                        51.2504
        37.0004
 -11242009.77347  -8716657.98845
                  22548703.0164                                   22548699.2234
                                                                        46.2504
        35.2504
 -12295066.32048  -9560709.74646
                  21920137.7894                                   21920134.4884
                                                                        49.5004
        36.2504
  -3705467.48447  -2832869.98844
                  23210487.1804                                   23210480.5394
                                                                        44.2504
        29.0004
   -248981.23047   -176221.34044
                  23411668.9064                                   23411664.8834
                                                                        43.2504
        28.5004
 09 10  5  1  0  0.0000000  0  8G02G04G05G13G29G10G23G25
 -16902750.14148 -13099090.40647
                  20637068.4224                                   20637062.6804
                                                                        52.0004
        42.7504
    654492.34048    554675.85245
                  22488735.9454                                   22488732.9574
                                                                        48.0004
        35.2504
  -7520629.82447  -5840820.65246
                  22613152.6564                                   22613149.7074
                                                                        47.0004
        36.0004
 -21343440.51648 -16551946.82846
                  21318303.1174                                   21318298.8834
                                                                        50.7504
        36.7504
 -11376114.33247  -8821155.03545
                  22523183.2034                                   22523179.8244
                                                                        47.7504
        34.5004
 -12463699.15248  -9692111.92246
                  21888048.2584                                   21888045.2194
                                                                        49.0004
        36.5004
  -3701694.87147  -2829930.27344
                  23211204.6724                                   23211198.5044
                                                                        43.5004
        28.5004
   -398021.83247   -292356.85544
                  23383307.3674                                   23383303.5394
                                                                        43.0004
        27.2504
 09 10  5  1  0 30.0000000  0  8G02G04G05G13G29G10G23G25
 -16956944.12948 -13141319.48847
                  20626755.3914                                   20626749.6214
                                                                        51.2504
        42.5004
    667535.73848    564839.53145
                  22491218.4144                                   22491215.1914
                                                                        49.0004
        35.2504
  -7697614.62547  -5978730.85246
                  22579473.4304                                   22579469.9304
                                                                        47.0004
        36.7504
 -21410566.69148 -16604252.87546
                  21305529.4064                                   21305525.0164
                                                                        51.0004
        37.2504
 -11509688.58647  -8925238.82845
                  22497764.5164                                   22497761.4494
                                                                        47.5004
        34.7504
 -12631940.13348  -9823208.75046
                  21856033.0164                                   21856029.3834
                                                                        50.0004
        36.5004
  -3697522.97747  -2826679.50844
                  23211998.5784                                   23211992.5044
                                                                        45.2504
        28.2504
   -546621.73447   -408148.94944
                  23355029.7664                                   23355026.5434
                                                                        43.0004
        27.5004
 09 10  5  1  1  0.0000000  0  8G02G04G05G13G29G10G23G25
 -17010563.59448 -13183100.80546
                  20616552.0314                                   20616546.2424
                                                                        51.2504
        41.7504
    680888.95748    575244.63745
                  22493759.6414                                   22493755.5664
                                                                        49.2504
        34.5004
  -7874301.74247  -6116409.07846
                  22545850.6884                                   22545846.9064
                                                                        46.5004
        36.2504
 -21477033.48448 -16656045.15246
                  21292881.4924                                   21292877.1414
                                                                        51.0004
        37.0004
 -11642733.15247  -9028909.89845
                  22472447.0084                                   22472444.0434
                                                                        47.7504
        35.0004
 -12799789.86748  -9954000.73846
                  21824092.0864                                   21824088.8244
                                                                        49.2504
        37.2504
  -3692956.50046  -2823121.26644
                  23212867.6254                                   23212861.8014
                                                                        41.7504
        26.5004
   -694781.38347   -523598.04344
                  23326834.9694                                   23326832.1564
                                                                        42.5004
        27.0004
 09 10  5  1  1 30.0000000  0  8G02G04G05G13G29G10G23G25
 -17063607.77348 -13224433.94146
                  20606457.9224                                   20606452.4384
                                                                        52.0004
        41.7504
    694551.29348    585890.62145
                  22496358.9774                                   22496356.0744
                                                                        48.2504
        34.0004
  -8050687.65247  -6253852.61346
                  22512285.4924                                   22512282.0664
                                                                        47.7504
        36.5004
 -21542840.29348 -16707323.12946
                  21280358.4844                                   21280354.1174
                                                                        50.5004
        36.5004
 -11775244.28548  -9132165.28945
                  22447230.9144                                   22447228.0084
                                                                        48.5004
        34.5004
 -12967244.55548 -10084484.90246
                  21792226.5784                                   21792223.5864
                                                                        49.5004
        37.0004
  -3687996.54747  -2819256.39144
                  23213811.2194                                   23213805.1334
                                                                        42.2504
        27.0004
   -842496.56247   -638700.69544
                  23298726.5554                                   23298722.6334
                                                                        43.7504
        26.2504
 09 10  5  1  2  0.0000000  0  8G02G04G05G13G29G10G23G25
 -17116076.11748 -13265318.35947
                  20596473.5634                                   20596467.6844
                                                                        52.0004
        42.7504
    708522.14848    596776.98045
                  22499017.7584                                   22499014.3284
                                                                        48.5004
        34.2504
  -8226769.34848  -6391059.08246
                  22478778.7114                                   22478774.4064
                                                                        48.5004
        36.5004
 -21607986.05548 -16758085.98846
                  21267961.4694                                   21267957.2384
                                                                        50.7504
        36.0004
 -11907219.79748  -9235003.31245
                  22422117.0554                                   22422113.6844
                                                                        49.0004
        35.0004
 -13134300.91848 -10214658.64546
                  21760436.8284                                   21760433.6684
                                                                        49.2504
        36.7504
  -3682644.30547  -2815085.84044
                  23214829.7034                                   23214823.9454
                                                                        43.0004
        27.2504
   -989763.78947   -753454.30144
                  23270702.6094                                   23270698.3634
                                                                        44.0004
        26.2504
 09 10  5  1  2 30.0000000  0  8G02G04G05G13G29G10G23G25
 -17167972.06648 -13305756.77347
                  20586598.3914                                   20586592.0554
                                                                        52.0004
        42.0004
    722796.67648    607899.95745
                  22501734.0234                                   22501730.9264
                                                                        49.2504
        34.5004
  -8402547.53148  -6528029.10946
                  22445328.9694                                   22445325.2814
                                                                        48.5004
        37.2504
 -21672475.05148 -16808337.13346
                  21255689.7274                                   21255685.3204
                                                                        50.7504
        36.5004
 -12038660.12148  -9337424.36345
                  22397104.7344                                   22397101.2234
                                                                        49.5004
        35.5004
 -13300959.84448 -10344522.71146
                  21728722.8674                                   21728719.0314
                                                                        49.7504
        37.5004
  -3676905.47347  -2810614.02344
                  23215922.4304                                   23215915.4614
                                                                        44.0004
        26.5004
  -1136583.59847   -867859.32444
                  23242763.3674                                   23242759.8284
                                                                        43.7504
        27.5004
 09 10  5  1  3  0.0000000  0  8G02G04G05G13G29G10G23G25
 -17219293.74648 -13345747.76247
                  20576832.1724                                   20576826.1764
                                                                        51.5004
        42.0004
    737375.09448    619259.74645
                  22504508.0164                                   22504504.9104
                                                                        48.7504
        34.5004
  -8578017.90648  -6664759.21546
                  22411938.0944                                   22411934.4574
                                                                        48.5004
        36.7504
 -21736305.23048 -16858074.92246
                  21243543.3914                                   21243538.6564
                                                                        51.0004
        36.5004
 -12169561.48848  -9439425.40245
                  22372195.1484                                   22372191.4844
                                                                        48.2504
        35.2504
 -13467216.98448 -10474073.69146
                  21697085.2584                                   21697081.4344
                                                                        50.2504
        37.5004
  -3670780.53947  -2805841.32044
                  23217087.8674                                   23217080.8914
                                                                        43.0004
        26.7504
  -1282951.48847   -981912.18444
                  23214910.5944                                   23214907.0474
                                                                        44.0004
        27.0004
 09 10  5  1  3 30.0000000  0  8G02G04G05G13G29G10G23G25
 -17270041.93748 -13385291.77047
                  20567175.1174                                   20567169.2074
                                                                        52.2504
        42.2504
    752254.82848    630854.32445
                  22507339.5084                                   22507336.2584
                                                                        49.0004
        35.0004
  -8753178.66048  -6801248.07046
                  22378605.5944                                   22378602.3244
                                                                        48.2504
        37.0004
 -21799478.12548 -16907300.53946
                  21231521.9924                                   21231517.4734
                                                                        51.5004
        37.2504
 -12299921.98448  -9541004.94945
                  22347387.9924                                   22347385.1254
                                                                        48.7504
        35.5004
 -13633070.56648 -10603310.21546
                  21665524.3134                                   21665520.3834
                                                                        50.0004
        37.2504
  -3664271.53947  -2800769.37144
                  23218326.5234                                   23218319.6644
                                                                        43.5004
        28.5004
  -1428865.36747  -1095611.28944
                  23187144.2274                                   23187140.5004
                                                                        45.2504
        28.0004
 09 10  5  1  4  0.0000000  0  8G02G04G05G13G29G10G23G25
 -17320215.02748 -13424387.58247
                  20557627.6564                                   20557621.6374
                                                                        52.5004
        42.5004
    767436.47748    642684.18445
                  22510228.5944                                   22510225.7504
                                                                        48.5004
        34.5004
  -8928025.85248  -6937492.57846
                  22345333.8524                                   22345329.7974
                                                                        48.7504
        37.5004
 -21861991.79748 -16956012.48046
                  21219626.1174                                   21219621.4184
                                                                        51.0004
        36.5004
 -12429738.07448  -9642160.32445
                  22322685.0084                                   22322681.7274
                                                                        48.5004
        35.5004
 -13798516.51648 -10732229.10946
                  21634040.8674                                   21634037.2934
                                                                        50.5004
        37.2504
  -3657379.25447  -2795398.74644
                  23219637.7734                                   23219631.3364
                                                                        43.0004
        27.5004
  -1574320.93447  -1208953.28944
                  23159465.2504                                   23159461.4574
                                                                        45.5004
        27.0004
 09 10  5  1  4 30.0000000  0  9G02G04G05G13G29G10G23G16G25
 -17369818.07448 -13463039.37146
                  20548187.9694                                   20548182.3134
                                                                        52.0004
        41.7504
    782913.83648    654744.46545
                  22513173.8984                                   22513170.7624
                                                                        48.5004
        32.7504
  -9102561.62948  -7073494.42246
                  22312120.2274                                   22312116.6994
                                                                        48.7504
        37.2504
 -21923851.26648 -17004214.69146
                  21207854.5084                                   21207849.5704
                                                                        51.0004
        36.7504
 -12559011.77348  -9742893.05546
                  22298085.0864                                   22298081.6294
                                                                        49.2504
        36.0004
 -13963556.71548 -10860831.87146
                  21602634.6724                                   21602631.2934
                                                                        50.0004
        37.5004
  -3650109.88347  -2789734.26244
                  23221020.7424                                   23221014.7734
                                                                        42.0004
        27.5004
   9261748.27056   7253008.59853
                  24289188.6334                                   24289184.6644
                                                                        40.5004
        21.2504
  -1719319.64547  -1321939.27744
                  23131872.7424                                   23131868.8714
                                                                        45.2504
        27.5004
 09 10  5  1  5  0.0000000  0  9G02G04G05G13G29G10G23G16G25
 -17418854.13748 -13501249.34047
                  20538856.9224                                   20538851.3054
                                                                        52.2504
        42.5004
    798682.05548    667031.40245
                  22516174.5394                                   22516170.9694
                                                                        48.2504
        33.7504
  -9276786.53948  -7209254.09446
                  22278966.7894                                   22278962.5124
                                                                        48.7504
        36.7504
 -21985060.13348 -17051909.91046
                  21196206.3914                                   21196201.9024
                                                                        50.5004
        36.5004
 -12687744.02348  -9843203.86745
                  22273588.1644                                   22273584.5004
                                                                        49.2504
        35.5004
 -14128191.79748 -10989118.98046
                  21571305.5554                                   21571302.1604
                                                                        50.0004
        38.0004
  -3642469.21546  -2783780.50844
                  23222474.2974                                   23222468.6564
                                                                        41.5004
        26.2504
   9111579.60246   7135994.10243
                  24260613.7114                                   24260608.6884
                                                                        41.5004
        21.2504
  -1863862.02047  -1434569.68744
                  23104367.5394                                   23104363.1054
                                                                        44.2504
        28.0004
 09 10  5  1  5 30.0000000  0  9G02G04G05G13G29G10G23G16G25
 -17467330.43748 -13539023.18046
                  20529632.3834                                   20529626.3874
                                                                        51.5004
        41.5004
    814732.79747    679538.46945
                  22519229.0314                                   22519225.4924
                                                                        47.7504
        33.5004
  -9450704.41048  -7344774.49246
                  22245871.0314                                   22245866.8554
                                                                        49.2504
        37.2504
 -22045625.81248 -17099103.94946
                  21184681.7664                                   21184676.8444
                                                                        50.5004
        36.0004
 -12815939.17648  -9943096.16445
                  22249193.3364                                   22249189.8794
                                                                        49.2504
        35.2504
 -14292425.98448 -11117093.64846
                  21540053.0004                                   21540049.4024
                                                                        49.5004
        37.5004
  -3634465.77047  -2777544.10944
                  23223997.7424                                   23223992.3484
                                                                        43.2504
        27.5004
   8961862.04746   7019331.07843
                  24232122.7814                                   24232118.1764
                                                                        41.7504
        22.0004
  -2007952.07447  -1546847.62144
                  23076947.5944                                   23076943.9104
                                                                        44.5004
        28.0004
 09 10  5  1  6  0.0000000  0  9G02G04G05G13G29G10G23G16G25
 -17515242.28148 -13576357.17647
                  20520515.1174                                   20520509.3204
                                                                        51.5004
        42.5004
    831069.18448    692268.11745
                  22522337.6724                                   22522334.7384
                                                                        48.5004
        34.0004
  -9624308.56248  -7480050.44146
                  22212835.7814                                   22212831.4344
                                                                        49.0004
        37.5004
 -22105542.98848 -17145792.65246
                  21173279.8134                                   21173275.1684
                                                                        50.7504
        36.5004
 -12943590.72748 -10042564.89845
                  22224902.1094                                   22224898.8634
                                                                        48.2504
        35.5004
 -14456252.08648 -11244750.30946
                  21508877.8524                                   21508874.3594
                                                                        49.0004
        37.5004
  -3626096.95347  -2771022.94544
                  23225590.3284                                   23225584.2504
                                                                        44.7504
        27.0004
   8812603.32447   6903025.55943
                  24203720.3594                                   24203715.1134
                                                                        42.5004
        21.0004
  -2151582.51247  -1658767.39144
                  23049615.1334                                   23049611.2234
                                                                        44.0004
        26.5004
 09 10  5  1  6 30.0000000  0  9G02G04G05G13G29G10G23G16G25
 -17562588.77048 -13613250.28947
                  20511505.1414                                   20511499.2074
                                                                        51.7504
        42.2504
    847690.19147    705219.53545
                  22525500.2894                                   22525497.2974
                                                                        46.2504
        33.7504
  -9797596.00848  -7615079.55546
                  22179859.7344                                   22179855.9414
                                                                        49.7504
        36.7504
 -22164812.84848 -17191976.95746
                  21162000.7664                                   21161996.4654
                                                                        50.7504
        36.2504
 -13070695.96548 -10141607.90246
                  22200714.8984                                   22200711.2664
                                                                        48.0004
        36.0004
 -14619667.31248 -11372086.75846
                  21477780.6954                                   21477777.2504
                                                                        49.5004
        37.0004
  -3617364.68447  -2764218.52044
                  23227251.7974                                   23227245.5944
                                                                        44.0004
        25.7504
   8663806.62146   6787080.08643
                  24175404.7974                                   24175400.0274
                                                                        40.7504
        21.5004
  -2294750.21547  -1770326.61344
                  23022371.2424                                   23022367.9344
                                                                        44.0004
        26.7504
 09 10  5  1  7  0.0000000  0  9G02G04G05G13G29G10G23G16G25
 -17609366.96948 -13649700.90247
                  20502603.5394                                   20502597.6374
                                                                        51.5004
        42.7504
    864598.63747    718394.92645
                  22528718.3594                                   22528714.8364
                                                                        47.5004
        33.5004
  -9970560.02348  -7749856.68046
                  22146945.8594                                   22146941.8324
                                                                        49.0004
        37.2504
 -22223430.92248 -17237653.35946
                  21150846.4774                                   21150841.8634
                                                                        50.5004
        36.5004
 -13197248.21548 -10240220.00845
                  22176631.9224                                   22176628.9414
                                                                        48.0004
        35.5004
 -14782664.60548 -11499097.58646
                  21446763.5314                                   21446760.1214
                                                                        49.0004
        38.0004
  -3608266.21547  -2757128.77344
                  23228983.6254                                   23228976.9384
                                                                        43.5004
        25.5004
   8515479.88346   6671500.84443
                  24147178.5474                                   24147174.7424
                                                                        41.0004
        22.0004
  -2437447.79747  -1881519.48844
                  22995216.8674                                   22995213.7464
                                                                        44.5004
        27.2504
 09 10  5  1  7 30.0000000  0  9G02G04G05G13G29G10G23G16G25
 -16080151.07448 -12458104.18447
                  20793603.3444                                   20793597.8364
                                                                        51.0004
        42.0004
   2457216.55947   1959395.87545
                  22831783.1174                                   22831780.1334
                                                                        47.7504
        33.7504
  -8567768.11348  -6656772.04346
                  22413888.2274                                   22413884.5984
                                                                        49.2504
        38.2504
 -20705971.71148 -16055217.59846
                  21439609.4924                                   21439604.9224
                                                                        51.0004
        36.5004
 -11747817.06648  -9110793.10945
                  22452449.9614                                   22452446.7774
                                                                        48.5004
        35.5004
 -13369812.14848 -10398173.52346
                  21715620.6094                                   21715617.2814
                                                                        49.7504
        37.7504
  -2023379.85547  -1522152.38344
                  23530577.7584                                   23530570.9614
                                                                        44.0004
        26.7504
   9943054.36346   7783896.59843
                  24418837.1484                                   24418833.3484
                                                                        41.5004
        21.5004
  -1004244.06647   -764737.38744
                  23267946.5784                                   23267943.1414
                                                                        44.5004
        27.5004
 09 10  5  1  8  0.0000000  0  9G02G04G05G13G29G10G23G16G25
 -16125784.50848 -12493662.72747
                  20784920.1174                                   20784914.5434
                                                                        52.0004
        42.2504
   2474703.19147   1973021.82045
                  22835110.9534                                   22835107.3134
                                                                        47.2504
        33.7504
  -8740069.82848  -6791033.11746
                  22381100.5084                                   22381096.8554
                                                                        49.7504
        38.2504
 -20763279.69148 -16099873.17246
                  21428703.9144                                   21428699.4414
                                                                        51.0004
        36.0004
 -11873249.09448  -9208532.35245
                  22428581.0394                                   22428577.7664
                                                                        49.5004
        35.0004
 -13531958.78148 -10524521.51646
                  21684764.7584                                   21684761.5164
                                                                        49.2504
        38.0004
  -2013547.62547  -1514490.87144
                  23532448.3524                                   23532442.1374
                                                                        44.0004
        27.0004
   9795683.01246   7669061.84443
                  24390793.1954                                   24390788.7304
                                                                        39.7504
        20.7504
  -1145985.98847   -875185.59044
                  23240974.1724                                   23240970.5234
                                                                        45.0004
        29.0004
 09 10  5  1  8 30.0000000  0  9G02G04G05G13G29G10G23G16G25
 -16170848.21548 -12528777.29746
                  20776344.8134                                   20776338.7624
                                                                        51.2504
        41.7504
   2492474.14147   1986869.31345
                  22838492.3674                                   22838489.1524
                                                                        46.7504
        32.7504
  -8912038.57448  -6925034.71146
                  22348375.5554                                   22348372.2114
                                                                        49.7504
        38.0004
 -20819935.74648 -16144020.74246
                  21417922.2664                                   21417918.2774
                                                                        51.0004
        36.2504
 -11998120.03548  -9305834.32846
                  22404819.0084                                   22404815.6374
                                                                        48.2504
        36.2504
 -13693678.63748 -10650536.93746
                  21653990.5864                                   21653987.1094
                                                                        49.7504
        38.2504
  -2003353.96947  -1506547.75444
                  23534388.0634                                   23534382.6524
                                                                        43.0004
        25.7504
   9648791.55546   7554601.01643
                  24362840.3444                                   24362835.7154
                                                                        39.5004
        20.0004
  -1287248.29747   -985260.13344
                  23214092.9844                                   23214089.4144
                                                                        44.5004
        29.0004
 09 10  5  1  9  0.0000000  0  9G02G04G05G13G29G10G23G16G25
 -16215344.01248 -12563449.45746
                  20767877.4774                                   20767871.6564
                                                                        51.5004
        41.5004
   2510526.93447   2000936.42245
                  22841927.8364                                   22841924.5044
                                                                        46.2504
        33.0004
  -9083673.42648  -7058776.13346
                  22315714.5554                                   22315710.6524
                                                                        49.7504
        38.0004
 -20875941.68448 -16187661.72346
                  21407265.1804                                   21407260.5784
                                                                        51.0004
        36.7504
 -12122429.19148  -9402698.59046
                  22381163.7894                                   22381160.5474
                                                                        48.5004
        36.2504
 -13854970.16448 -10776218.60546
                  21623297.8204                                   21623294.2504
                                                                        49.0004
        38.0004
  -1992802.08647  -1498325.50444
                  23536395.8594                                   23536389.8404
                                                                        43.7504
        26.0004
   9502382.03146   7440515.67243
                  24334980.3364                                   24334974.6484
                                                                        40.0004
        18.5004
  -1428029.50447  -1094959.76644
                  23187303.5004                                   23187299.2194
                                                                        45.2504
        28.2504
 09 10  5  1  9 30.0000000  0 10G02G04G05G13G29G10G23G16G07G25
 -16259270.94148 -12597678.23047
                  20759518.4614                                   20759512.5704
                                                                        51.5004
        42.0004
   2528860.63747   2015222.36745
                  22845416.4304                                   22845413.6644
                                                                        47.0004
        33.2504
  -9254971.25048  -7192254.93446
                  22283117.9064                                   22283114.0044
                                                                        49.5004
        38.7504
 -20931297.32848 -16230795.97745
                  21396731.1804                                   21396726.9224
                                                                        50.2504
        35.7504
 -12246173.59448  -9499122.82846
                  22357615.9924                                   22357612.6804
                                                                        49.0004
        37.0004
 -14015830.05548 -10901563.94546
                  21592687.1724                                   21592683.2384
                                                                        48.2504
        38.0004
  -1981893.12547  -1489825.02044
                  23538471.6804                                   23538465.4964
                                                                        43.7504
        26.2504
   9356458.09046   7326808.71143
                  24307211.4454                                   24307206.8324
                                                                        40.2504
        19.7504
  10798294.03957   8433107.44954
                  24514392.1094                                   24514388.7074
                                                                        43.0004
        25.0004
  -1568326.07447  -1204281.81244
                  23160605.8204                                   23160601.3914
                                                                        45.5004
        28.5004
 09 10  5  1 10  0.0000000  0 10G02G04G05G13G29G10G23G16G07G25
 -16302632.00848 -12631466.08246
                  20751267.2504                                   20751261.4534
                                                                        51.5004
        41.5004
   2547471.20347   2029724.07445
                  22848958.4224                                   22848955.0664
                                                                        47.2504
        33.5004
  -9425932.17248  -7325471.21946
                  22250584.6954                                   22250580.8404
                                                                        48.5004
        38.2504
 -20986005.05148 -16273425.34846
                  21386320.6804                                   21386316.1334
                                                                        50.2504
        36.0004
 -12369353.68748  -9595107.37546
                  22334175.4924                                   22334172.4184
                                                                        49.2504
        36.5004
 -14176258.78548 -11026573.37146
                  21562158.5234                                   21562154.7584
                                                                        48.7504
        38.0004
  -1970631.98047  -1481050.09444
                  23540615.1954                                   23540608.4384
                                                                        43.7504
        26.2504
   9211019.16846   7213479.64843
                  24279536.3444                                   24279530.7304
                                                                        41.7504
        20.5004
  10617319.37146   8292087.96543
                  24479953.7734                                   24479949.9184
                                                                        40.7504
        21.5004
  -1708137.97347  -1313226.10944
                  23134000.6174                                   23133996.2034
                                                                        44.2504
        28.5004
 09 10  5  1 10 30.0000000  0 10G02G04G05G13G29G10G23G16G07G25
 -16345432.82848 -12664817.32046
                  20743122.3594                                   20743116.5824
                                                                        51.5004
        41.7504
   2566351.81347   2044436.18445
                  22852550.8754                                   22852548.0314
                                                                        47.0004
        33.5004
  -9596558.58648  -7458426.84046
                  22218115.6804                                   22218112.0004
                                                                        48.5004
        38.0004
 -21040071.40248 -16315554.94146
                  21376031.7974                                   21376027.7734
                                                                        50.0004
        36.2504
 -12491972.37548  -9690654.40646
                  22310842.2584                                   22310838.8954
                                                                        48.5004
        36.2504
 -14336259.17648 -11151249.02346
                  21531711.8984                                   21531707.6334
                                                                        49.5004
        38.2504
  -1959025.62947  -1472006.15644
                  23542823.5784                                   23542817.6524
                                                                        44.5004
        25.5004
   9066063.56346   7100527.25443
                  24251951.6024                                   24251946.3284
                                                                        40.5004
        20.2504
  10436593.23446   8151261.63343
                  24445562.4694                                   24445559.7304
                                                                        38.7504
        21.5004
  -1847467.94947  -1421794.92244
                  23107486.6254                                   23107483.0514
                                                                        44.5004
        27.7504
 09 10  5  1 11  0.0000000  0 10G02G04G05G13G29G10G23G16G07G25
 -16387673.73448 -12697732.37147
                  20735084.3524                                   20735078.5904
                                                                        51.0004
        42.0004
   2585501.09847   2059357.64545
                  22856195.0944                                   22856192.3244
                                                                        47.2504
        33.0004
  -9766848.23047  -7591120.03946
                  22185710.7034                                   22185706.6994
                                                                        47.5004
        38.2504
 -21093496.69548 -16357185.03545
                  21365865.4924                                   21365860.9844
                                                                        49.5004
        35.7504
 -12614027.66448  -9785762.43746
                  22287615.8134                                   22287612.5824
                                                                        48.5004
        36.2504
 -14495828.28948 -11275588.56646
                  21501346.7114                                   21501342.7734
                                                                        48.7504
        38.7504
  -1947076.03147  -1462694.74243
                  23545097.4304                                   23545090.8324
                                                                        43.5004
        23.5004
   8921593.89846   6987953.55943
                  24224459.8284                                   24224455.2504
                                                                        41.2504
        22.5004
  10256121.70346   8010634.32043
                  24411220.8984                                   24411217.7974
                                                                        41.2504
        22.5004
  -1986313.14547  -1529985.96944
                  23081064.9064                                   23081061.2814
                                                                        44.2504
        27.0004
 09 10  5  1 11 30.0000000  0 10G02G04G05G13G29G10G23G16G07G25
 -16429352.14148 -12730209.01647
                  20727153.1174                                   20727147.2464
                                                                        51.5004
        42.0004
   2604920.07847   2074489.26245
                  22859890.5944                                   22859887.2194
                                                                        46.2504
        32.2504
  -9936795.59848  -7723546.53146
                  22153370.7034                                   22153366.9804
                                                                        49.0004
        38.5004
 -21146278.94548 -16398314.06646
                  21355821.4454                                   21355817.3204
                                                                        50.0004
        36.0004
 -12735514.78948  -9880427.77346
                  22264497.7424                                   22264494.5434
                                                                        48.5004
        37.0004
 -14654961.02348 -11399588.06246
                  21471064.5474                                   21471060.9614
                                                                        49.0004
        38.7504
  -1934782.59847  -1453115.43444
                  23547437.2034                                   23547431.0594
                                                                        43.7504
        26.7504
   8777615.80547   6875762.84043
                  24197061.6174                                   24197056.7464
                                                                        42.0004
        22.5004
  10075909.34047   7870208.84044
                  24376928.1094                                   24376924.7894
                                                                        43.2504
        27.2504
  -2124668.31647  -1637795.14844
                  23054736.7584                                   23054733.1094
                                                                        44.5004
        27.0004
 09 10  5  1 12  0.0000000  0 10G02G04G05G13G29G10G23G16G07G25
 -16470464.55948 -12762244.71146
                  20719329.9384                                   20719323.8794
                                                                        52.2504
        41.7504
   2624611.50847   2089833.09045
                  22863637.9614                                   22863634.4344
                                                                        46.0004
        32.2504
 -10106394.05148  -7855701.14546
                  22121096.9224                                   22121093.4774
                                                                        48.7504
        39.0004
 -21198414.33648 -16438939.05146
                  21345900.6174                                   21345895.9534
                                                                        50.2504
        36.0004
 -12856427.52348  -9974645.52046
                  22241488.6724                                   22241485.0124
                                                                        48.7504
        36.7504
 -14813650.75048 -11523242.39146
                  21440866.7584                                   21440862.9574
                                                                        49.5004
        38.0004
  -1922143.25447  -1443266.57044
                  23549842.1884                                   23549835.9654
                                                                        43.5004
        26.2504
   8634136.68046   6763960.90243
                  24169758.6564                                   24169753.5944
                                                                        40.2504
        21.2504
   9895964.14847   7729991.44144
                  24342685.7344                                   24342682.5824
                                                                        43.0004
        25.7504
  -2262526.51247  -1745217.11744
                  23028503.3914                                   23028499.4064
                                                                        44.5004
        28.0004
 09 10  5  1 12 30.0000000  0 10G02G04G05G13G29G10G23G16G07G25
 -16511010.83648 -12793839.12947
                  20711613.5864                                   20711608.2464
                                                                        51.2504
        42.0004
   2644574.37147   2105388.53945
                  22867436.6804                                   22867433.7304
                                                                        46.5004
        33.0004
 -10275641.03548  -7987581.90646
                  22088890.6804                                   22088886.6094
                                                                        48.0004
        38.2504
 -21249903.89548 -16479060.79346
                  21336102.4694                                   21336097.8524
                                                                        50.0004
        36.2504
 -12976763.53948 -10068413.85246
                  22218589.1644                                   22218586.1644
                                                                        49.5004
        36.7504
 -14971895.09048 -11646549.61346
                  21410754.2114                                   21410750.3834
                                                                        48.7504
        39.2504
  -1909159.57446  -1433149.42243
                  23552312.0864                                   23552306.3714
                                                                        41.5004
        22.5004
   8491159.41046   6652550.06643
                  24142551.4224                                   24142545.6334
                                                                        41.0004
        20.7504
   9716291.81347   7589987.61344
                  24308495.3284                                   24308492.0864
                                                                        43.5004
        25.7504
  -2399885.16847  -1852249.84044
                  23002364.6024                                   23002361.6564
                                                                        44.5004
        28.0004
 09 10  5  1 13  0.0000000  0 10G02G04G05G13G29G10G23G16G07G25
 -16550995.86348 -12824996.33246
                  20704005.2504                                   20703999.2384
                                                                        51.0004
        41.5004
   2664802.84047   2121150.90645
                  22871285.9534                                   22871283.0664
                                                                        47.0004
        32.7504
 -10444538.27048  -8119190.14846
                  22056750.6254                                   22056746.5394
                                                                        49.0004
        38.5004
 -21300752.34448 -16518682.95745
                  21326425.9304                                   21326421.5664
                                                                        50.0004
        35.7504
 -13096525.17648 -10161734.56646
                  22195799.6804                                   22195796.1094
                                                                        48.7504
        36.5004
 -15129695.34848 -11769510.78946
                  21380725.6884                                   21380721.8834
                                                                        49.0004
        39.0004
  -1895838.32847  -1422769.22744
                  23554847.0474                                   23554841.2974
                                                                        43.0004
        26.0004
   8348682.67246   6541529.24643
                  24115438.4224                                   24115433.5234
                                                                        40.0004
        21.7504
   9536889.59047   7450194.01244
                  24274355.5704                                   24274352.4344
                                                                        43.7504
        26.0004
  -2536745.80147  -1958894.45744
                  22976321.2584                                   22976317.6054
                                                                        44.0004
        29.2504
 09 10  5  1 13 30.0000000  0 10G02G04G05G13G29G10G23G16G07G25
 -16590413.94548 -12855711.73046
                  20696504.2194                                   20696498.3674
                                                                        51.5004
        41.5004
   2685300.61347   2137122.82845
                  22875186.9694                                   22875183.7584
                                                                        46.7504
        32.0004
 -10613077.61748  -8250519.50846
                  22024678.6644                                   22024674.3364
                                                                        48.2504
        38.5004
 -21350953.66048 -16557800.87946
                  21316873.2034                                   21316868.5204
                                                                        49.5004
        36.2504
 -13215704.65248 -10254601.67246
                  22173120.0784                                   22173116.8444
                                                                        48.2504
        36.0004
 -15287043.82448 -11892119.96946
                  21350783.2344                                   21350779.4574
                                                                        49.0004
        39.0004
  -1882175.78947  -1412123.12144
                  23557447.6644                                   23557441.1684
                                                                        43.5004
        26.2504
   8206714.69146   6430904.85243
                  24088422.7274                                   24088418.3324
                                                                        40.7504
        22.5004
   9357764.44147   7310614.90644
                  24240270.4844                                   24240266.5044
                                                                        43.2504
        25.5004
  -2673099.82047  -2065144.30144
                  22950373.8834                                   22950370.0824
                                                                        45.0004
        29.5004
 09 10  5  1 14  0.0000000  0 10G02G04G05G13G29G10G23G16G07G25
 -16629269.73048 -12885989.00846
                  20689110.2584                                   20689104.3954
                                                                        51.2504
        41.5004
   2706062.99247   2153301.19145
                  22879138.1414                                   22879134.9804
                                                                        46.5004
        32.2504
 -10781260.48448  -8381571.07446
                  21992674.4144                                   21992670.4024
                                                                        49.0004
        38.0004
 -21400512.94948 -16596418.51246
                  21307442.5784                                   21307438.1054
                                                                        49.7504
        36.0004
 -13334303.59048 -10347016.39846
                  22150551.5554                                   22150548.2704
                                                                        48.2504
        36.0004
 -15443941.42648 -12014377.83246
                  21320926.5704                                   21320922.9224
                                                                        49.5004
        39.0004
  -1868177.52047  -1401215.39144
                  23560111.4534                                   23560105.3054
                                                                        42.2504
        24.5004
   8065254.27346   6320675.98443
                  24061503.9534                                   24061499.6334
                                                                        39.2504
        21.5004
   9178923.36346   7171259.56643
                  24206236.3834                                   24206234.2934
                                                                        41.5004
        23.7504
  -2808948.94547  -2171000.73845
                  22924523.2734                                   22924519.3874
                                                                        45.0004
        30.0004
 09 10  5  1 14 30.0000000  0 10G02G04G05G13G29G10G23G16G07G25
 -16667566.03548 -12915830.31646
                  20681822.7504                                   20681816.7774
                                                                        51.2504
        41.5004
   2727085.80147   2169682.45745
                  22883138.6484                                   22883135.2974
                                                                        46.5004
        31.7504
 -10949086.57448  -8512344.64546
                  21960738.3134                                   21960734.8444
                                                                        49.0004
        39.0004
 -21449433.78948 -16634538.63746
                  21298133.2034                                   21298128.6484
                                                                        49.7504
        36.2504
 -13452322.71548 -10438979.32446
                  22128093.5394                                   22128089.9384
                                                                        48.5004
        36.0004
 -15600388.80948 -12136284.86346
                  21291155.7664                                   21291152.0314
                                                                        49.2504
        38.7504
  -1853848.05947  -1390049.56643
                  23562838.0634                                   23562831.3094
                                                                        42.0004
        22.2504
   7924301.74246   6210842.85243
                  24034681.4064                                   24034676.7624
                                                                        39.0004
        20.5004
   9000361.09446   7032120.56643
                  24172256.0314                                   24172253.9024
                                                                        40.7504
        23.7504
  -2944292.97347  -2276463.60544
                  22898767.5944                                   22898763.6884
                                                                        44.5004
        29.5004
 09 10  5  1 15  0.0000000  0 10G02G04G05G13G29G10G23G16G07G25
 -16705303.58648 -12945236.15646
                  20674641.2424                                   20674635.1294
                                                                        50.7504
        41.2504
   2748366.94947   2186265.07845
                  22887188.3524                                   22887185.5434
                                                                        46.5004
        32.5004
 -11116554.07848  -8642838.78946
                  21928870.3364                                   21928866.3834
                                                                        49.7504
        39.0004
 -21497717.20748 -16672162.08245
                  21288945.1254                                   21288940.3014
                                                                        49.5004
        35.5004
 -13569760.56648 -10530489.32046
                  22105745.3204                                   22105742.2384
                                                                        48.0004
        36.2504
 -15756383.78948 -12257839.41846
                  21261470.6884                                   21261466.8284
                                                                        49.7504
        39.0004
  -1839190.06647  -1378627.68443
                  23565627.5864                                   23565620.4144
                                                                        42.0004
        22.7504
   7783859.81646   6101407.62143
                  24007955.9844                                   24007951.9924
                                                                        39.0004
        21.0004
   8822080.43846   6893199.96143
                  24138331.7664                                   24138328.3444
                                                                        41.0004
        22.5004
  -3079129.87947  -2381531.27744
                  22873109.0164                                   22873105.4964
                                                                        43.7504
        29.5004
 09 10  5  1 15 30.0000000  0 10G02G04G05G13G29G10G23G16G07G25
 -16742482.90648 -12974207.10547
                  20667566.3754                                   20667560.5044
                                                                        50.0004
        42.2504
   2769905.32447   2203048.21545
                  22891287.0944                                   22891284.1564
                                                                        44.2504
        32.2504
 -11283660.60948  -8773051.65646
                  21897071.2194                                   21897067.1134
                                                                        49.5004
        39.2504
 -21545363.78948 -16709289.31246
                  21279878.1024                                   21279873.7814
                                                                        50.2504
        36.0004
 -13686615.02348 -10621544.71546
                  22083508.8594                                   22083505.6844
                                                                        48.2504
        36.5004
 -15911923.53548 -12379039.22746
                  21231872.5314                                   21231868.6844
                                                                        49.0004
        38.0004
  -1824205.43447  -1366951.34844
                  23568478.8444                                   23568472.1684
                                                                        43.0004
        25.5004
   7643930.67646   5992371.95343
                  23981327.8054                                   23981323.6334
                                                                        38.0004
        21.5004
   8644089.47347   6754506.29344
                  24104460.8834                                   24104457.0044
                                                                        42.7504
        25.5004
  -3213457.12147  -2486201.83244
                  22847547.0864                                   22847543.6764
                                                                        43.2504
        29.2504
 09 10  5  1 16  0.0000000  0 10G02G04G05G13G29G10G23G16G07G25
 -16779105.62548 -13002744.35546
                  20660597.2274                                   20660591.7664
                                                                        51.0004
        41.2504
   2791698.71547   2220030.14845
                  22895433.9144                                   22895431.1524
                                                                        45.5004
        31.0004
 -11450404.02748  -8902981.59446
                  21865340.5084                                   21865336.5744
                                                                        49.7504
        39.0004
 -21592375.16448 -16745921.55546
                  21270932.6174                                   21270928.0944
                                                                        49.5004
        36.0004
 -13802885.12148 -10712144.78946
                  22061383.7814                                   22061380.3284
                                                                        48.0004
        36.7504
 -16067006.69148 -12499883.27746
                  21202360.8674                                   21202357.7194
                                                                        50.0004
        38.7504
  -1808896.77046  -1355022.49244
                  23571391.4304                                   23571385.8134
                                                                        41.2504
        25.0004
   7504516.74246   5883737.71143
                  23954798.6174                                   23954793.6334
                                                                        41.0004
        22.2504
   8466387.75047   6616037.41044
                  24070645.8054                                   24070641.0744
                                                                        43.7504
        24.7504
  -3347272.89847  -2590473.85244
                  22822082.6024                                   22822079.4494
                                                                        44.5004
        29.5004
 09 10  5  1 16 30.0000000  0 10G02G04G05G13G29G10G23G16G07G25
 -16815173.12548 -13030848.92246
                  20653733.8834                                   20653727.8634
                                                                        51.0004
        41.5004
   2813743.59047   2237208.07845
                  22899629.2504                                   22899625.4614
                                                                        45.7504
        31.5004
 -11616783.75048  -9032628.10946
                  21833679.4454                                   21833675.8284
                                                                        49.0004
        39.0004
 -21638753.72348 -16782060.69545
                  21262106.6884                                   21262102.0554
                                                                        50.5004
        35.5004
 -13918570.60548 -10802289.31246
                  22039369.5394                                   22039365.9494
                                                                        49.5004
        37.0004
 -16221632.60948 -12620371.05546
                  21172937.0784                                   21172933.2544
                                                                        50.0004
        38.7504
  -1793268.16447  -1342844.38344
                  23574365.9224                                   23574360.1134
                                                                        42.5004
        26.5004
   7365619.09846   5775505.78543
                  23928367.8984                                   23928362.2274
                                                                        41.5004
        22.0004
   8288978.57447   6477796.72744
                  24036885.3284                                   24036881.9144
                                                                        44.5004
        27.0004
  -3480576.43047  -2694346.72744
                  22796715.9694                                   22796712.2384
                                                                        43.0004
        29.0004
 09 10  5  1 17  0.0000000  0 10G02G04G05G13G29G10G23G16G07G25
 -16850687.43048 -13058522.41046
                  20646975.8364                                   20646970.0594
                                                                        51.7504
        41.5004
   2836037.50047   2254580.06645
                  22903871.1414                                   22903867.8094
                                                                        45.7504
        31.5004
 -11782798.55148  -9161990.28146
                  21802088.0784                                   21802084.4924
                                                                        49.5004
        38.7504
 -21684501.72748 -16817708.48046
                  21253401.2344                                   21253396.5514
                                                                        50.0004
        36.0004
 -14033670.52748 -10891977.53546
                  22017466.7344                                   22017462.8094
                                                                        49.0004
        36.5004
 -16375799.67648 -12740501.26246
                  21143600.1094                                   21143596.0784
                                                                        50.5004
        39.2504
  -1777322.59047  -1330419.26644
                  23577400.5864                                   23577394.7304
                                                                        42.5004
        26.5004
   7227239.16046   5667677.26243
                  23902034.7664                                   23902030.0044
                                                                        41.7504
        22.0004
   8111864.14847   6339785.90244
                  24003181.9304                                   24003177.6254
                                                                        43.0004
        26.5004
  -3613366.40247  -2797819.42244
                  22771447.1414                                   22771443.1024
                                                                        44.0004
        28.5004
 09 10  5  1 17 30.0000000  0 10G02G04G05G13G29G10G23G16G07G25
 -15310227.39148 -11858163.98046
                  20940115.2974                                   20940109.6484
                                                                        51.5004
        40.7504
   4433998.19547   3499744.18445
                  23207953.1094                                   23207950.1724
                                                                        46.2504
        32.0004
 -10373019.62148  -8063461.20346
                  22070359.7274                                   22070356.4304
                                                                        49.5004
        38.7504
 -20154198.10248 -15625264.09046
                  21544608.2344                                   21544604.4304
                                                                        49.5004
        36.0004
 -12572758.89548  -9753604.82046
                  22295468.7344                                   22295465.3714
                                                                        48.5004
        37.0004
 -14954079.89148 -11632667.68746
                  21414143.9614                                   21414140.6844
                                                                        50.0004
        39.2504
   -185641.91846    -90148.60543
                  23880286.9304                                   23880281.1764
                                                                        41.7504
        23.0004
   8664804.60246   6787858.13743
                  24175594.1094                                   24175589.2854
                                                                        38.5004
        19.7504
   9510473.74246   7429611.80544
                  24269327.2034                                   24269324.1024
                                                                        41.7504
        26.7504
  -2170215.37147  -1673286.10944
                  23046069.0704                                   23046065.9654
                                                                        42.7504
        28.0004
