     2.11           OBSERVATION DATA    G (GPS)             RINEX VERSION / TYPE
teqc  2019Feb25                         20221121 12:28:11UTCPGM / RUN BY / DATE
OSX ker:10.11.6|Core i5|gcc 4.3 -m64|OSX ker:10.10+|=+      COMMENT
BIT 2 OF LLI FLAGS DATA COLLECTED UNDER A/S CONDITION       COMMENT
04712830                                                    MARKER NAME
2830                                                        MARKER NUMBER
-Unknown-           -Unknown-                               OBSERVER / AGENCY
0220400471          TRIMBLE R7          2.30                REC # / TYPE / VERS
-Unknown-           TRM39105.00     NONE                    ANT # / TYPE
  1449460.7510 -1709239.8639  5952443.2503                  APPROX POSITION XYZ
        0.0000        0.0000        0.0000                  ANTENNA: DELTA H/E/N
     1     1                                                WAVELENGTH FACT L1/2
    20    L1    L2    L5    L6    L7    L8    C1    P1    C2# / TYPES OF OBSERV
          P2    C5    C6    C7    C8    S1    S2    S5    S6# / TYPES OF OBSERV
          S7    S8                                          # / TYPES OF OBSERV
    30.0000                                                 INTERVAL
    15                                                      LEAP SECONDS
Forced Modulo Decimation to 30 seconds                      COMMENT
 SNR is mapped to RINEX snr flag value [0-9]                COMMENT
  L1 & L2: min(max(int(snr_dBHz/6), 0), 9)                  COMMENT
teqc edited: Beidou # 1 - 37 excluded                       COMMENT
  2009    10    10     0     0    0.0000000     GPS         TIME OF FIRST OBS
                                                            END OF HEADER
 09 10 10  0  0  0.0000000  0  9G02G04G05G13G29G10G23G30G31
 -14441535.59448 -11183641.23447
                  20566743.6024                                   20566738.2074
                                                                        52.0004
        43.2504
  -5931906.53548  -4590731.13746
                  21289824.5234                                   21289821.7624
                                                                        52.5004
        40.7504
  -2555759.74646  -1946836.09444
                  24163038.3204                                   24163035.8484
                                                                        40.7504
        27.5004
 -16630078.77048 -12879917.11746
                  21491252.8984                                   21491248.5354
                                                                        51.0004
        36.5004
  -9587419.35547  -7455248.91045
                  23566987.2974                                   23566985.1764
                                                                        43.5004
        31.5004
  -8670216.95347  -6739314.72745
                  23323809.1094                                   23323806.2774
                                                                        44.2504
        30.7504
  -8270417.23848  -6398557.44945
                  22179012.9454                                   22179006.4964
                                                                        49.7504
        33.7504
  -5194414.48847  -4014352.93044
                  23421247.6024                                   23421244.7974
                                                                        43.7504
        28.0004
  -5858800.58647  -4530635.49643
                  24413785.4144                                   24413781.0944
                                                                        42.0004
        22.7504
 09 10 10  0  0 30.0000000  0  9G02G04G05G13G29G10G23G30G31
 -14555336.20348 -11272317.04347
                  20545087.9924                                   20545082.4804
                                                                        52.5004
        43.2504
  -5962711.60548  -4614735.07846
                  21283962.4614                                   21283959.2344
                                                                        52.0004
        40.5004
  -2763523.50047  -2108729.85544
                  24123502.5164                                   24123498.9344
                                                                        42.2504
        28.5004
 -16762928.21148 -12983436.15246
                  21465972.4064                                   21465968.0434
                                                                        51.5004
        36.5004
  -9769554.71547  -7597172.54345
                  23532328.3204                                   23532325.7974
                                                                        44.0004
        32.2504
  -8875734.31247  -6899458.11345
                  23284700.6644                                   23284697.6374
                                                                        44.5004
        30.0004
  -8318986.62148  -6436403.73845
                  22169770.2894                                   22169764.2934
                                                                        49.2504
        34.5004
  -5214695.30147  -4030156.17244
                  23417388.2424                                   23417385.4534
                                                                        43.2504
        27.5004
  -5888205.21147  -4553548.17644
                  24408190.5784                                   24408185.9304
                                                                        42.5004
        24.5004
 09 10 10  0  1  0.0000000  0  9G02G04G05G13G29G10G23G30G31
 -14668556.50448 -11360540.65647
                  20523542.9774                                   20523537.5434
                                                                        52.0004
        43.5004
  -5993039.87548  -4638367.50446
                  21278191.3834                                   21278188.2424
                                                                        52.2504
        40.2504
  -2971126.46947  -2270498.37944
                  24083997.4774                                   24083993.5944
                                                                        42.0004
        29.7504
 -16895125.87548 -13086447.31246
                  21440815.9614                                   21440811.7894
                                                                        50.7504
        36.7504
  -9951317.54747  -7738805.88345
                  23497740.4694                                   23497737.1414
                                                                        44.5004
        31.7504
  -9081006.28947  -7059410.29745
                  23245638.8284                                   23245635.1054
                                                                        43.0004
        31.0004
  -8366968.22748  -6473792.01245
                  22160639.8834                                   22160634.4414
                                                                        50.0004
        34.0004
  -5234470.44147  -4045565.40244
                  23413624.5554                                   23413622.1374
                                                                        43.0004
        27.7504
  -5917136.42647  -4576091.96543
                  24402684.9224                                   24402680.5784
                                                                        43.0004
        23.0004
 09 10 10  0  1 30.0000000  0  9G02G04G05G13G29G10G23G30G31
 -14781192.02048 -11448308.58247
                  20502109.0944                                   20502104.0354
                                                                        52.2504
        43.7504
  -6022889.07848  -4661626.62546
                  21272511.7194                                   21272508.4304
                                                                        52.2504
        41.0004
  -3178562.65247  -2432136.94145
                  24044523.5944                                   24044519.5354
                                                                        43.2504
        30.0004
 -17026666.53148 -13188946.53146
                  21415784.7274                                   21415780.2974
                                                                        51.2504
        37.0004
 -10132701.28047  -7880143.80345
                  23463223.4224                                   23463220.8834
                                                                        43.2504
        30.7504
  -9286026.64147  -7219166.39144
                  23206624.0314                                   23206621.0204
                                                                        43.0004
        28.2504
  -8414359.96948  -6510720.64145
                  22151621.5394                                   22151615.8094
                                                                        49.0004
        33.0004
  -5253739.13347  -4060579.98044
                  23409957.9224                                   23409955.8714
                                                                        43.5004
        27.2504
  -5945592.58247  -4598265.62144
                  24397269.8984                                   24397265.9774
                                                                        43.2504
        25.2504
 09 10 10  0  2  0.0000000  0  9G02G04G05G13G29G10G23G30G31
 -14893238.74248 -11535617.71147
                  20480787.4774                                   20480782.2504
                                                                        52.5004
        43.7504
  -6052258.06248  -4684511.55146
                  21266922.8204                                   21266919.5204
                                                                        52.7504
        40.5004
  -3385827.16847  -2593641.70345
                  24005081.7344                                   24005078.8364
                                                                        43.2504
        30.0004
 -17157546.40648 -13290930.84446
                  21390879.0634                                   21390875.1564
                                                                        51.7504
        37.2504
 -10313700.50047  -8021182.12945
                  23428780.2344                                   23428777.4774
                                                                        42.5004
        30.0004
  -9490790.05547  -7378722.28544
                  23167659.2814                                   23167656.2504
                                                                        43.2504
        29.7504
  -8461160.61748  -6547188.68745
                  22142715.3984                                   22142709.5474
                                                                        49.7504
        32.7504
  -5272501.10547  -4075199.72344
                  23406388.5084                                   23406385.2934
                                                                        43.0004
        26.7504
  -5973573.24247  -4620068.75044
                  24391944.7504                                   24391941.6484
                                                                        42.2504
        26.5004
 09 10 10  0  2 30.0000000  0  9G02G04G05G13G29G10G23G30G31
 -15004697.69148 -11622468.84047
                  20459577.3054                                   20459572.0704
                                                                        52.5004
        43.7504
  -6081150.35248  -4707025.02746
                  21261424.4924                                   21261421.4694
                                                                        52.2504
        40.7504
  -3592919.98047  -2755012.70745
                  23965673.7664                                   23965670.5944
                                                                        43.0004
        30.7504
 -17287765.72748 -13392400.43746
                  21366099.3674                                   21366095.5084
                                                                        51.7504
        37.0004
 -10494314.78547  -8161920.53144
                  23394410.5704                                   23394407.2854
                                                                        43.2504
        29.5004
  -9695296.50847  -7538077.90245
                  23128743.3204                                   23128740.0204
                                                                        44.7504
        30.0004
  -8507373.67648  -6583198.85545
                  22133921.3834                                   22133915.5354
                                                                        49.5004
        32.5004
  -5290761.16047  -4089428.35944
                  23402912.8284                                   23402910.0984
                                                                        42.2504
        26.0004
  -6001082.77746  -4641504.77344
                  24386710.1644                                   24386707.5164
                                                                        41.7504
        25.7504
 09 10 10  0  3  0.0000000  0  9G02G04G05G13G29G10G23G30G31
 -15115568.05548 -11708861.32847
                  20438479.4454                                   20438474.1764
                                                                        52.5004
        43.5004
  -6109567.66448  -4729168.38346
                  21256016.6884                                   21256013.9224
                                                                        51.5004
        40.2504
  -3799839.08247  -2916248.31645
                  23926298.5004                                   23926294.6954
                                                                        43.5004
        30.0004
 -17417323.35548 -13493354.43446
                  21341445.3524                                   21341441.3324
                                                                        51.0004
        36.5004
 -10674541.79747  -8302357.14144
                  23360114.3834                                   23360111.7504
                                                                        42.0004
        29.2504
  -9899543.18747  -7697231.16445
                  23089876.6954                                   23089873.5274
                                                                        45.5004
        32.0004
  -8553000.70748  -6618752.39845
                  22125239.2424                                   22125233.5594
                                                                        49.0004
        33.5004
  -5308522.23447  -4103268.15644
                  23399533.1094                                   23399530.4884
                                                                        42.5004
        27.5004
  -6028123.33246  -4662575.40244
                  24381564.8204                                   24381561.5274
                                                                        41.7504
        26.0004
 09 10 10  0  3 30.0000000  0  9G02G04G05G13G29G10G23G30G31
 -15225851.58648 -11794796.54347
                  20417493.3674                                   20417487.5984
                                                                        52.5004
        43.2504
  -6137513.96948  -4750944.73446
                  21250698.6254                                   21250696.0744
                                                                        51.5004
        40.0004
  -4006584.87947  -3077348.93444
                  23886955.6024                                   23886952.4494
                                                                        44.2504
        29.7504
 -17546220.32848 -13593793.63346
                  21316917.0084                                   21316912.9844
                                                                        51.0004
        37.0004
 -10854381.05947  -8442491.60545
                  23325892.5004                                   23325889.4804
                                                                        43.5004
        31.0004
 -10103530.87547  -7856182.57845
                  23051058.7194                                   23051055.7894
                                                                        44.7504
        32.5004
  -8598045.94948  -6653852.59045
                  22116667.7194                                   22116661.1094
                                                                        48.5004
        32.5004
  -5325789.21947  -4116722.94544
                  23396247.8444                                   23396244.4694
                                                                        43.7504
        26.5004
  -6054699.45746  -4683284.09044
                  24376507.1644                                   24376504.3914
                                                                        41.2504
        27.5004
 09 10 10  0  4  0.0000000  0  9G02G04G05G13G29G10G23G30G31
 -15335547.16048 -11880273.62147
                  20396618.9304                                   20396613.4064
                                                                        52.2504
        43.7504
  -6164990.49648  -4772355.02046
                  21245470.2664                                   21245467.5394
                                                                        51.7504
        40.5004
  -4213154.76647  -3238312.43445
                  23847646.8984                                   23847643.8634
                                                                        44.5004
        30.0004
 -17674454.93048 -13693716.68446
                  21292514.6334                                   21292510.6764
                                                                        50.7504
        36.5004
 -11033829.46547  -8582321.50845
                  23291744.8284                                   23291742.1214
                                                                        44.0004
        31.5004
 -10307256.67647  -8014929.91445
                  23012290.5864                                   23012287.9304
                                                                        45.0004
        31.5004
  -8642510.44148  -6688500.24245
                  22108205.5634                                   22108200.1174
                                                                        48.7504
        33.2504
  -5342564.68747  -4129794.73444
                  23393055.2504                                   23393052.4264
                                                                        43.5004
        27.2504
  -6080813.00847  -4703632.37944
                  24371538.4144                                   24371535.5744
                                                                        42.0004
        27.2504
 09 10 10  0  4 30.0000000  0  9G02G04G05G13G29G10G23G30G31
 -15444653.60248 -11965291.62147
                  20375856.8754                                   20375851.4064
                                                                        52.5004
        44.0004
  -6191998.73048  -4793400.40646
                  21240330.5864                                   21240327.6214
                                                                        51.7504
        40.7504
  -4419546.55547  -3399137.16845
                  23808371.6804                                   23808368.3674
                                                                        44.7504
        30.5004
 -17802026.08248 -13793122.75846
                  21268238.5164                                   21268235.1174
                                                                        51.0004
        37.0004
 -11212884.90647  -8721845.21545
                  23257671.1564                                   23257668.6094
                                                                        44.2504
        32.0004
 -10510718.21147  -8173471.35945
                  22973573.6094                                   22973570.5274
                                                                        45.5004
        30.5004
  -8686396.18448  -6722696.93045
                  22099854.7584                                   22099849.0354
                                                                        49.2504
        33.5004
  -5358851.48047  -4142485.75044
                  23389955.5164                                   23389953.0634
                                                                        42.0004
        26.7504
  -6106466.17247  -4723621.86744
                  24366656.6804                                   24366653.2344
                                                                        42.2504
        27.0004
 09 10 10  0  5  0.0000000  0  9G02G04G05G13G29G10G23G30G31
 -15553169.32048 -12049849.34047
                  20355206.9384                                   20355201.1764
                                                                        52.5004
        43.5004
  -6218539.66848  -4814081.66046
                  21235280.1954                                   21235277.6724
                                                                        51.5004
        40.0004
  -4625757.53547  -3559821.00845
                  23769130.6884                                   23769127.7234
                                                                        43.2504
        30.0004
 -17928931.29348 -13892009.93046
                  21244089.3914                                   21244085.6214
                                                                        51.7504
        36.0004
 -11391543.60947  -8861059.77345
                  23223674.3054                                   23223671.1294
                                                                        44.5004
        32.0004
 -10713912.44147  -8331804.51244
                  22934906.0554                                   22934903.3324
                                                                        43.7504
        29.2504
  -8729703.74248  -6756443.08645
                  22091613.3834                                   22091607.3984
                                                                        49.5004
        33.7504
  -5374651.45347  -4154797.41444
                  23386949.4694                                   23386946.4884
                                                                        42.5004
        27.0004
  -6131660.59047  -4743253.89144
                  24361862.1254                                   24361859.0004
                                                                        42.0004
        25.0004
 09 10 10  0  5 30.0000000  0  9G02G04G05G13G29G10G23G30G31
 -15661096.45348 -12133948.39147
                  20334669.0554                                   20334663.6024
                                                                        52.7504
        43.7504
  -6244617.79348  -4834402.30146
                  21230317.9774                                   21230315.0744
                                                                        51.0004
        40.0004
  -4831788.71147  -3720364.77745
                  23729924.2034                                   23729921.9144
                                                                        42.5004
        30.7504
 -18055172.75848 -13990379.90246
                  21220066.3594                                   21220062.5434
                                                                        51.5004
        37.0004
 -11569806.12547  -8999965.60545
                  23189751.7274                                   23189748.6414
                                                                        43.0004
        31.7504
 -10916840.05547  -8489929.91445
                  22896290.8134                                   22896287.9774
                                                                        45.0004
        30.7504
  -8772438.00848  -6789742.50045
                  22083481.8674                                   22083475.7034
                                                                        49.0004
        32.5004
  -5389970.29747  -4166734.18044
                  23384034.3674                                   23384031.4924
                                                                        42.5004
        27.2504
  -6156401.09446  -4762532.21543
                  24357154.8364                                   24357151.1024
                                                                        40.0004
        23.0004
 09 10 10  0  6  0.0000000  0  9G02G04G05G13G29G10G23G30G31
 -14193008.73448 -10989983.93447
                  20614036.6334                                   20614031.4414
                                                                        53.0004
        43.5004
  -4694811.85948  -3626761.32846
                  21525236.0314                                   21525232.7934
                                                                        51.0004
        40.0004
  -3462209.12547  -2653159.86745
                  23990547.0634                                   23990543.8634
                                                                        44.5004
        31.2504
 -16605322.77048 -12860626.66446
                  21495963.8364                                   21495959.9024
                                                                        51.5004
        37.2504
 -10172241.89847  -7910954.49645
                  23455699.1724                                   23455696.8014
                                                                        43.7504
        31.7504
  -9544069.38347  -7420238.48045
                  23157520.8364                                   23157517.2704
                                                                        46.0004
        32.0004
  -7239177.17248  -5594993.80945
                  22375251.5004                                   22375245.6524
                                                                        49.0004
        33.0004
  -3829388.43446  -2950696.39544
                  23681003.4454                                   23681000.8364
                                                                        41.5004
        27.0004
  -4605267.23847  -3553856.44144
                  24652325.6724                                   24652321.0634
                                                                        42.0004
        24.5004
 09 10 10  0  6 30.0000000  0  9G02G04G05G13G29G10G23G30G31
 -14299754.02048 -11073162.08247
                  20593723.8444                                   20593718.2304
                                                                        53.0004
        43.5004
  -4719966.63748  -3646362.45346
                  21520448.9844                                   21520446.3754
                                                                        51.5004
        40.2504
  -3667871.40647  -2813416.14545
                  23951410.7894                                   23951407.6604
                                                                        45.2504
        32.0004
 -16730230.23848 -12957957.15646
                  21472194.4924                                   21472190.6134
                                                                        51.5004
        36.7504
 -10349701.65247  -8049234.82045
                  23421929.0944                                   23421926.5944
                                                                        42.5004
        31.2504
  -9746453.50447  -7577940.40645
                  23119008.0234                                   23119004.7424
                                                                        46.0004
        31.5004
  -7280767.09448  -5627401.54345
                  22367337.0394                                   22367331.0044
                                                                        49.2504
        33.2504
  -3843750.97747  -2961888.02344
                  23678270.4144                                   23678267.4344
                                                                        43.2504
        26.5004
  -4629104.48447  -3572430.87544
                  24647789.1954                                   24647784.9224
                                                                        43.5004
        26.0004
 09 10 10  0  7  0.0000000  0  9G02G04G05G13G29G10G23G30G31
 -14405907.12148 -11155878.78947
                  20573523.7194                                   20573518.2854
                                                                        53.0004
        43.2504
  -4744662.60948  -3665606.08646
                  21515749.6024                                   21515746.8134
                                                                        50.7504
        39.5004
  -3873346.43447  -2973526.55544
                  23912309.6094                                   23912306.9844
                                                                        43.5004
        29.7504
 -16854469.19548 -13054766.74646
                  21448552.7274                                   21448548.8364
                                                                        51.5004
        37.0004
 -10526756.21947  -8187199.40245
                  23388236.7894                                   23388234.4964
                                                                        43.5004
        30.5004
  -9948562.87547  -7735428.21945
                  23080548.0704                                   23080545.2424
                                                                        44.5004
        31.5004
  -7321787.64848  -5659365.63345
                  22359531.1254                                   22359525.1884
                                                                        49.2504
        33.0004
  -3857640.25047  -2972710.85244
                  23675627.3524                                   23675624.4384
                                                                        42.7504
        26.7504
  -4652493.63346  -3590656.19543
                  24643338.7814                                   24643334.1844
                                                                        41.2504
        23.2504
 09 10 10  0  7 30.0000000  0  9G02G04G05G13G29G10G23G30G31
 -14511468.39848 -11238134.33247
                  20553435.8524                                   20553430.0634
                                                                        52.7504
        43.5004
  -4768902.07848  -3684493.99646
                  21511137.1414                                   21511134.0474
                                                                        51.0004
        39.7504
  -4078632.93747  -3133490.03945
                  23873245.3984                                   23873241.6094
                                                                        44.5004
        31.0004
 -16978039.01248 -13151054.91046
                  21425038.2274                                   21425034.4454
                                                                        50.7504
        37.0004
 -10703404.34847  -8324847.27345
                  23354621.9774                                   23354619.7774
                                                                        43.0004
        30.0004
 -10150395.75847  -7892700.54745
                  23042140.4844                                   23042137.7704
                                                                        45.0004
        32.5004
  -7362241.60248  -5690888.20745
                  22351832.7114                                   22351827.1024
                                                                        48.7504
        32.5004
  -3871059.85947  -2983167.69144
                  23673073.6254                                   23673070.8794
                                                                        43.0004
        27.2504
  -4675438.27346  -3608535.13343
                  24638972.2344                                   24638968.4414
                                                                        38.7504
        22.5004
 09 10 10  0  8  0.0000000  0  9G02G04G05G13G29G10G23G30G31
 -14616435.23448 -11319926.67247
                  20533461.5084                                   20533456.0204
                                                                        53.0004
        43.2504
  -4792684.78148  -3703025.97746
                  21506611.1334                                   21506608.1484
                                                                        50.0004
        40.0004
  -4283726.71147  -3293303.36345
                  23834217.6334                                   23834213.7734
                                                                        44.0004
        30.2504
 -17100936.87948 -13246819.47346
                  21401651.4614                                   21401647.2934
                                                                        50.5004
        37.0004
 -10879640.97347  -8462174.49645
                  23321085.4774                                   23321082.6954
                                                                        44.0004
        30.7504
 -10351947.94147  -8049754.18445
                  23003786.1804                                   23003783.4224
                                                                        46.0004
        33.0004
  -7402128.50448  -5721968.92645
                  22344242.4614                                   22344237.2704
                                                                        48.5004
        32.7504
  -3884010.38347  -2993259.01644
                  23670608.9304                                   23670606.6684
                                                                        43.0004
        27.2504
  -4697937.89146  -3626067.33643
                  24634690.9224                                   24634686.8754
                                                                        39.5004
        22.5004
 09 10 10  0  8 30.0000000  0  9G02G04G05G13G29G10G23G30G31
 -14720811.37148 -11401258.73847
                  20513599.3134                                   20513593.7624
                                                                        52.5004
        43.5004
  -4816016.80148  -3721206.77746
                  21502171.3364                                   21502168.2384
                                                                        51.2504
        39.7504
  -4488630.00447  -3452968.21945
                  23795225.0164                                   23795221.9304
                                                                        44.5004
        30.0004
 -17223166.32048 -13342063.20346
                  21378391.9304                                   21378387.9844
                                                                        50.2504
        37.2504
 -11055468.32047  -8599182.82445
                  23287627.1724                                   23287623.5744
                                                                        46.2504
        32.0004
 -10553221.72747  -8206590.87945
                  22965485.0944                                   22965482.3874
                                                                        46.0004
        32.5004
  -7441454.84848  -5752612.85545
                  22336759.1334                                   22336753.4964
                                                                        49.2504
        32.5004
  -3896499.25847  -3002990.60544
                  23668232.8204                                   23668229.9574
                                                                        43.2504
        25.2504
  -4719999.80546  -3643258.53143
                  24630491.8364                                   24630488.4304
                                                                        37.0004
        22.0004
 09 10 10  0  9  0.0000000  0  9G02G04G05G13G29G10G23G30G31
 -14824596.48048 -11482130.25047
                  20493849.6334                                   20493844.1954
                                                                        53.0004
        43.5004
  -4838900.23448  -3739038.02046
                  21497816.8364                                   21497813.8634
                                                                        49.2504
        39.2504
  -4693341.83647  -3612483.91445
                  23756270.1024                                   23756266.8444
                                                                        43.5004
        31.5004
 -17344726.48848 -13436785.41046
                  21355259.8364                                   21355255.9654
                                                                        51.0004
        37.0004
 -11230884.28147  -8735870.59045
                  23254246.1644                                   23254243.1804
                                                                        45.5004
        31.7504
 -10754215.09847  -8363209.07845
                  22927237.1804                                   22927234.1094
                                                                        46.2504
        31.7504
  -7480222.76248  -5782821.62545
                  22329382.3674                                   22329376.0634
                                                                        49.5004
        33.0004
  -3908530.05147  -3012365.22744
                  23665943.1724                                   23665940.1684
                                                                        43.2504
        25.5004
  -4741626.91446  -3660110.87144
                  24626377.4924                                   24626373.1414
                                                                        41.0004
        25.0004
 09 10 10  0  9 30.0000000  0 10G02G04G05G13G29G10G23G30G31G25
 -14927790.85248 -11562541.44147
                  20474212.1724                                   20474206.6884
                                                                        53.0004
        43.5004
  -4861338.17648  -3756522.12546
                  21493547.0784                                   21493543.9144
                                                                        50.5004
        39.0004
  -4897860.81647  -3771849.33645
                  23717350.8284                                   23717347.9534
                                                                        44.2504
        31.5004
 -17465617.63748 -13530986.28946
                  21332254.9694                                   21332251.0784
                                                                        51.5004
        36.7504
 -11405887.25847  -8872236.51645
                  23220943.6094                                   23220941.2544
                                                                        45.5004
        31.5004
 -10954927.18047  -8519608.09845
                  22889042.5784                                   22889039.7504
                                                                        45.2504
        32.2504
  -7518435.29748  -5812597.64145
                  22322110.3834                                   22322104.3524
                                                                        48.7504
        32.0004
  -3920106.63747  -3021385.94944
                  23663740.6484                                   23663737.1094
                                                                        43.5004
        26.5004
  -4762822.34846  -3676626.80944
                  24622343.1254                                   24622339.7894
                                                                        41.7504
        25.5004
   1347266.88756   1089039.90653
                  24228480.4614                                   24228478.1684
                                                                        38.7504
        21.2504
 09 10 10  0 10  0.0000000  0 10G02G04G05G13G29G10G23G30G31G25
 -15030395.43748 -11642493.05947
                  20454687.5084                                   20454681.9384
                                                                        53.2504
        43.2504
  -4883333.50448  -3773661.31246
                  21489361.4224                                   21489358.1094
                                                                        50.0004
        39.7504
  -5102186.67247  -3931064.25445
                  23678469.8754                                   23678466.1094
                                                                        44.0004
        32.2504
 -17585840.09848 -13624666.12946
                  21309377.2894                                   21309373.3834
                                                                        51.5004
        37.2504
 -11580476.70347  -9008280.21545
                  23187720.6954                                   23187717.5434
                                                                        45.0004
        31.7504
 -11155356.85247  -8675787.03145
                  22850902.5554                                   22850899.1724
                                                                        44.5004
        31.0004
  -7556095.77348  -5841943.46545
                  22314943.6804                                   22314937.9804
                                                                        48.5004
        32.5004
  -3931233.43047  -3030056.18044
                  23661622.5474                                   23661619.7274
                                                                        43.0004
        27.0004
  -4783590.25847  -3692809.59444
                  24618391.8364                                   24618388.6724
                                                                        42.7504
        26.5004
   1163605.27346    945927.14543
                  24193530.4384                                   24193528.6094
                                                                        39.5004
        20.0004
 09 10 10  0 10 30.0000000  0  9G02G04G05G13G29G10G23G30G25
 -15132416.86348 -11721990.27347
                  20435273.0634                                   20435267.6684
                                                                        52.7504
        43.5004
  -4904895.49248  -3790462.85946
                  21485258.3834                                   21485255.2664
                                                                        49.7504
        39.2504
  -5306324.40247  -4090132.57445
                  23639623.3134                                   23639620.0554
                                                                        44.5004
        32.2504
 -17705400.65648 -13717830.22746
                  21286625.8134                                   21286621.6294
                                                                        51.5004
        37.0004
 -11754656.72747  -9144004.89145
                  23154575.3754                                   23154572.1054
                                                                        45.2504
        31.5004
 -11355509.30947  -8831749.94945
                  22812814.5164                                   22812811.6994
                                                                        45.0004
        32.0004
  -7593213.17648  -5870866.13345
                  22307881.0634                                   22307875.1214
                                                                        48.5004
        33.0004
  -3941920.45747  -3038383.74244
                  23659589.3674                                   23659585.7504
                                                                        43.5004
        26.0004
    980236.07846    803042.19143
                  24158637.2664                                   24158634.0434
                                                                        40.5004
        20.7504
 09 10 10  0 11  0.0000000  0  9G02G04G05G13G29G10G23G30G25
 -15233853.40648 -11801031.72747
                  20415970.4304                                   20415965.0434
                                                                        52.7504
        43.5004
  -4926024.62948  -3806927.11346
                  21481238.0164                                   21481234.3914
                                                                        50.2504
        39.5004
  -5510270.48047  -4249051.57445
                  23600813.5004                                   23600810.4964
                                                                        45.7504
        33.2504
 -17824296.46148 -13810476.31646
                  21264000.7504                                   21263996.7034
                                                                        50.7504
        37.2504
 -11928423.96147  -9279407.91045
                  23121508.5864                                   23121505.5704
                                                                        45.0004
        32.0004
 -11555380.96947  -8987494.07845
                  22774780.5164                                   22774777.6134
                                                                        45.5004
        33.7504
  -7629788.21148  -5899366.16445
                  22300921.0314                                   22300915.1054
                                                                        48.0004
        33.0004
  -3952169.68047  -3046370.17244
                  23657638.5784                                   23657636.3524
                                                                        42.2504
        26.2504
    797163.22346    660388.03143
                  24123799.2274                                   24123796.6954
                                                                        41.2504
        22.0004
 09 10 10  0 11 30.0000000  0  9G02G04G05G13G29G10G23G30G25
 -15334696.56248 -11879610.81647
                  20396780.7424                                   20396775.1914
                                                                        53.2504
        43.5004
  -4946714.76648  -3823049.31246
                  21477300.7344                                   21477297.6484
                                                                        51.5004
        39.5004
  -5714014.80947  -4407813.37145
                  23562042.7734                                   23562038.7234
                                                                        45.5004
        32.0004
 -17942519.03948 -13902597.82446
                  21241503.8134                                   21241499.8054
                                                                        51.0004
        37.5004
 -12101768.34847  -9414481.42645
                  23088521.5634                                   23088519.8164
                                                                        44.5004
        32.5004
 -11754961.41847  -9143011.28545
                  22736801.1564                                   22736798.2274
                                                                        46.0004
        33.2504
  -7665815.14848  -5927439.10545
                  22294064.7814                                   22294059.3444
                                                                        49.2504
        31.5004
  -3961975.76247  -3054011.29344
                  23655772.6884                                   23655769.7734
                                                                        43.7504
        24.7504
    614397.06647    517972.44143
                  24089020.6954                                   24089017.9884
                                                                        42.0004
        21.7504
 09 10 10  0 12  0.0000000  0  9G02G04G05G13G29G10G23G30G25
 -15434935.03948 -11957718.71947
                  20377705.9534                                   20377700.6174
                                                                        53.0004
        43.5004
  -4966956.59048  -3838822.17246
                  21473448.7504                                   21473445.8444
                                                                        50.7504
        39.0004
  -5917544.88747  -4566408.25845
                  23523312.0864                                   23523308.2274
                                                                        45.2504
        30.7504
 -18060056.74648 -13994185.64546
                  21219137.1804                                   21219133.1644
                                                                        50.7504
        37.5004
 -12274675.89847  -9549214.57045
                  23055619.2664                                   23055616.2274
                                                                        44.2504
        32.7504
 -11954237.98847  -9298291.71545
                  22698880.4614                                   22698877.4694
                                                                        46.0004
        33.2504
  -7701284.84048  -5955077.82845
                  22287315.3674                                   22287309.2934
                                                                        48.7504
        32.2504
  -3971331.32447  -3061301.35244
                  23653992.3054                                   23653989.1644
                                                                        43.0004
        24.5004
    431953.03146    375808.38744
                  24054302.0864                                   24054299.2384
                                                                        41.2504
        24.2504
 09 10 10  0 12 30.0000000  0  9G02G04G05G13G29G10G23G30G25
 -15534569.44548 -12035355.91047
                  20358746.0784                                   20358740.7504
                                                                        53.0004
        43.2504
  -4986753.34448  -3854248.21146
                  21469681.4924                                   21469678.9184
                                                                        50.7504
        40.0004
  -6120859.80547  -4724835.44545
                  23484622.0704                                   23484618.5314
                                                                        44.0004
        30.5004
 -18176909.99648 -14085240.12946
                  21196900.9774                                   21196896.8794
                                                                        49.7504
        37.2504
 -12447145.85947  -9683606.73045
                  23022799.1884                                   23022796.1374
                                                                        44.5004
        32.2504
 -12153209.35947  -9453334.34045
                  22661017.7274                                   22661014.2814
                                                                        46.5004
        33.0004
  -7736200.67648  -5982284.96545
                  22280671.5164                                   22280664.9184
                                                                        48.2504
        32.5004
  -3980240.53547  -3068243.59844
                  23652297.2584                                   23652294.0514
                                                                        42.2504
        25.2504
    249831.47346    233895.46943
                  24019645.9454                                   24019643.0274
                                                                        41.5004
        22.5004
 09 10 10  0 13  0.0000000  0  9G02G04G05G13G29G10G23G30G25
 -15633600.75848 -12112523.16047
                  20339901.2894                                   20339896.1294
                                                                        53.2504
        43.5004
  -5006108.41848  -3869330.13746
                  21465998.1414                                   21465995.6414
                                                                        49.5004
        39.0004
  -6323959.43747  -4883094.85945
                  23445973.4384                                   23445970.6334
                                                                        43.0004
        31.5004
 -18293079.64148 -14175761.93446
                  21174794.1334                                   21174790.4574
                                                                        50.5004
        37.0004
 -12619177.32447  -9817657.21145
                  22990062.8364                                   22990059.0824
                                                                        45.2504
        32.5004
 -12351874.84447  -9608138.62145
                  22623212.7664                                   22623209.7154
                                                                        46.5004
        33.2504
  -7770566.19148  -6009063.28145
                  22274131.4924                                   22274124.9534
                                                                        48.7504
        31.0004
  -3988707.88347  -3074841.53144
                  23650686.3054                                   23650682.8054
                                                                        46.0004
        27.5004
     68034.44946     92235.77043
                  23985051.1174                                   23985047.4924
                                                                        41.5004
        22.7504
 09 10 10  0 13 30.0000000  0  9G02G04G05G13G29G10G23G30G25
 -15732028.87548 -12189220.37947
                  20321170.7034                                   20321165.2304
                                                                        53.7504
        44.0004
  -5025023.60548  -3884069.30146
                  21462398.8834                                   21462395.8204
                                                                        51.7504
        39.2504
  -6526841.39547  -5041184.67245
                  23407366.2814                                   23407363.5904
                                                                        43.2504
        32.0004
 -18408564.90248 -14265750.45746
                  21152818.2894                                   21152813.8874
                                                                        50.5004
        36.7504
 -12790767.83647  -9951364.11345
                  22957410.2194                                   22957406.6484
                                                                        45.2504
        32.2504
 -12550232.69147  -9762703.17245
                  22585466.4924                                   22585463.1484
                                                                        46.5004
        32.2504
  -7804383.15648  -6035414.15245
                  22267696.0314                                   22267690.3794
                                                                        48.5004
        32.0004
  -3996736.39547  -3081097.52344
                  23649158.2424                                   23649155.2814
                                                                        45.7504
        27.2504
   -113436.22346    -49169.80143
                  23950517.1094                                   23950515.3984
                                                                        40.7504
        22.7504
 09 10 10  0 14  0.0000000  0  9G02G04G05G13G29G10G23G30G25
 -15829858.89548 -12265451.57047
                  20302554.4844                                   20302548.7734
                                                                        53.2504
        43.7504
  -5043506.22748  -3898471.31246
                  21458881.8444                                   21458878.9734
                                                                        51.5004
        39.5004
  -6729509.69147  -5199108.00045
                  23368800.3984                                   23368797.0554
                                                                        44.7504
        33.0004
 -18523370.39848 -14355209.29746
                  21130971.5314                                   21130967.3364
                                                                        50.5004
        37.2504
 -12961920.87947 -10084730.10245
                  22924840.9844                                   22924837.7074
                                                                        43.7504
        32.5004
 -12748286.07847  -9917030.46145
                  22547778.5004                                   22547775.0554
                                                                        47.0004
        32.2504
  -7837659.49647  -6061343.77345
                  22261363.8914                                   22261358.1454
                                                                        47.7504
        32.0004
  -4004335.03147  -3087018.56244
                  23647712.4064                                   23647709.4264
                                                                        45.5004
        26.2504
   -294583.59446   -190323.77643
                  23916046.5314                                   23916043.7114
                                                                        41.5004
        21.2504
 09 10 10  0 14 30.0000000  0  9G02G04G05G13G29G10G23G30G25
 -14351670.55948 -11113616.50447
                  20583844.4844                                   20583838.8364
                                                                        53.2504
        43.5004
  -3486141.59048  -2684940.41846
                  21755238.5084                                   21755235.3204
                                                                        50.2504
        39.2504
  -5356538.58647  -4129260.35545
                  23630067.9614                                   23630064.9654
                                                                        46.5004
        34.5004
 -17062076.21148 -13216538.50446
                  21409046.5394                                   21409042.5004
                                                                        50.5004
        37.2504
 -11557211.70747  -8990151.48845
                  23192147.8984                                   23192144.9414
                                                                        44.0004
        32.5004
 -11370609.37947  -8843516.15645
                  22809941.0084                                   22809937.9264
                                                                        46.5004
        33.5004
  -6294980.18047  -4859256.00445
                  22554926.0554                                   22554920.3794
                                                                        47.2504
        31.7504
  -2436090.27347  -1865009.64544
                  23946139.6174                                   23946136.6724
                                                                        45.2504
        25.5004
   1100018.09847    896378.79343
                  24181430.2734                                   24181427.5984
                                                                        42.2504
        22.0004
 09 10 10  0 15  0.0000000  0  9G02G04G05G13G29G10G23G30G25
 -14448309.43448 -11188919.52347
                  20565454.6024                                   20565449.2154
                                                                        53.5004
        43.2504
  -3503771.47748  -2698677.98846
                  21751883.6884                                   21751880.6134
                                                                        50.7504
        38.5004
  -5558778.99647  -4286850.23045
                  23591582.3444                                   23591579.7114
                                                                        44.7504
        33.5004
 -17175527.29348 -13304941.94946
                  21387457.2274                                   21387453.3674
                                                                        50.2504
        37.0004
 -11727488.30947  -9122834.52345
                  23159744.9224                                   23159742.5634
                                                                        43.2504
        32.0004
 -11568052.88347  -8997368.21545
                  22772369.2974                                   22772365.9264
                                                                        46.5004
        33.7504
  -6327187.96947  -4884352.97745
                  22548796.8524                                   22548791.6374
                                                                        47.5004
        32.2504
  -2442844.31647  -1870272.54744
                  23944853.9534                                   23944851.4104
                                                                        43.5004
        24.0004
    919521.25447    755732.23044
                  24147082.9384                                   24147079.9534
                                                                        43.2504
        24.0004
 09 10 10  0 15 30.0000000  0  9G02G04G05G13G29G10G23G30G25
 -14544352.52748 -11263758.28947
                  20547178.0234                                   20547172.7274
                                                                        53.0004
        43.5004
  -3520978.43448  -2712085.99246
                  21748609.2584                                   21748606.0354
                                                                        50.7504
        39.5004
  -5760803.45747  -4444271.85245
                  23553138.3984                                   23553135.0514
                                                                        46.0004
        32.5004
 -17288300.66048 -13392817.28946
                  21365997.5234                                   21365993.8754
                                                                        50.2504
        37.5004
 -11897324.37947  -9255174.28545
                  23127426.5164                                   23127423.6334
                                                                        43.7504
        32.5004
 -11765189.58247  -9150981.22345
                  22734854.9774                                   22734852.3714
                                                                        46.5004
        33.7504
  -6358865.15648  -4909036.48845
                  22542769.3204                                   22542763.6054
                                                                        48.0004
        31.7504
  -2449181.81647  -1875210.89544
                  23943647.7974                                   23943645.7304
                                                                        43.2504
        24.5004
    739352.81346    615341.55144
                  24112797.8444                                   24112795.2974
                                                                        41.7504
        25.0004
 09 10 10  0 16  0.0000000  0  9G02G04G05G13G29G10G23G30G25
 -14639798.66848 -11338131.90647
                  20529015.4454                                   20529009.8244
                                                                        53.0004
        43.0004
  -3537762.80148  -2725164.71546
                  21745415.0234                                   21745412.1604
                                                                        51.2504
        38.2504
  -5962608.43047  -4601522.45345
                  23514736.3524                                   23514732.1724
                                                                        45.5004
        31.5004
 -17400394.48848 -13480163.12946
                  21344666.5234                                   21344662.6914
                                                                        49.7504
        37.0004
 -12066715.70747  -9387167.48045
                  23095192.4844                                   23095189.7234
                                                                        44.2504
        33.0004
 -11962015.17247  -9304351.79745
                  22697400.6094                                   22697397.5434
                                                                        47.0004
        33.5004
  -6390012.40248  -4933307.07045
                  22536842.7344                                   22536836.1484
                                                                        48.0004
        31.7504
  -2455103.57447  -1879825.26644
                  23942521.1804                                   23942518.9224
                                                                        43.0004
        26.5004
    559516.00446    475208.94444
                  24078576.6414                                   24078573.7504
                                                                        41.2504
        24.0004
 09 10 10  0 16 30.0000000  0  9G02G04G05G13G29G10G23G30G25
 -14734647.74648 -11412040.28147
                  20510966.1954                                   20510960.7194
                                                                        52.7504
        43.7504
  -3554127.56648  -2737916.46546
                  21742301.2504                                   21742297.9224
                                                                        50.5004
        38.5004
  -6164192.69947  -4758601.10245
                  23476375.5394                                   23476372.1994
                                                                        44.7504
        31.2504
 -17511809.02348 -13566979.65646
                  21323465.4694                                   21323461.2854
                                                                        50.2504
        37.0004
 -12235660.61347  -9518812.82445
                  23063043.1954                                   23063040.2934
                                                                        43.7504
        33.5004
 -12158528.37947  -9457478.94545
                  22660005.1804                                   22660001.6334
                                                                        47.0004
        32.5004
  -6420632.82447  -4957167.12145
                  22531015.3134                                   22531009.5084
                                                                        47.7504
        32.2504
  -2460613.93047  -1884119.07044
                  23941472.5944                                   23941469.9104
                                                                        44.0004
        24.5004
    380014.07847    335337.56344
                  24044417.5004                                   24044415.4774
                                                                        42.0004
        24.7504
 09 10 10  0 17  0.0000000  0  9G02G04G05G13G29G10G23G30G25
 -14828901.36348 -11485484.65247
                  20493030.2194                                   20493024.9924
                                                                        52.7504
        43.5004
  -3570075.87148  -2750343.73046
                  21739266.2894                                   21739263.4924
                                                                        51.7504
        39.0004
  -6365555.55547  -4915507.18745
                  23438058.2734                                   23438054.3674
                                                                        45.7504
        33.2504
 -17622544.99648 -13653267.43046
                  21302392.7734                                   21302389.0784
                                                                        50.7504
        38.0004
 -12404158.59047  -9650109.90645
                  23030979.3284                                   23030976.3164
                                                                        44.2504
        33.5004
 -12354728.82847  -9610362.40245
                  22622669.7734                                   22622666.4064
                                                                        47.2504
        33.7504
  -6450730.08647  -4980619.52745
                  22525288.2034                                   22525281.7774
                                                                        47.7504
        31.5004
  -2465717.62147  -1888095.99644
                  23940500.8524                                   23940498.4694
                                                                        42.7504
        24.2504
    200848.40646    195728.45744
                  24010323.2584                                   24010320.4064
                                                                        41.5004
        24.7504
 09 10 10  0 17 30.0000000  0  9G02G04G05G13G29G10G23G30G25
 -14922560.06648 -11558465.46547
                  20475207.8594                                   20475202.2734
                                                                        52.2504
        43.5004
  -3585610.37948  -2762448.53946
                  21736309.8834                                   21736307.2854
                                                                        51.2504
        38.7504
  -6566696.40247  -5072240.30545
                  23399782.1024                                   23399778.9384
                                                                        46.5004
        34.0004
 -17732602.91848 -13739026.85946
                  21281449.4304                                   21281445.6884
                                                                        50.2504
        37.2504
 -12572207.80547  -9781057.30145
                  22999000.5164                                   22998997.5904
                                                                        44.5004
        33.2504
 -12550614.80147  -9763000.82445
                  22585393.4224                                   22585390.5314
                                                                        46.5004
        33.5004
  -6480306.63747  -5003666.18745
                  22519659.7114                                   22519653.7274
                                                                        47.5004
        31.5004
  -2470418.25047  -1891758.81644
                  23939607.1334                                   23939603.9224
                                                                        43.5004
        25.5004
     22019.72747     56381.64544
                  23976293.2894                                   23976290.3984
                                                                        42.0004
        24.7504
 09 10 10  0 18  0.0000000  0  9G02G04G05G13G29G10G23G30G25
 -15015622.23048 -11630981.43747
                  20457498.6094                                   20457493.1764
                                                                        52.0004
        43.5004
  -3600731.99648  -2774231.64546
                  21733432.5164                                   21733429.8954
                                                                        51.7504
        39.5004
  -6767611.45347  -5228797.43045
                  23361549.6334                                   23361546.3404
                                                                        46.5004
        35.0004
 -17841981.32848 -13824256.78546
                  21260635.5944                                   21260631.4384
                                                                        49.7504
        37.7504
 -12739805.12547  -9911652.59445
                  22967107.6804                                   22967104.4024
                                                                        44.2504
        32.5004
 -12746182.95747  -9915391.59445
                  22548177.9614                                   22548175.4304
                                                                        46.0004
        34.5004
  -6509364.18747  -5026308.45745
                  22514130.0234                                   22514124.3524
                                                                        47.7504
        32.2504
  -2474718.25447  -1895109.43444
                  23938788.4614                                   23938785.5044
                                                                        43.7504
        26.2504
   -156467.74246    -82699.32843
                  23942327.7344                                   23942324.5274
                                                                        41.5004
        22.5004
 09 10 10  0 18 30.0000000  0  9G02G04G05G13G29G10G23G30G25
 -15108087.17248 -11703032.04347
                  20439903.0234                                   20439897.6254
                                                                        52.0004
        43.7504
  -3615442.06248  -2785694.06246
                  21730633.6644                                   21730630.4104
                                                                        50.2504
        38.0004
  -6968298.79747  -5385177.18445
                  23323360.0394                                   23323356.3524
                                                                        44.5004
        34.2504
 -17950678.87548 -13908956.18046
                  21239951.1334                                   21239946.7154
                                                                        49.2504
        37.2504
 -12906947.69547 -10041893.52045
                  22935301.6094                                   22935298.3404
                                                                        44.2504
        32.5004
 -12941430.71547 -10067532.68045
                  22511024.1024                                   22511020.3484
                                                                        46.2504
        34.0004
  -6537903.84847  -5048547.14845
                  22508699.3524                                   22508693.6294
                                                                        47.0004
        31.0004
  -2478620.35247  -1898150.01644
                  23938046.3284                                   23938043.0274
                                                                        43.7504
        25.5004
   -334610.61346   -221511.89843
                  23908428.2034                                   23908424.6134
                                                                        41.0004
        21.5004
 09 10 10  0 19  0.0000000  0  9G02G04G05G13G29G10G23G30G25
 -15199954.27348 -11774616.80547
                  20422421.4064                                   20422415.9304
                                                                        51.7504
        43.5004
  -3629742.40248  -2796837.18046
                  21727912.3834                                   21727908.7664
                                                                        50.5004
        38.0004
  -7168755.71947  -5541377.32845
                  23285213.9774                                   23285210.7304
                                                                        45.7504
        33.2504
 -18058694.93748 -13993124.53946
                  21219396.3204                                   21219392.2894
                                                                        49.5004
        37.2504
 -13073632.92247 -10171778.07445
                  22903582.1644                                   22903579.0944
                                                                        44.5004
        32.2504
 -13136355.61347 -10219422.18045
                  22473931.0784                                   22473927.8404
                                                                        46.2504
        34.0004
  -6565927.95347  -5070384.12145
                  22503366.5234                                   22503360.3204
                                                                        46.5004
        30.5004
  -2482127.25447  -1900882.69144
                  23937378.8204                                   23937376.2814
                                                                        43.0004
        27.0004
   -512405.97346   -360053.70343
                  23874594.4454                                   23874591.6214
                                                                        41.7504
        22.7504
 09 10 10  0 19 30.0000000  0  9G02G04G05G13G29G10G23G30G25
 -15291224.62948 -11845736.58247
                  20405053.2504                                   20405047.8014
                                                                        52.2504
        43.5004
  -3643635.93048  -2807663.32846
                  21725268.2194                                   21725264.9734
                                                                        50.0004
        38.2504
  -7368981.56647  -5697397.45745
                  23247112.1724                                   23247108.8484
                                                                        44.7504
        32.7504
 -18166030.38348 -14076762.53146
                  21198971.0944                                   21198967.0474
                                                                        49.5004
        36.7504
 -13239859.44547 -10301305.20345
                  22871950.3204                                   22871947.0394
                                                                        45.0004
        32.7504
 -13330956.59447 -10371059.28145
                  22436899.2584                                   22436896.2814
                                                                        46.0004
        34.5004
  -6593439.53547  -5091821.71945
                  22498131.2734                                   22498125.1724
                                                                        47.0004
        31.5004
  -2485242.94946  -1903310.52044
                  23936785.8054                                   23936783.4184
                                                                        41.0004
        25.7504
   -689852.34047   -498323.64543
                  23840828.3594                                   23840825.2424
                                                                        42.5004
        23.0004
 09 10 10  0 20  0.0000000  0  9G02G04G05G13G29G10G23G30G25
 -15381893.43448 -11916387.60947
                  20387799.5164                                   20387794.3164
                                                                        52.0004
        43.2504
  -3657120.00848  -2818170.40246
                  21722702.5234                                   21722699.0124
                                                                        49.7504
        38.2504
  -7568970.06247  -5853232.63745
                  23209055.8204                                   23209052.1524
                                                                        46.2504
        33.7504
 -18272680.59848 -14159866.59046
                  21178676.3524                                   21178672.1134
                                                                        49.0004
        37.2504
 -13405620.63747 -10430469.73845
                  22840406.9534                                   22840404.2194
                                                                        44.7504
        33.2504
 -13525227.14547 -10522438.92645
                  22399930.8674                                   22399927.6684
                                                                        46.7504
        34.2504
  -6620436.33647  -5112858.19545
                  22492993.8834                                   22492987.7894
                                                                        46.2504
        31.5004
  -2487966.32846  -1905432.64844
                  23936267.5004                                   23936264.8754
                                                                        41.0004
        24.0004
   -866942.12546   -636315.69944
                  23807129.0314                                   23807126.3404
                                                                        40.5004
        24.5004
 09 10 10  0 20 30.0000000  0  9G02G04G05G13G29G10G23G30G25
 -15471967.37948 -11986575.11747
                  20370658.7974                                   20370653.4734
                                                                        52.0004
        43.5004
  -3670203.64148  -2828365.44946
                  21720212.5634                                   21720209.6254
                                                                        49.5004
        38.0004
  -7768725.50447  -6008886.24245
                  23171043.9614                                   23171040.2664
                                                                        47.0004
        33.7504
 -18378651.57448 -14242441.38346
                  21158510.5164                                   21158506.2154
                                                                        49.0004
        36.7504
 -13570920.66447 -10559274.94545
                  22808951.5164                                   22808948.1254
                                                                        45.0004
        33.5004
 -13719171.48447 -10673564.37145
                  22363024.8364                                   22363021.4924
                                                                        46.2504
        34.2504
  -6646927.91447  -5133501.00845
                  22487952.7034                                   22487946.9064
                                                                        46.7504
        31.2504
  -2490307.13746  -1907256.70743
                  23935821.7664                                   23935819.3984
                                                                        39.7504
        23.2504
  -1043680.18446   -774033.77744
                  23773496.6484                                   23773494.4344
                                                                        40.5004
        25.7504
 09 10 10  0 21  0.0000000  0  9G02G04G05G13G29G10G23G30G25
 -15561446.54348 -12056299.15247
                  20353631.6724                                   20353626.0664
                                                                        50.7504
        43.5004
  -3682888.74648  -2838249.98846
                  21717798.7344                                   21717795.4224
                                                                        50.7504
        38.0004
  -7968246.39847  -6164357.11745
                  23133076.3134                                   23133072.4264
                                                                        47.5004
        33.2504
 -18483943.14848 -14324486.77046
                  21138474.3444                                   21138470.2034
                                                                        49.5004
        37.2504
 -13735758.00047 -10687719.58645
                  22777583.7734                                   22777581.0554
                                                                        44.2504
        33.0004
 -13912788.32847 -10824434.64845
                  22326180.4534                                   22326177.5864
                                                                        46.5004
        34.5004
  -6672916.34047  -5153751.70745
                  22483007.8364                                   22483001.7304
                                                                        47.5004
        31.7504
  -2492269.11746  -1908785.57043
                  23935448.4694                                   23935446.3284
                                                                        41.2504
        22.7504
  -1220063.03946   -911474.91844
                  23739932.7114                                   23739930.0664
                                                                        40.2504
        25.2504
 09 10 10  0 21 30.0000000  0  9G02G04G05G13G29G10G23G30G25
 -15650329.10248 -12125558.31647
                  20336717.9064                                   20336712.3324
                                                                        51.5004
        43.2504
  -3695175.46548  -2847824.11746
                  21715460.4534                                   21715457.6024
                                                                        49.7504
        37.2504
  -8167528.88747  -6319642.15245
                  23095153.8284                                   23095150.5784
                                                                        47.2504
        34.0004
 -18588553.57048 -14406001.40246
                  21118567.7814                                   21118563.4344
                                                                        49.0004
        37.5004
 -13900128.38747 -10815800.38745
                  22746305.4304                                   22746302.3594
                                                                        44.7504
        33.7504
 -14106073.29347 -10975046.32045
                  22289400.2114                                   22289396.3204
                                                                        46.5004
        34.5004
  -6698401.69147  -5173610.41045
                  22478157.3984                                   22478152.1884
                                                                        46.2504
        30.5004
  -2493853.52747  -1910020.18443
                  23935147.2734                                   23935144.5314
                                                                        42.0004
        22.2504
  -1396086.61746  -1048636.12544
                  23706435.8444                                   23706433.2544
                                                                        41.0004
        24.0004
 09 10 10  0 22  0.0000000  0  9G02G04G05G13G29G10G23G30G25
 -15738615.29748 -12194352.74247
                  20319917.7194                                   20319912.2384
                                                                        52.0004
        43.7504
  -3707066.73448  -2857090.06646
                  21713197.8594                                   21713194.8014
                                                                        48.7504
        37.2504
  -8366572.14847  -6474740.78945
                  23057277.0474                                   23057273.6254
                                                                        47.0004
        33.5004
 -18692483.28548 -14486985.59446
                  21098790.3984                                   21098786.7814
                                                                        49.2504
        38.0004
 -14064030.47347 -10943516.26245
                  22715115.7424                                   22715112.6804
                                                                        44.2504
        34.0004
 -14299025.29347 -11125398.55145
                  22252682.2194                                   22252678.7774
                                                                        46.7504
        34.7504
  -6723387.72347  -5193080.06245
                  22473402.8204                                   22473397.0084
                                                                        46.0004
        31.2504
  -2495064.64547  -1910963.90243
                  23934916.9694                                   23934913.2384
                                                                        45.2504
        22.7504
  -1571749.32846  -1185516.19944
                  23673009.4534                                   23673006.1414
                                                                        40.7504
        24.5004
 09 10 10  0 22 30.0000000  0  9G02G04G05G13G29G10G23G30G25
 -15826301.57048 -12262679.71147
                  20303231.3054                                   20303225.8164
                                                                        51.0004
        43.2504
  -3718560.54348  -2866046.28146
                  21711011.0554                                   21711007.5204
                                                                        49.5004
        37.5004
  -8565369.92247  -6629648.13745
                  23019446.8444                                   23019443.5864
                                                                        47.5004
        33.5004
 -18795728.16448 -14567436.15246
                  21079143.7194                                   21079139.9774
                                                                        49.2504
        37.2504
 -14227458.06647 -11070862.42645
                  22684016.2114                                   22684013.3834
                                                                        46.0004
        34.0004
 -14491638.07847 -11275486.43745
                  22216029.0394                                   22216025.6024
                                                                        46.5004
        34.7504
  -6747872.41047  -5212159.02745
                  22468743.8364                                   22468737.7544
                                                                        46.7504
        31.5004
  -2495901.47347  -1911615.93743
                  23934757.7344                                   23934754.1094
                                                                        43.5004
        22.7504
  -1747044.18746  -1322109.46944
                  23639651.2584                                   23639647.7664
                                                                        40.5004
        24.7504
 09 10 10  0 23  0.0000000  0  9G02G04G05G13G29G10G23G30G25
 -14337970.95748 -11102941.57047
                  20586451.2664                                   20586446.0314
                                                                        52.2504
        43.5004
  -2154244.79348  -1647099.02046
                  22008690.3204                                   22008687.4184
                                                                        50.0004
        37.5004
  -7188500.01248  -5556762.48445
                  23281456.9614                                   23281453.3634
                                                                        48.0004
        34.5004
 -17322870.66448 -13419754.98846
                  21359418.8204                                   21359414.9304
                                                                        49.0004
        37.2504
 -12814989.93047  -9970237.88345
                  22952800.3134                                   22952797.0474
                                                                        45.5004
        33.5004
 -13108489.23447 -10197708.09845
                  22479233.6414                                   22479230.6954
                                                                        47.2504
        35.2504
  -5196443.61347  -4003253.47745
                  22763970.4694                                   22763965.3364
                                                                        47.7504
        31.0004
   -920953.49247   -684383.71143
                  24234460.7034                                   24234457.1454
                                                                        43.5004
        23.7504
   -346549.16447   -230814.52743
                  23906156.9454                                   23906153.2934
                                                                        42.0004
        22.7504
 09 10 10  0 23 30.0000000  0  9G02G04G05G13G29G10G23G30G25
 -14424467.13348 -11170341.19547
                  20569991.7734                                   20569986.3754
                                                                        51.7504
        43.5004
  -2164959.87948  -1655448.47346
                  22006650.9924                                   22006648.4184
                                                                        49.2504
        37.2504
  -7386811.44947  -5711290.89145
                  23243719.5234                                   23243715.8284
                                                                        46.7504
        34.5004
 -17424755.42648 -13499145.71946
                  21340031.1024                                   21340027.2664
                                                                        49.5004
        37.0004
 -12977472.32047 -10096847.52345
                  22921881.2584                                   22921877.9104
                                                                        45.7504
        33.5004
 -13300427.36347 -10347270.25445
                  22442708.9384                                   22442706.2894
                                                                        47.2504
        35.7504
  -5219942.85947  -4021564.60545
                  22759498.7584                                   22759493.8524
                                                                        45.2504
        30.5004
   -921061.73047   -684468.05144
                  24234439.3204                                   24234437.1024
                                                                        42.5004
        25.2504
   -521111.10246   -366836.65243
                  23872938.7584                                   23872934.9104
                                                                        41.7504
        22.7504
 09 10 10  0 24  0.0000000  0  9G02G04G05G13G29G10G23G30G25
 -14510368.23048 -11237277.11347
                  20553645.2584                                   20553640.0274
                                                                        52.0004
        43.5004
  -2175288.55148  -1663496.84446
                  22004685.4844                                   22004682.7464
                                                                        49.7504
        38.0004
  -7584876.52747  -5865627.30545
                  23206028.9384                                   23206025.5084
                                                                        47.2504
        34.0004
 -17525960.06648 -13578006.48446
                  21320772.1804                                   21320768.4344
                                                                        50.5004
        36.7504
 -13139478.73047 -10223086.26645
                  22891051.9924                                   22891049.0664
                                                                        46.5004
        34.0004
 -13492024.87547 -10496567.00445
                  22406249.0164                                   22406246.2034
                                                                        47.2504
        35.5004
  -5242952.97747  -4039494.58645
                  22755120.0784                                   22755114.2074
                                                                        45.7504
        31.5004
   -920810.09846   -684272.01244
                  24234487.1724                                   24234484.7814
                                                                        41.5004
        24.5004
   -695303.10547   -502570.72744
                  23839790.6334                                   23839787.2384
                                                                        42.5004
        25.7504
 09 10 10  0 24 30.0000000  0  9G02G04G05G13G29G10G23G30G25
 -14595677.15648 -11303751.59847
                  20537411.6564                                   20537405.8014
                                                                        52.0004
        43.5004
  -2185235.56648  -1671247.81646
                  22002792.7274                                   22002790.1604
                                                                        50.0004
        37.5004
  -7782696.41048  -6019772.65645
                  23168384.7814                                   23168381.3714
                                                                        48.5004
        34.0004
 -17626487.22348 -13656339.34046
                  21301642.6334                                   21301639.1524
                                                                        50.0004
        37.0004
 -13301010.15647 -10348954.87945
                  22860313.6254                                   22860310.1724
                                                                        46.5004
        34.2504
 -13683282.85947 -10645599.18745
                  22369853.9774                                   22369850.5314
                                                                        47.0004
        34.5004
  -5265479.27747  -4057047.54745
                  22750834.1174                                   22750827.8834
                                                                        46.7504
        30.7504
   -920205.44147   -683800.89143
                  24234602.1884                                   24234600.1484
                                                                        42.2504
        22.7504
   -869124.81647   -638016.21543
                  23806713.6334                                   23806710.6054
                                                                        42.0004
        23.7504
 09 10 10  0 25  0.0000000  0  9G02G04G05G13G29G10G23G30G25
 -14680391.10548 -11369762.48847
                  20521291.2424                                   20521285.6294
                                                                        52.2504
        43.5004
  -2194800.48448  -1678701.03946
                  22000972.9614                                   22000970.2074
                                                                        48.5004
        37.7504
  -7980265.90647  -6173722.89145
                  23130788.3284                                   23130785.3714
                                                                        46.7504
        35.0004
 -17726334.13748 -13734142.12546
                  21282642.5944                                   21282638.6604
                                                                        50.5004
        37.0004
 -13462060.70747 -10474448.80945
                  22829666.9614                                   22829663.8524
                                                                        46.5004
        33.5004
 -13874196.18747 -10794362.82845
                  22333524.6094                                   22333521.3754
                                                                        46.5004
        34.7504
  -5287520.75447  -4074222.71545
                  22746639.0864                                   22746633.1334
                                                                        47.0004
        30.0004
   -919247.41846   -683054.40243
                  24234784.1094                                   24234782.3794
                                                                        41.7504
        22.7504
  -1042571.39146   -773169.56644
                  23773707.6884                                   23773705.1804
                                                                        41.7504
        26.0004
 09 10 10  0 25 30.0000000  0  9G02G04G05G13G29G10G23G30G25
 -14764509.15648 -11435309.01647
                  20505283.8444                                   20505278.6764
                                                                        52.5004
        43.2504
  -2203984.34448  -1685857.47346
                  21999225.7114                                   21999222.7584
                                                                        49.5004
        37.2504
  -8177582.77047  -6327476.27345
                  23093239.8134                                   23093237.4384
                                                                        47.0004
        34.5004
 -17825499.28948 -13811413.66446
                  21263772.0004                                   21263768.0984
                                                                        48.7504
        37.0004
 -13622628.39847 -10599566.47345
                  22799111.7034                                   22799108.5944
                                                                        45.0004
        34.2504
 -14064761.75447 -10942855.48845
                  22297261.0394                                   22297257.8284
                                                                        46.2504
        35.5004
  -5309079.09047  -4091021.42245
                  22742537.2194                                   22742530.7304
                                                                        45.7504
        30.5004
   -917938.81247   -682034.74244
                  24235034.1094                                   24235031.5824
                                                                        44.2504
        26.5004
  -1215638.67246   -908027.23444
                  23740774.1884                                   23740771.5234
                                                                        41.7504
        24.5004
 09 10 10  0 26  0.0000000  0  8G02G04G05G13G29G10G23G25
 -14848029.63748 -11500389.89547
                  20489390.2734                                   20489384.7894
                                                                        51.7504
        43.2504
  -2212787.03148  -1692716.67246
                  21997550.1564                                   21997547.2424
                                                                        48.7504
        37.2504
  -8374643.05147  -6481029.74245
                  23055740.9774                                   23055738.3164
                                                                        47.7504
        34.7504
 -17923981.30148 -13888152.87546
                  21245031.7894                                   21245027.4454
                                                                        49.2504
        37.5004
 -13782708.70347 -10724304.35545
                  22768649.5554                                   22768646.0784
                                                                        46.5004
        34.2504
 -14254976.14547 -11091074.46946
                  22261064.2114                                   22261061.2274
                                                                        47.5004
        36.2504
  -5330155.01647  -4107444.21944
                  22738526.5164                                   22738520.5664
                                                                        46.2504
        29.2504
  -1388322.93646  -1042586.56844
                  23707913.3834                                   23707910.6604
                                                                        41.5004
        25.5004
 09 10 10  0 26 30.0000000  0  8G02G04G05G13G29G10G23G25
 -14930950.34048 -11565003.41047
                  20473611.1954                                   20473605.8674
                                                                        53.0004
        43.5004
  -2221208.18048  -1699278.56246
                  21995947.7584                                   21995944.6094
                                                                        49.5004
        36.5004
  -8571442.39848  -6634379.85945
                  23018291.3594                                   23018288.1994
                                                                        48.5004
        35.5004
 -18021777.85948 -13964357.99246
                  21226421.3524                                   21226417.3284
                                                                        49.7504
        37.7504
 -13942297.29347 -10848659.12945
                  22738280.8364                                   22738277.5744
                                                                        46.7504
        34.5004
 -14444834.43747 -11239016.00845
                  22224935.4774                                   22224932.5084
                                                                        47.2504
        35.7504
  -5350748.84447  -4123491.35945
                  22734607.7584                                   22734601.5124
                                                                        47.0004
        31.5004
  -1560618.77047  -1176843.18744
                  23675126.5164                                   23675123.6484
                                                                        42.5004
        24.7504
 09 10 10  0 27  0.0000000  0  8G02G04G05G13G29G10G23G25
 -15013269.96948 -11629148.59447
                  20457946.0554                                   20457940.6524
                                                                        52.7504
        43.7504
  -2229249.26648  -1705544.38346
                  21994417.5164                                   21994414.7704
                                                                        48.7504
        37.2504
  -8767977.85548  -6787524.35545
                  22980892.5084                                   22980888.5514
                                                                        48.7504
        35.5004
 -18118887.89148 -14040028.14846
                  21207941.8754                                   21207938.0434
                                                                        48.7504
        37.2504
 -14101391.23047 -10972628.41045
                  22708006.1484                                   22708003.0744
                                                                        45.5004
        35.0004
 -14634333.54347 -11386677.64145
                  22188875.2344                                   22188872.2734
                                                                        47.2504
        35.5004
  -5370861.56247  -4139163.60945
                  22730780.2584                                   22730774.8364
                                                                        45.5004
        30.0004
  -1732522.53547  -1310794.19144
                  23642414.6334                                   23642412.0664
                                                                        43.2504
        26.2504
 09 10 10  0 27 30.0000000  0  8G02G04G05G13G29G10G23G25
 -15094980.04748 -11692818.81247
                  20442397.1954                                   20442391.8244
                                                                        52.7504
        43.5004
  -2236903.20348  -1711508.48846
                  21992961.1024                                   21992958.0354
                                                                        49.5004
        37.5004
  -8964238.26248  -6940454.54745
                  22943544.7814                                   22943540.8914
                                                                        48.0004
        34.0004
 -18215302.64148 -14115156.52346
                  21189594.7504                                   21189591.0274
                                                                        48.5004
        37.5004
 -14259979.02047 -11096203.30545
                  22677827.8754                                   22677824.7424
                                                                        44.7504
        34.5004
 -14823462.42247 -11534050.76245
                  22152885.0864                                   22152881.7114
                                                                        46.7504
        35.5004
  -5390486.68047  -4154455.91045
                  22727045.3444                                   22727039.7734
                                                                        45.5004
        30.0004
  -1904023.00847  -1444430.94944
                  23609779.3674                                   23609776.0554
                                                                        43.0004
        25.7504
 09 10 10  0 28  0.0000000  0  8G02G04G05G13G29G10G23G25
 -15176085.73848 -11756018.05147
                  20426963.4694                                   20426958.1524
                                                                        51.7504
        43.7504
  -2244177.32048  -1717176.80546
                  21991577.1954                                   21991574.4024
                                                                        48.7504
        37.0004
  -9160227.08647  -7093173.12145
                  22906249.0864                                   22906245.7234
                                                                        47.5004
        34.0004
 -18311026.79348 -14189746.76646
                  21171379.2274                                   21171375.3524
                                                                        50.0004
        37.2504
 -14418063.86347 -11219386.28945
                  22647745.2664                                   22647742.2074
                                                                        46.0004
        34.5004
 -15012224.15647 -11681137.82046
                  22116965.1644                                   22116961.9654
                                                                        47.5004
        36.5004
  -5409631.78147  -4169374.20345
                  22723402.5164                                   22723396.6094
                                                                        43.5004
        30.2504
  -2075122.50047  -1577755.22344
                  23577220.6174                                   23577217.6294
                                                                        44.7504
        26.5004
 09 10 10  0 28 30.0000000  0  8G02G04G05G13G29G10G23G25
 -15256588.73848 -11818747.64847
                  20411643.9924                                   20411638.9844
                                                                        52.7504
        43.2504
  -2251074.99648  -1722551.84446
                  21990264.7424                                   21990261.7344
                                                                        49.0004
        37.0004
  -9355943.70747  -7245679.54745
                  22869005.7034                                   22869002.6604
                                                                        47.2504
        35.5004
 -18406062.53948 -14263800.55946
                  21153294.4614                                   21153290.3324
                                                                        49.7504
        37.2504
 -14575645.32047 -11342177.04345
                  22617758.1804                                   22617755.3594
                                                                        46.0004
        34.5004
 -15200618.04747 -11827938.25846
                  22081114.8364                                   22081111.5744
                                                                        47.7504
        36.7504
  -5428301.09047  -4183921.74644
                  22719849.8134                                   22719843.9734
                                                                        44.2504
        29.5004
  -2245820.12147  -1710766.32444
                  23544737.6644                                   23544733.9844
                                                                        43.5004
        25.7504
 09 10 10  0 29  0.0000000  0  8G02G04G05G13G29G10G23G25
 -15336492.98848 -11881010.69947
                  20396439.0474                                   20396433.8204
                                                                        51.7504
        43.5004
  -2257601.82448  -1727637.67646
                  21989022.6414                                   21989019.6024
                                                                        48.5004
        37.0004
  -9551390.22347  -7397975.51245
                  22831813.7274                                   22831809.9024
                                                                        47.0004
        35.2504
 -18500413.30948 -14337320.62146
                  21135340.0394                                   21135336.0944
                                                                        49.5004
        36.7504
 -14732725.27747 -11464577.02045
                  22587867.2194                                   22587863.8204
                                                                        45.7504
        34.0004
 -15388646.09048 -11974453.60946
                  22045334.4304                                   22045331.0554
                                                                        48.0004
        36.0004
  -5446500.57447  -4198103.14845
                  22716386.3364                                   22716380.5784
                                                                        44.0004
        30.5004
  -2416117.54346  -1843465.67644
                  23512330.8984                                   23512328.0784
                                                                        41.7504
        24.5004
 09 10 10  0 29 30.0000000  0  8G02G04G05G13G29G10G23G25
 -15415804.02048 -11942811.46947
                  20381346.4614                                   20381340.8594
                                                                        51.7504
        43.5004
  -2263765.19148  -1732440.22346
                  21987849.6094                                   21987846.9184
                                                                        48.5004
        36.7504
  -9746569.95748  -7550063.60245
                  22794672.1334                                   22794668.6564
                                                                        48.0004
        35.5004
 -18594085.32048 -14410311.82446
                  21117514.5084                                   21117510.8284
                                                                        49.5004
        37.0004
 -14889307.04747 -11586588.77745
                  22558070.8914                                   22558067.6524
                                                                        46.2504
        34.0004
 -15576311.75048 -12120686.58646
                  22009622.3204                                   22009618.9694
                                                                        48.2504
        36.0004
  -5464237.82847  -4211924.37545
                  22713011.5554                                   22713005.6094
                                                                        45.0004
        31.0004
  -2586017.01646  -1975854.81244
                  23479999.8134                                   23479996.9344
                                                                        41.5004
        24.7504
 09 10 10  0 30  0.0000000  0  8G02G04G05G13G29G10G23G25
 -15494523.00048 -12004150.95347
                  20366366.7974                                   20366361.3204
                                                                        52.2504
        43.5004
  -2269568.88748  -1736962.71946
                  21986745.0004                                   21986742.4884
                                                                        48.5004
        36.5004
  -9941481.55147  -7701942.74646
                  22757582.0234                                   22757578.2894
                                                                        47.7504
        36.5004
 -18687079.72348 -14482775.08646
                  21099818.8364                                   21099814.8444
                                                                        50.5004
        37.0004
 -15045389.10947 -11708211.17245
                  22528369.3204                                   22528365.9344
                                                                        47.5004
        34.2504
 -15763613.61747 -12266636.10246
                  21973980.1024                                   21973976.9844
                                                                        47.2504
        36.2504
  -5481516.45347  -4225388.23844
                  22709723.2894                                   22709717.1684
                                                                        45.7504
        29.7504
  -2755517.37947  -2107932.94544
                  23447744.9534                                   23447742.6414
                                                                        42.7504
        25.5004
 09 10 10  0 30 30.0000000  0  8G02G04G05G13G29G10G23G25
 -15572652.56248 -12065031.13347
                  20351499.2504                                   20351493.6804
                                                                        51.5004
        43.7504
  -2275016.67647  -1741207.73046
                  21985708.3054                                   21985705.8284
                                                                        47.5004
        37.0004
 -10136125.93047  -7853613.66045
                  22720542.0864                                   22720538.7234
                                                                        47.0004
        35.5004
 -18779398.58248 -14554711.82046
                  21082251.1334                                   21082247.1564
                                                                        49.5004
        37.2504
 -15200971.87547 -11829444.50845
                  22498763.2974                                   22498759.4614
                                                                        47.0004
        34.0004
 -15950551.92647 -12412302.29346
                  21938406.9924                                   21938403.7974
                                                                        47.5004
        36.5004
  -5498341.40647  -4238498.59445
                  22706521.4694                                   22706515.4534
                                                                        45.5004
        30.0004
  -2924619.17646  -2239700.78544
                  23415566.5084                                   23415563.7664
                                                                        41.5004
        25.7504
 09 10 10  0 31  0.0000000  0  8G02G04G05G13G29G10G23G25
 -15650189.91448 -12125449.84847
                  20336744.2734                                   20336738.7034
                                                                        52.0004
        43.7504
  -2280107.76648  -1745174.81246
                  21984739.9694                                   21984736.6334
                                                                        49.5004
        36.5004
 -10330498.19147  -8005072.57445
                  22683554.0704                                   22683550.9734
                                                                        46.0004
        35.5004
 -18871039.01648 -14626119.96546
                  21064812.3054                                   21064808.4144
                                                                        50.0004
        37.0004
 -15356050.61747 -11950285.11345
                  22469252.6484                                   22469249.1374
                                                                        47.2504
        34.2504
 -16137121.73048 -12557681.34046
                  21902903.6884                                   21902900.9384
                                                                        48.5004
        36.0004
  -5514711.94147  -4251254.84044
                  22703406.7734                                   22703400.5274
                                                                        45.0004
        28.7504
  -3093314.90647  -2371151.73444
                  23383465.2194                                   23383461.6414
                                                                        43.5004
        27.5004
 09 10 10  0 31 30.0000000  0  8G02G04G05G13G29G10G23G25
 -14151709.80148 -10957803.02047
                  20621896.1954                                   20621890.2624
                                                                        51.7504
        43.2504
   -709421.24248   -521263.44546
                  22283631.8984                                   22283629.1994
                                                                        50.0004
        36.2504
  -8949166.44947  -6928710.16445
                  22946412.7274                                   22946409.2894
                                                                        45.5004
        35.2504
 -17386575.46148 -13469395.11346
                  21347296.6484                                   21347292.3634
                                                                        50.7504
        37.2504
 -13935195.07847 -10843124.95745
                  22739632.5234                                   22739628.9144
                                                                        45.7504
        35.0004
 -14747891.39147 -11475164.17246
                  22167265.7424                                   22167262.3634
                                                                        47.7504
        37.0004
  -3955207.03947  -3036056.18444
                  23000170.1334                                   23000163.8134
                                                                        45.5004
        28.2504
  -1686174.98847  -1274678.98444
                  23651234.1804                                   23651231.1174
                                                                        42.7504
        28.0004
 09 10 10  0 32  0.0000000  0  8G02G04G05G13G29G10G23G25
 -14228062.66448 -11017298.74647
                  20607366.5164                                   20607360.6844
                                                                        51.5004
        43.0004
   -713804.20348   -524678.80146
                  22282797.8524                                   22282795.1334
                                                                        50.0004
        36.2504
  -9142986.95747  -7079739.12546
                  22909530.5554                                   22909526.8554
                                                                        46.5004
        36.0004
 -17476859.34048 -13539746.15646
                  21330115.8834                                   21330111.9494
                                                                        51.0004
        37.2504
 -14089258.54347 -10963174.41445
                  22710315.1884                                   22710311.7734
                                                                        47.0004
        34.7504
 -14933716.61348 -11619963.03146
                  22131904.1174                                   22131901.1884
                                                                        48.2504
        36.7504
  -3970675.34047  -3048109.37944
                  22997225.8834                                   22997220.5004
                                                                        44.5004
        28.5004
  -1854053.00847  -1405493.02044
                  23619288.5084                                   23619285.3134
                                                                        42.2504
        26.7504
 09 10 10  0 32 30.0000000  0  8G02G04G05G13G29G10G23G25
 -14303826.73448 -11076335.67647
                  20592948.7424                                   20592943.5044
                                                                        51.5004
        43.0004
   -717839.42648   -527823.21946
                  22282029.9384                                   22282026.9384
                                                                        49.0004
        36.0004
  -9336531.86747  -7230553.32846
                  22872699.4844                                   22872696.3404
                                                                        47.2504
        36.5004
 -17566468.45348 -13609571.44146
                  21313064.0394                                   21313059.9804
                                                                        51.0004
        37.5004
 -14242813.80547 -11082827.87145
                  22681094.1884                                   22681091.2304
                                                                        46.2504
        35.2504
 -15119169.44148 -11764471.71146
                  22096613.9454                                   22096610.7814
                                                                        48.5004
        36.7504
  -3985699.43447  -3059816.41844
                  22994367.7584                                   22994361.6374
                                                                        46.2504
        29.0004
  -2021521.09046  -1535987.30144
                  23587419.8364                                   23587416.8054
                                                                        41.2504
        27.0004
 09 10 10  0 33  0.0000000  0  8G02G04G05G13G29G10G23G25
 -14379002.84848 -11134914.44547
                  20578643.2504                                   20578637.7154
                                                                        51.7504
        43.2504
   -721528.28548   -530697.37945
                  22281327.5634                                   22281324.8794
                                                                        49.7504
        35.5004
  -9529799.74647  -7381151.64846
                  22835922.1024                                   22835918.7894
                                                                        46.2504
        36.5004
 -17655403.71548 -13678871.64546
                  21296140.2664                                   21296136.4224
                                                                        51.5004
        37.5004
 -14395860.34047 -11202084.91045
                  22651970.5234                                   22651967.5164
                                                                        45.5004
        35.5004
 -15304248.83247 -11908689.41046
                  22061394.3594                                   22061390.9384
                                                                        47.0004
        37.0004
  -4000282.41447  -3071179.78145
                  22991592.2344                                   22991587.2464
                                                                        45.0004
        30.0004
  -2188577.67646  -1666161.12544
                  23555629.5394                                   23555626.6524
                                                                        40.2504
        24.5004
 09 10 10  0 33 30.0000000  0  8G02G04G05G13G29G10G23G25
 -14453591.73848 -11193035.63747
                  20564449.3134                                   20564443.9024
                                                                        52.2504
        42.5004
   -724874.87148   -533305.04745
                  22280690.7894                                   22280688.1844
                                                                        48.0004
        35.7504
  -9722789.28147  -7531533.09446
                  22799197.2114                                   22799193.4924
                                                                        46.0004
        36.5004
 -17743666.04748 -13747647.48046
                  21279344.5634                                   21279340.2774
                                                                        51.2504
        36.7504
 -14548396.60247 -11320944.34446
                  22622944.0084                                   22622940.7704
                                                                        47.7504
        36.0004
 -15488953.17648 -12052614.86746
                  22026246.0554                                   22026243.0554
                                                                        48.2504
        36.7504
  -4014426.96947  -3082201.50845
                  22988900.7034                                   22988895.6724
                                                                        46.0004
        30.0004
  -2355221.63346  -1796013.79744
                  23523918.3054                                   23523915.4344
                                                                        40.0004
        24.0004
 09 10 10  0 34  0.0000000  0  8G02G04G05G13G29G10G23G25
 -14527594.62548 -11250700.21947
                  20550367.2584                                   20550361.9654
                                                                        51.7504
        43.2504
   -727882.28548   -535648.59046
                  22280118.6724                                   22280115.8134
                                                                        49.5004
        36.0004
  -9915499.12147  -7681696.58646
                  22762525.6644                                   22762522.2664
                                                                        46.5004
        36.2504
 -17831256.71948 -13815899.95346
                  21262676.2114                                   21262672.4264
                                                                        51.5004
        36.7504
 -14700420.82047 -11439404.76645
                  22594014.6094                                   22594011.8754
                                                                        45.7504
        35.7504
 -15673281.53947 -12196247.33646
                  21991169.6334                                   21991166.3014
                                                                        47.7504
        36.0004
  -4028136.45747  -3092884.23045
                  22986292.5394                                   22986286.7814
                                                                        46.5004
        30.2504
  -2521450.43446  -1925542.94144
                  23492286.5394                                   23492283.4964
                                                                        41.2504
        24.2504
 09 10 10  0 34 30.0000000  0  8G02G04G05G13G29G10G23G25
 -14601014.23848 -11307910.30547
                  20536395.7424                                   20536390.2704
                                                                        52.0004
        43.0004
   -730553.45348   -537729.91046
                  22279610.0634                                   22279607.2234
                                                                        49.0004
        36.0004
 -10107929.61747  -7831642.40246
                  22725907.3834                                   22725904.0204
                                                                        47.2504
        36.5004
 -17918178.10548 -13883630.84446
                  21246135.7584                                   21246131.7034
                                                                        51.0004
        36.5004
 -14851933.98847 -11557466.96545
                  22565182.5704                                   22565179.7504
                                                                        46.5004
        35.0004
 -15857233.45348 -12339586.49246
                  21956165.0554                                   21956161.7584
                                                                        48.5004
        37.2504
  -4041415.77747  -3103231.76644
                  22983765.4064                                   22983759.5394
                                                                        46.5004
        29.0004
  -2687262.85547  -2054747.14544
                  23460733.2194                                   23460729.8164
                                                                        42.0004
        26.7504
 09 10 10  0 35  0.0000000  0  8G02G04G05G13G29G10G23G25
 -14673847.35948 -11364663.38347
                  20522536.1804                                   20522530.3754
                                                                        52.7504
        43.2504
   -732887.53948   -539548.57045
                  22279166.0704                                   22279163.4414
                                                                        49.2504
        35.7504
 -10300075.21148  -7981366.24646
                  22689343.5704                                   22689340.0164
                                                                        48.2504
        37.0004
 -18004427.32848 -13950838.02746
                  21229722.8754                                   21229719.3284
                                                                        52.0004
        37.2504
 -15002929.97347 -11675126.18445
                  22536449.0314                                   22536445.9614
                                                                        47.0004
        35.2504
 -16040803.55948 -12482628.10946
                  21921232.4614                                   21921229.1134
                                                                        48.5004
        36.7504
  -4054263.71947  -3113243.12944
                  22981320.4534                                   22981314.5004
                                                                        46.2504
        28.7504
  -2852654.28146  -2183623.50044
                  23429260.8524                                   23429257.4614
                                                                        41.7504
        28.2504
 09 10 10  0 35 30.0000000  0  8G02G04G05G13G29G10G23G25
 -14746093.27348 -11420958.90247
                  20508787.9844                                   20508782.2424
                                                                        52.5004
        42.7504
   -734885.92248   -541105.77346
                  22278786.0004                                   22278783.2194
                                                                        48.0004
        36.5004
 -10491933.04348  -8130865.84446
                  22652833.9924                                   22652830.5784
                                                                        48.5004
        37.0004
 -18090003.58248 -14017520.81246
                  21213438.3054                                   21213434.3954
                                                                        51.0004
        37.0004
 -15153406.18047 -11792380.34445
                  22507814.5164                                   22507811.0204
                                                                        47.2504
        35.5004
 -16223988.63748 -12625369.73046
                  21886373.8134                                   21886370.1524
                                                                        49.5004
        37.2504
  -4066681.94947  -3122919.67644
                  22978957.2734                                   22978950.8674
                                                                        46.0004
        28.0004
  -3017620.83647  -2312168.71944
                  23397868.2734                                   23397865.5044
                                                                        42.2504
        27.7504
 09 10 10  0 36  0.0000000  0  8G02G04G05G13G29G10G23G25
 -14817753.72348 -11476798.24647
                  20495152.1094                                   20495146.3754
                                                                        52.5004
        43.0004
   -736551.99248   -542404.16446
                  22278468.7894                                   22278466.1524
                                                                        48.7504
        36.2504
 -10683502.39848  -8280140.66446
                  22616379.0864                                   22616375.9344
                                                                        49.2504
        36.7504
 -18174908.66048 -14083680.59846
                  21197281.0474                                   21197277.2664
                                                                        51.5004
        36.7504
 -15303362.15647 -11909229.15645
                  22479278.9924                                   22479275.5204
                                                                        47.5004
        35.2504
 -16406788.05548 -12767810.84046
                  21851587.8364                                   21851585.2114
                                                                        49.0004
        36.7504
  -4078673.79347  -3132263.95744
                  22976674.8984                                   22976668.4804
                                                                        44.5004
        27.2504
  -3182161.32047  -2440381.93044
                  23366557.6094                                   23366554.0904
                                                                        42.0004
        27.2504
 09 10 10  0 36 30.0000000  0  8G02G04G05G13G29G10G23G25
 -14888828.39148 -11532181.11347
                  20481626.6334                                   20481621.2544
                                                                        52.5004
        43.0004
   -737886.81648   -543444.41445
                  22278214.3754                                   22278211.7274
                                                                        48.2504
        35.2504
 -10874780.66448  -8429188.64846
                  22579980.4924                                   22579977.1174
                                                                        49.0004
        36.5004
 -18259142.75048 -14149317.59846
                  21181252.6414                                   21181248.0634
                                                                        52.2504
        36.7504
 -15452794.52347 -12025669.95745
                  22450842.5554                                   22450839.5124
                                                                        46.5004
        35.0004
 -16589198.96948 -12909949.19946
                  21816876.3914                                   21816873.2704
                                                                        48.0004
        37.0004
  -4090241.96547  -3141278.11344
                  22974473.8984                                   22974467.5004
                                                                        45.5004
        27.5004
  -3346272.97347  -2568260.95344
                  23335327.0704                                   23335324.9264
                                                                        42.0004
        26.7504
 09 10 10  0 37  0.0000000  0  8G02G04G05G13G29G10G23G25
 -14959314.23048 -11587105.14547
                  20468213.6954                                   20468208.2274
                                                                        52.2504
        42.7504
   -738888.75848   -544225.18745
                  22278024.6884                                   22278021.3874
                                                                        48.5004
        35.0004
 -11065762.43048  -8578005.59446
                  22543638.0314                                   22543634.5394
                                                                        48.7504
        36.7504
 -18342702.85548 -14214429.45746
                  21165351.2344                                   21165347.3134
                                                                        51.7504
        36.7504
 -15601698.64547 -12141699.15245
                  22422506.4844                                   22422503.4414
                                                                        46.7504
        35.5004
 -16771216.23848 -13051780.84446
                  21782239.7894                                   21782236.0904
                                                                        48.2504
        37.0004
  -4101385.00847  -3149961.01244
                  22972353.2034                                   22972347.4414
                                                                        45.5004
        28.5004
  -3509949.92646  -2695801.31644
                  23304180.1954                                   23304177.9534
                                                                        41.5004
        26.5004
 09 10 10  0 37 30.0000000  0  8G02G04G05G13G29G10G23G25
 -15029214.52348 -11641572.89847
                  20454912.1024                                   20454906.3954
                                                                        51.5004
        43.0004
   -739562.76648   -544750.37945
                  22277895.8834                                   22277893.1094
                                                                        48.7504
        35.2504
 -11256448.39147  -8726592.03546
                  22507351.4064                                   22507348.2154
                                                                        47.5004
        37.2504
 -18425591.97748 -14279018.42646
                  21149577.9844                                   21149574.5234
                                                                        51.2504
        37.2504
 -15750075.27747 -12257317.30945
                  22394272.0474                                   22394268.6994
                                                                        47.0004
        35.7504
 -16952840.26248 -13193306.03546
                  21747677.8594                                   21747674.4304
                                                                        49.2504
        37.2504
  -4112108.42247  -3158316.93444
                  22970313.1484                                   22970307.2074
                                                                        47.2504
        29.0004
  -3673192.21146  -2823002.87144
                  23273116.2664                                   23273113.4844
                                                                        40.5004
        26.0004
 09 10 10  0 38  0.0000000  0  8G02G04G05G13G29G10G23G25
 -15098529.40648 -11695584.50047
                  20441721.9694                                   20441715.9774
                                                                        51.7504
        42.5004
   -739911.14148   -545021.89845
                  22277829.6644                                   22277826.5744
                                                                        48.0004
        35.5004
 -11446836.31248  -8874946.23446
                  22471122.2034                                   22471118.7154
                                                                        48.0004
        36.7504
 -18507810.45348 -14343084.77346
                  21133932.3524                                   21133928.5864
                                                                        51.5004
        37.5004
 -15897922.00447 -12372522.54745
                  22366137.7194                                   22366134.4734
                                                                        46.5004
        35.2504
 -17134068.90248 -13334523.14146
                  21713190.9614                                   21713187.7234
                                                                        49.0004
        37.2504
  -4122414.26647  -3166347.44145
                  22968351.7344                                   22968346.4104
                                                                        46.0004
        30.0004
  -3835997.68747  -2949864.15244
                  23242135.4614                                   23242132.0824
                                                                        42.2504
        27.5004
 09 10 10  0 38 30.0000000  0  8G02G04G05G13G29G10G23G25
 -15167258.51648 -11749139.64847
                  20428643.3284                                   20428637.5664
                                                                        51.0004
        43.0004
   -739934.61348   -545040.37945
                  22277825.4924                                   22277822.8444
                                                                        48.5004
        35.0004
 -11636923.46547  -9023066.10246
                  22434949.4144                                   22434946.2154
                                                                        47.0004
        37.0004
 -18589357.84448 -14406628.18746
                  21118414.7734                                   21118410.8204
                                                                        51.0004
        36.7504
 -16045236.57047 -12487313.11746
                  22338104.8134                                   22338101.6954
                                                                        47.5004
        36.0004
 -17314899.38348 -13475429.99246
                  21678779.8754                                   21678776.7464
                                                                        49.5004
        37.7504
  -4132304.00447  -3174053.71944
                  22966469.3284                                   22966464.4144
                                                                        43.5004
        27.2504
  -3998362.65247  -3076382.19944
                  23211238.8364                                   23211235.4734
                                                                        42.2504
        26.5004
 09 10 10  0 39  0.0000000  0  8G02G04G05G13G29G10G23G25
 -15235404.10948 -11802240.11747
                  20415675.3524                                   20415669.9924
                                                                        51.2504
        43.0004
   -739636.34847   -544807.73445
                  22277881.8834                                   22277879.1334
                                                                        47.0004
        35.0004
 -11826709.41047  -9170951.24246
                  22398834.6954                                   22398830.8404
                                                                        47.0004
        37.0004
 -18670236.37948 -14469650.44546
                  21103023.7584                                   21103019.7584
                                                                        50.7504
        36.7504
 -16192018.39147 -12601688.55145
                  22310173.1334                                   22310169.8364
                                                                        47.2504
        35.5004
 -17495331.29348 -13616026.26246
                  21644444.8984                                   21644442.0594
                                                                        49.7504
        38.0004
  -4141782.24647  -3181439.37944
                  22964665.7274                                   22964660.2304
                                                                        42.5004
        27.0004
  -4160286.92247  -3202556.92644
                  23180425.3054                                   23180421.6214
                                                                        43.2504
        27.7504
 09 10 10  0 39 30.0000000  0  8G02G04G05G13G29G10G23G25
 -13727541.96548 -10627282.59447
                  20702611.8984                                   20702606.6254
                                                                        51.7504
        42.5004
    836402.43448    683274.37945
                  22577792.5704                                   22577789.6454
                                                                        48.0004
        35.2504
 -10440763.78147  -8090993.59846
                  22662571.5004                                   22662567.3404
                                                                        47.5004
        37.2504
 -17175022.30548 -13304548.56646
                  21387553.6884                                   21387549.9494
                                                                        50.7504
        37.0004
 -14762838.47747 -11488041.85945
                  22582136.9694                                   22582133.8204
                                                                        47.2504
        35.5004
 -16099934.15248 -12528703.82046
                  21909980.1334                                   21909977.2154
                                                                        49.5004
        38.0004
  -2575428.52047  -1960904.03544
                  23262733.0474                                   23262727.1214
                                                                        44.0004
        27.2504
  -2746340.33647  -2100780.41444
                  23449490.5944                                   23449487.1644
                                                                        43.7504
        26.7504
 09 10 10  0 40  0.0000000  0  8G02G04G05G13G29G10G23G25
 -13794517.21948 -10679471.10247
                  20689867.1884                                   20689861.5354
                                                                        52.0004
        42.7504
    837340.97348    684005.78545
                  22577971.1414                                   22577968.2154
                                                                        48.7504
        35.7504
 -10629936.98447  -8238401.28146
                  22626572.5314                                   22626569.5514
                                                                        47.2504
        37.2504
 -17254561.23848 -13366526.95346
                  21372417.7664                                   21372413.6174
                                                                        50.7504
        37.2504
 -14908544.65647 -11601579.12146
                  22554409.8834                                   22554406.9024
                                                                        47.7504
        36.0004
 -16279557.91448 -12668670.38746
                  21875799.0474                                   21875796.1214
                                                                        50.0004
        37.7504
  -2584086.16047  -1967650.27044
                  23261086.1884                                   23261080.6054
                                                                        43.5004
        28.0004
  -2907370.87947  -2226258.75444
                  23418847.8364                                   23418844.1294
                                                                        44.0004
        26.0004
 09 10 10  0 40 30.0000000  0  8G02G04G05G13G29G10G23G25
 -13860907.89148 -10731204.09047
                  20677233.3914                                   20677228.3094
                                                                        52.0004
        43.0004
    838596.23848    684983.66845
                  22578209.5634                                   22578207.1764
                                                                        48.7504
        35.0004
 -10818800.52747  -8385567.67246
                  22590633.1484                                   22590629.5704
                                                                        47.7504
        37.2504
 -17333431.09448 -13427983.96146
                  21357409.6094                                   21357405.5514
                                                                        51.0004
        36.7504
 -15053710.03148 -11714694.99246
                  22526785.8054                                   22526782.7304
                                                                        48.7504
        36.0004
 -16458774.35948 -12808319.55946
                  21841695.2894                                   21841692.0744
                                                                        50.5004
        38.2504
  -2592337.14547  -1974079.60244
                  23259516.1094                                   23259509.8594
                                                                        43.7504
        26.5004
  -3067951.00847  -2351386.10944
                  23388289.7974                                   23388286.6214
                                                                        43.5004
        27.7504
 09 10 10  0 41  0.0000000  0  8G02G04G05G13G29G10G23G25
 -13926716.53948 -10782483.54347
                  20664710.3594                                   20664704.9884
                                                                        51.7504
        43.0004
    840165.55148    686206.56645
                  22578508.1644                                   22578505.7384
                                                                        48.2504
        34.0004
 -11007354.67247  -8532492.96146
                  22554752.5164                                   22554748.4184
                                                                        47.5004
        37.0004
 -17411634.34848 -13488921.53946
                  21342527.9844                                   21342524.0164
                                                                        50.2504
        36.5004
 -15198335.09448 -11827389.84446
                  22499264.5864                                   22499261.6214
                                                                        48.5004
        36.0004
 -16637583.49248 -12947651.34446
                  21807669.2274                                   21807665.8054
                                                                        50.0004
        38.0004
  -2600185.98447  -1980195.58644
                  23258022.1334                                   23258015.8444
                                                                        44.5004
        27.7504
  -3228079.97747  -2476161.87544
                  23357818.4224                                   23357814.9344
                                                                        42.5004
        25.5004
 09 10 10  0 41 30.0000000  0  8G02G04G05G13G29G10G23G25
 -13991942.85948 -10833309.24247
                  20652298.1724                                   20652293.2304
                                                                        51.2504
        43.0004
    842046.79748    687672.41445
                  22578866.3444                                   22578863.9494
                                                                        49.0004
        34.5004
 -11195596.40247  -8679174.80946
                  22518931.3834                                   22518927.7814
                                                                        47.7504
        36.7504
 -17489171.09048 -13549339.76646
                  21327773.0634                                   21327769.2894
                                                                        51.2504
        36.7504
 -15342416.84048 -11939661.31646
                  22471846.6724                                   22471843.6174
                                                                        48.2504
        36.5004
 -16815982.18448 -13086663.30946
                  21773720.7734                                   21773717.2504
                                                                        50.5004
        37.7504
  -2607634.62947  -1985999.73044
                  23256605.2734                                   23256599.1914
                                                                        42.7504
        27.0004
  -3387754.86347  -2600583.84044
                  23327433.2664                                   23327429.4414
                                                                        42.7504
        25.7504
 09 10 10  0 42  0.0000000  0  8G02G04G05G13G29G10G23G25
 -14056587.71948 -10883681.84847
                  20639996.8754                                   20639991.3134
                                                                        52.7504
        42.5004
    844238.20748    689380.14145
                  22579283.4224                                   22579280.1884
                                                                        49.5004
        35.0004
 -11383524.08648  -8825611.93746
                  22483169.9224                                   22483166.5984
                                                                        48.7504
        37.5004
 -17566041.81248 -13609239.00846
                  21313144.8914                                   21313140.8244
                                                                        50.5004
        36.5004
 -15485953.78148 -12051508.28546
                  22444532.7344                                   22444529.7384
                                                                        49.5004
        36.7504
 -16993968.69148 -13225354.07846
                  21739851.2734                                   21739847.9694
                                                                        50.5004
        38.5004
  -2614685.43047  -1991493.88744
                  23255262.9694                                   23255257.2734
                                                                        43.0004
        27.5004
  -3546973.69547  -2724650.48444
                  23297134.8984                                   23297131.4344
                                                                        44.0004
        26.0004
 09 10 10  0 42 30.0000000  0  8G02G04G05G13G29G10G23G25
 -14120650.74248 -10933601.07847
                  20627805.8284                                   20627800.3794
                                                                        51.7504
        42.7504
    846738.41048    691328.46545
                  22579758.7814                                   22579756.4224
                                                                        49.2504
        34.0004
 -11571134.87148  -8971802.15646
                  22447468.9694                                   22447465.2384
                                                                        48.7504
        37.5004
 -17642247.17648 -13668619.75046
                  21298643.5944                                   21298639.5704
                                                                        51.0004
        36.5004
 -15628943.48448 -12162928.82446
                  22417322.5474                                   22417319.5744
                                                                        49.0004
        37.0004
 -17171540.66448 -13363721.83646
                  21706060.5004                                   21706056.9064
                                                                        50.2504
        37.7504
  -2621340.66047  -1996679.78144
                  23253996.6254                                   23253990.5204
                                                                        42.5004
        26.0004
  -3705733.35247  -2848359.29744
                  23266923.7504                                   23266920.4614
                                                                        43.0004
        26.2504
 09 10 10  0 43  0.0000000  0  8G02G04G05G13G29G10G23G25
 -14184135.14848 -10983069.43747
                  20615725.2974                                   20615719.9264
                                                                        51.7504
        42.7504
    849542.24248    693513.26645
                  22580292.6024                                   22580290.0234
                                                                        49.0004
        34.0004
 -11758429.40648  -9117745.94946
                  22411827.4924                                   22411824.0744
                                                                        48.7504
        38.7504
 -17717790.28948 -13727484.48446
                  21284268.3524                                   21284264.2034
                                                                        50.5004
        37.0004
 -15771386.39548 -12273923.28546
                  22390216.5164                                   22390213.6804
                                                                        49.0004
        36.2504
 -17348698.29348 -13501766.74646
                  21672348.3914                                   21672344.6844
                                                                        50.0004
        37.5004
  -2627605.18047  -2001561.23044
                  23252804.8834                                   23252798.8164
                                                                        43.2504
        27.0004
  -3864033.96547  -2971710.35244
                  23236800.3134                                   23236796.9694
                                                                        42.7504
        27.5004
 09 10 10  0 43 30.0000000  0  8G02G04G05G13G29G10G23G25
 -14247039.59448 -11032085.88747
                  20603754.9774                                   20603749.6604
                                                                        52.0004
        43.0004
    852650.30548    695935.04345
                  22580884.0004                                   22580881.3554
                                                                        49.5004
        34.5004
 -11945403.27048  -9263439.87146
                  22376247.8134                                   22376244.0984
                                                                        50.0004
        38.0004
 -17792669.18448 -13785831.66046
                  21270019.1254                                   21270015.2664
                                                                        51.5004
        37.0004
 -15913278.86748 -12384488.85946
                  22363215.3524                                   22363212.5984
                                                                        49.0004
        36.5004
 -17525437.31648 -13639485.47346
                  21638716.1094                                   21638713.0004
                                                                        50.0004
        38.7504
  -2633478.90647  -2006138.15644
                  23251686.6024                                   23251680.7154
                                                                        44.2504
        27.5004
  -4021870.77047  -3094699.95744
                  23206764.8204                                   23206761.6884
                                                                        44.0004
        28.0004
 09 10 10  0 44  0.0000000  0  9G02G04G05G13G29G10G23G16G25
 -14309366.54348 -11080652.37147
                  20591894.5004                                   20591889.1484
                                                                        52.0004
        42.0004
    856058.58248    698590.93845
                  22581532.7734                                   22581530.0864
                                                                        48.2504
        34.0004
 -12132056.71548  -9408884.12146
                  22340729.1414                                   22340725.0904
                                                                        50.5004
        37.7504
 -17866888.03548 -13843664.52346
                  21255895.6804                                   21255891.7114
                                                                        51.5004
        37.2504
 -16054621.51648 -12494625.98446
                  22336319.0784                                   22336315.6564
                                                                        49.0004
        36.7504
 -17701758.22348 -13776878.37946
                  21605163.4224                                   21605159.9344
                                                                        50.0004
        38.0004
  -2638966.89147  -2010414.54344
                  23250642.1484                                   23250636.6914
                                                                        43.2504
        28.0004
   7675001.83657   5993244.81654
                  24331634.8134                                   24331631.1764
                                                                        42.5004
        26.5004
  -4179244.15647  -3217328.57044
                  23176817.9144                                   23176814.7234
                                                                        45.0004
        27.5004
 09 10 10  0 44 30.0000000  0  9G02G04G05G13G29G10G23G16G25
 -14371122.76248 -11128774.15647
                  20580142.7424                                   20580137.0554
                                                                        52.7504
        42.2504
    859759.31348    701474.80145
                  22582236.8284                                   22582233.8834
                                                                        49.0004
        34.5004
 -12318393.59048  -9554081.68746
                  22305270.1024                                   22305266.4024
                                                                        49.7504
        38.0004
 -17940451.91448 -13900987.02046
                  21241897.1484                                   21241893.0084
                                                                        50.7504
        36.7504
 -16195417.46548 -12604337.12946
                  22309526.3364                                   22309523.2584
                                                                        49.5004
        37.2504
 -17877664.11748 -13913947.91846
                  21571689.6254                                   21571686.1684
                                                                        50.2504
        38.0004
  -2644077.43447  -2014396.82444
                  23249670.3444                                   23249664.3404
                                                                        42.2504
        27.2504
   7512526.30547   5866640.50843
                  24300716.6254                                   24300712.3594
                                                                        42.0004
        23.7504
  -4336157.59047  -3339598.78144
                  23146958.1724                                   23146954.9454
                                                                        45.0004
        28.0004
 09 10 10  0 45  0.0000000  0  9G02G04G05G13G29G10G23G16G25
 -14432312.19148 -11176454.24647
                  20568498.7734                                   20568493.1334
                                                                        52.5004
        42.7504
    863746.19148    704581.47745
                  22582995.5634                                   22582992.4064
                                                                        48.2504
        33.5004
 -12504415.49248  -9699033.82446
                  22269871.3984                                   22269867.6024
                                                                        49.7504
        37.5004
 -18013365.81648 -13957803.07846
                  21228022.0474                                   21228017.8754
                                                                        51.2504
        36.5004
 -16335669.31248 -12713624.30146
                  22282837.2504                                   22282833.4804
                                                                        49.2504
        37.0004
 -18053157.41448 -14050695.97346
                  21538294.3674                                   21538290.8754
                                                                        51.0004
        38.5004
  -2648816.71547  -2018089.80944
                  23248767.7814                                   23248762.8984
                                                                        42.5004
        27.2504
   7350508.98846   5740393.27043
                  24269885.9844                                   24269882.1524
                                                                        40.7504
        22.5004
  -4492612.06647  -3461511.32444
                  23117185.8284                                   23117182.3484
                                                                        45.0004
        28.2504
 09 10 10  0 45 30.0000000  0  9G02G04G05G13G29G10G23G16G25
 -14492935.67248 -11223693.33247
                  20556962.6334                                   20556957.0124
                                                                        53.0004
        42.5004
    868017.40248    707909.62945
                  22583808.1644                                   22583805.2194
                                                                        48.0004
        33.5004
 -12690120.80548  -9843739.28946
                  22234532.8284                                   22234529.4414
                                                                        49.7504
        38.0004
 -18085631.80548 -14014114.23046
                  21214270.3284                                   21214266.2974
                                                                        50.5004
        36.5004
 -16475375.70748 -12822486.43746
                  22256252.0554                                   22256248.4774
                                                                        49.5004
        36.2504
 -18228236.03948 -14187120.90246
                  21504977.8984                                   21504974.8014
                                                                        50.5004
        39.0004
  -2653187.11347  -2021495.32044
                  23247936.6334                                   23247930.3984
                                                                        44.2504
        27.5004
   7188952.55146   5614505.17643
                  24239141.4144                                   24239138.1374
                                                                        38.0004
        20.7504
  -4648605.57047  -3583064.69944
                  23087500.9694                                   23087497.8484
                                                                        45.2504
        27.2504
 09 10 10  0 46  0.0000000  0  9G02G04G05G13G29G10G23G16G25
 -14552989.54348 -11270488.54747
                  20545534.5314                                   20545528.9024
                                                                        52.2504
        42.7504
    872575.54347    711461.37545
                  22584675.6094                                   22584673.2034
                                                                        47.5004
        34.0004
 -12875502.42248  -9988192.48046
                  22199255.8984                                   22199252.3594
                                                                        50.0004
        38.7504
 -18157244.17248 -14069916.07846
                  21200642.9224                                   21200639.0234
                                                                        50.5004
        36.7504
 -16614529.98448 -12930918.33645
                  22229771.7894                                   22229768.3444
                                                                        50.0004
        35.7504
 -18402893.10548 -14323217.31246
                  21471741.9694                                   21471738.7344
                                                                        51.0004
        39.0004
  -2657186.96547  -2024612.10944
                  23247175.7974                                   23247169.0664
                                                                        44.0004
        25.5004
   7027863.74246   5488981.46943
                  24208487.3914                                   24208483.5354
                                                                        37.0004
        18.5004
  -4804131.49847  -3704253.75944
                  23057905.3984                                   23057901.8134
                                                                        44.0004
        26.0004
 09 10 10  0 46 30.0000000  0  9G02G04G05G13G29G10G23G16G25
 -14612470.28548 -11316837.14847
                  20534215.9224                                   20534210.4574
                                                                        52.0004
        42.5004
    877422.21548    715237.85245
                  22585597.9384                                   22585595.4494
                                                                        48.0004
        34.5004
 -13060555.07848 -10132389.33646
                  22164041.2584                                   22164038.1454
                                                                        50.0004
        39.0004
 -18228201.47748 -14125207.45346
                  21187140.2034                                   21187135.9574
                                                                        51.7504
        36.5004
 -16753126.80948 -13038915.85946
                  22203397.6954                                   22203394.4414
                                                                        49.0004
        36.2504
 -18577123.11348 -14458980.96546
                  21438587.1804                                   21438583.8244
                                                                        50.0004
        39.0004
  -2660814.91847  -2027439.10944
                  23246484.7194                                   23246478.8714
                                                                        43.0004
        24.0004
   6867248.78946   5363827.02042
                  24177924.1334                                   24177919.5004
                                                                        40.0004
        16.7504
  -4959183.66047  -3825073.59444
                  23028399.8284                                   23028396.2274
                                                                        44.5004
        27.2504
 09 10 10  0 47  0.0000000  0  9G02G04G05G13G29G10G23G16G25
 -14671375.02048 -11362736.90247
                  20523006.6724                                   20523001.0704
                                                                        52.0004
        42.0004
    882559.77048    719241.04345
                  22586575.6564                                   22586572.6954
                                                                        48.0004
        33.7504
 -13245272.55948 -10276325.04346
                  22128890.6954                                   22128887.6564
                                                                        50.0004
        38.5004
 -18298501.18448 -14179986.41446
                  21173762.5314                                   21173758.2974
                                                                        50.5004
        36.2504
 -16891160.39548 -13146474.50046
                  22177130.7734                                   22177127.5984
                                                                        49.2504
        36.7504
 -18750919.82848 -14594406.96146
                  21405514.5004                                   21405511.4414
                                                                        49.5004
        38.5004
  -2664069.19947  -2029974.89844
                  23245865.4144                                   23245859.4804
                                                                        43.2504
        25.0004
   6707114.12146   5239046.69942
                  24147451.6334                                   24147447.2424
                                                                        41.5004
        17.7504
  -5113755.74247  -3945519.34344
                  22998986.1724                                   22998982.4064
                                                                        43.7504
        26.5004
 09 10 10  0 47 30.0000000  0  9G02G04G05G13G29G10G23G16G25
 -14729706.17648 -11408189.75047
                  20511906.5554                                   20511901.0664
                                                                        52.0004
        42.5004
    887984.34847    723468.00445
                  22587607.7664                                   22587604.7814
                                                                        46.7504
        32.2504
 -13429654.18748 -10419999.02046
                  22093804.3204                                   22093800.4144
                                                                        50.0004
        38.2504
 -18368145.03148 -14234254.37146
                  21160509.7974                                   21160505.5514
                                                                        50.5004
        36.2504
 -17028630.10948 -13253593.75446
                  22150971.0314                                   22150967.7504
                                                                        49.5004
        37.0004
 -18924282.87148 -14729494.98446
                  21372524.6644                                   21372521.4574
                                                                        50.0004
        38.5004
  -2666954.40247  -2032223.16844
                  23245316.7504                                   23245311.3984
                                                                        43.2504
        26.5004
   6547460.71947   5114641.37942
                  24117070.5234                                   24117064.7934
                                                                        42.2504
        17.7504
  -5267847.61747  -4065590.93044
                  22969663.1414                                   22969660.2274
                                                                        44.5004
        28.0004
 09 10 10  0 48  0.0000000  0  9G02G04G05G13G29G10G23G16G25
 -13212041.23048 -10225593.71947
                  20800708.7734                                   20800703.3364
                                                                        52.5004
        42.5004
   2469114.41047   1955517.27745
                  22888487.1724                                   22888484.2074
                                                                        47.5004
        32.7504
 -12038271.39148  -9335804.65246
                  22358575.4614                                   22358571.7504
                                                                        50.5004
        38.0004
 -16861710.20748 -13060409.07446
                  21447175.0554                                   21447170.7814
                                                                        51.5004
        36.5004
 -15590109.90648 -12132668.92246
                  22424712.3754                                   22424709.6414
                                                                        49.2504
        36.5004
 -17521783.55948 -13636638.38746
                  21639411.7974                                   21639407.9024
                                                                        50.2504
        38.5004
  -1094051.63347   -806584.70344
                  23544629.9774                                   23544624.4304
                                                                        42.2504
        26.7504
   7963717.27047   6218217.93043
                  24386574.9224                                   24386570.0234
                                                                        42.2504
        19.7504
  -3846030.48447  -2957681.43044
                  23240226.2504                                   23240222.7624
                                                                        43.7504
        27.5004
 09 10 10  0 48 30.0000000  0  9G02G04G05G13G29G10G23G16G25
 -13269222.91848 -10270150.87947
                  20789827.4064                                   20789822.4964
                                                                        52.7504
        42.5004
   2475111.04347   1960190.07845
                  22889628.4304                                   22889625.3714
                                                                        47.0004
        32.7504
 -12221971.87948  -9478947.88746
                  22323618.8364                                   22323614.8714
                                                                        50.5004
        38.7504
 -16930041.37148 -13113654.14846
                  21434172.1024                                   21434167.8444
                                                                        51.2504
        37.0004
 -15726444.32048 -12238903.51646
                  22398768.7194                                   22398765.6914
                                                                        49.2504
        36.2504
 -17694269.35948 -13771042.91846
                  21606588.6024                                   21606585.0594
                                                                        50.0004
        39.0004
  -1096201.89147   -808260.28944
                  23544221.3134                                   23544215.5314
                                                                        44.5004
        28.7504
   7805037.52347   6094571.39543
                  24356379.3444                                   24356375.1844
                                                                        44.0004
        21.5004
  -3999150.61747  -3076995.79744
                  23211088.4534                                   23211084.7074
                                                                        44.5004
        29.2504
 09 10 10  0 49  0.0000000  0 10G02G04G05G13G29G10G23G16G07G25
 -13325829.82048 -10314260.14847
                  20779055.3594                                   20779049.7664
                                                                        52.7504
        42.5004
   2481392.25447   1965084.61345
                  22890823.2114                                   22890820.8914
                                                                        47.2504
        33.0004
 -12405327.94148  -9621822.71946
                  22288726.7504                                   22288723.5824
                                                                        49.5004
        38.2504
 -16997716.53148 -13166388.04346
                  21421293.7114                                   21421289.9454
                                                                        51.0004
        36.0004
 -15862207.68048 -12344693.13346
                  22372933.7584                                   22372931.1334
                                                                        49.2504
        37.2504
 -17866312.89548 -13905102.82046
                  21573849.4694                                   21573846.2704
                                                                        50.2504
        39.2504
  -1097987.18747   -809651.48444
                  23543881.6484                                   23543876.1914
                                                                        44.7504
        29.0004
   7646849.25447   5971307.82843
                  24326277.4384                                   24326273.1524
                                                                        43.5004
        22.5004
   9212322.07056   7219684.17653
                  24537952.0474                                   24537949.1954
                                                                        39.2504
        20.5004
  -4151780.15247  -3195927.85944
                  23182044.0394                                   23182040.2384
                                                                        46.2504
        28.5004
 09 10 10  0 49 30.0000000  0 10G02G04G05G13G29G10G23G16G07G25
 -13381865.43048 -10357924.25047
                  20768392.0314                                   20768386.5314
                                                                        52.0004
        42.0004
   2487952.66847   1970196.68445
                  22892071.5234                                   22892069.0004
                                                                        45.5004
        32.2504
 -12588339.87948  -9764429.40646
                  22253900.9144                                   22253897.7624
                                                                        49.2504
        38.7504
 -17064739.09048 -13218613.41846
                  21408539.8364                                   21408536.0084
                                                                        50.5004
        36.2504
 -15997400.82848 -12450038.43446
                  22347207.6724                                   22347204.7114
                                                                        49.5004
        37.0004
 -18037914.75448 -14038818.56646
                  21541194.9924                                   21541191.7894
                                                                        50.7504
        39.5004
  -1099412.90247   -810762.48044
                  23543610.4064                                   23543604.8444
                                                                        45.0004
        28.5004
   7489152.08647   5848426.94143
                  24296268.4924                                   24296264.3284
                                                                        42.5004
        22.5004
   9019000.84847   7069044.02344
                  24501165.4144                                   24501161.8324
                                                                        43.0004
        25.5004
  -4303920.07847  -3314478.43444
                  23153092.4064                                   23153089.2704
                                                                        44.5004
        29.5004
 09 10 10  0 50  0.0000000  0 10G02G04G05G13G29G10G23G16G07G25
 -13437337.10948 -10401148.92247
                  20757836.1094                                   20757830.9844
                                                                        51.7504
        42.0004
   2494783.97347   1975519.77045
                  22893371.7814                                   22893368.8634
                                                                        45.5004
        33.2504
 -12771012.37948  -9906771.60946
                  22219139.5234                                   22219136.1644
                                                                        49.2504
        39.2504
 -17131117.46948 -13270336.82046
                  21395908.4534                                   21395904.4224
                                                                        50.5004
        36.7504
 -16132028.05548 -12554942.73846
                  22321588.8594                                   22321585.6844
                                                                        49.0004
        37.5004
 -18209078.67648 -14172193.03546
                  21508623.6094                                   21508620.3134
                                                                        49.7504
        39.0004
  -1100487.99647   -811600.24643
                  23543405.7974                                   23543399.9654
                                                                        44.2504
        23.7504
   7331942.43046   5725925.94543
                  24266352.0004                                   24266348.4454
                                                                        41.2504
        23.0004
   8825932.25447   6918600.57444
                  24464426.1644                                   24464422.7974
                                                                        43.2504
        26.7504
  -4455574.83247  -3432650.99644
                  23124233.3754                                   23124230.2934
                                                                        45.7504
        29.0004
 09 10 10  0 50 30.0000000  0 10G02G04G05G13G29G10G23G16G07G25
 -13492247.53548 -10443936.27047
                  20747387.4614                                   20747381.8554
                                                                        50.5004
        42.0004
   2501882.51647   1981051.10245
                  22894722.7274                                   22894719.8714
                                                                        45.7504
        33.5004
 -12953345.20748 -10048849.14146
                  22184443.4224                                   22184439.7504
                                                                        49.0004
        38.5004
 -17196853.67248 -13321559.84046
                  21383399.3754                                   21383395.0984
                                                                        50.0004
        36.0004
 -16266090.71547 -12659407.13746
                  22296077.3594                                   22296074.5354
                                                                        47.7504
        37.0004
 -18379805.32048 -14305226.77346
                  21476135.3054                                   21476131.8914
                                                                        50.0004
        38.7504
  -1101216.75847   -812168.07443
                  23543266.4224                                   23543259.8714
                                                                        42.5004
        22.2504
   7175220.66446   5603805.12543
                  24236528.1954                                   24236525.1134
                                                                        40.0004
        22.0004
   8633118.56347   6768356.09444
                  24427734.2344                                   24427731.7194
                                                                        43.5004
        28.2504
  -4606743.54747  -3550444.74644
                  23095466.9924                                   23095463.5004
                                                                        45.0004
        29.0004
 09 10 10  0 51  0.0000000  0 10G02G04G05G13G29G10G23G16G07G25
 -13546590.72748 -10486281.60247
                  20737045.9144                                   20737040.8794
                                                                        51.7504
        42.0004
   2509252.87547   1986794.26645
                  22896125.2344                                   22896122.6094
                                                                        46.2504
        34.0004
 -13135329.10548 -10190654.76646
                  22149812.6254                                   22149809.2464
                                                                        50.0004
        39.2504
 -17261942.63748 -13372278.52746
                  21371013.0704                                   21371008.9694
                                                                        49.2504
        36.0004
 -16399579.57448 -12763424.41046
                  22270675.5944                                   22270672.5554
                                                                        49.0004
        37.0004
 -18550085.44948 -14437912.57046
                  21443732.1094                                   21443728.7584
                                                                        50.0004
        39.0004
  -1101594.97346   -812462.75043
                  23543194.5004                                   23543188.5354
                                                                        41.5004
        22.0004
   7018995.49246   5482071.23843
                  24206800.4384                                   24206796.0864
                                                                        40.0004
        22.0004
   8440569.72347   6618318.59444
                  24391093.3914                                   24391090.3594
                                                                        43.0004
        26.5004
  -4757417.94947  -3667853.37544
                  23066795.0164                                   23066790.9534
                                                                        45.2504
        28.5004
 09 10 10  0 51 30.0000000  0 10G02G04G05G13G29G10G23G16G07G25
 -13600363.59448 -10528182.52347
                  20726813.4384                                   20726808.0084
                                                                        51.7504
        42.0004
   2516897.41047   1992751.15645
                  22897579.6484                                   22897577.0084
                                                                        47.0004
        32.7504
 -13316959.06248 -10332184.60246
                  22115249.1884                                   22115245.7934
                                                                        49.2504
        38.7504
 -17326380.87148 -13422490.14146
                  21358750.7894                                   21358746.8244
                                                                        49.2504
        36.2504
 -16532489.58648 -12866990.62946
                  22245383.4614                                   22245380.4144
                                                                        50.0004
        37.2504
 -18719913.96948 -14570246.48846
                  21411414.9304                                   21411411.3134
                                                                        50.0004
        39.2504
  -1101621.15647   -812483.19144
                  23543189.6254                                   23543184.0314
                                                                        42.2504
        24.2504
   6863273.21946   5360729.21543
                  24177167.3594                                   24177163.5044
                                                                        40.7504
        21.5004
   8248290.47546   6468490.53444
                  24354502.8134                                   24354500.2934
                                                                        41.0004
        25.0004
  -4907591.61347  -3784871.84844
                  23038217.4924                                   23038214.0434
                                                                        44.0004
        27.2504
 09 10 10  0 52  0.0000000  0 10G02G04G05G13G29G10G23G16G07G25
 -13653567.84848 -10569640.37947
                  20716688.8134                                   20716683.3754
                                                                        51.5004
        42.5004
   2524812.55547   1998918.82045
                  22899085.8914                                   22899083.0124
                                                                        45.5004
        32.0004
 -13498233.42648 -10473437.37146
                  22080753.7194                                   22080750.5234
                                                                        48.0004
        38.7504
 -17390171.66048 -13472197.26246
                  21346611.7504                                   21346607.8874
                                                                        49.5004
        36.5004
 -16664820.01248 -12970105.23846
                  22220201.7114                                   22220198.7074
                                                                        50.2504
        37.5004
 -18889288.89548 -14702226.98846
                  21379183.7974                                   21379180.2734
                                                                        49.5004
        38.7504
  -1101299.15247   -812232.31244
                  23543251.5164                                   23543245.7274
                                                                        44.5004
        28.0004
   6708055.56646   5239780.44143
                  24147630.1334                                   24147626.2734
                                                                        38.7504
        20.5004
   8056285.12546   6318876.20743
                  24317965.6094                                   24317963.2544
                                                                        39.7504
        22.2504
  -5057263.53147  -3901499.34044
                  23009735.3754                                   23009732.0354
                                                                        43.2504
        27.0004
 09 10 10  0 52 30.0000000  0 10G02G04G05G13G29G10G23G16G07G25
 -13706206.16048 -10610657.23447
                  20706671.9774                                   20706666.4614
                                                                        52.2504
        42.5004
   2532994.65647   2005294.39545
                  22900642.5314                                   22900639.9574
                                                                        46.5004
        31.5004
 -13679152.27348 -10614413.08246
                  22046325.9924                                   22046322.5784
                                                                        48.7504
        39.2504
 -17453316.44548 -13521400.96946
                  21334595.8524                                   21334591.9304
                                                                        49.5004
        36.5004
 -16796570.92648 -13072768.26246
                  22195130.6884                                   22195127.4884
                                                                        50.0004
        37.7504
 -19058210.27048 -14833854.03146
                  21347039.3674                                   21347035.6484
                                                                        50.5004
        39.0004
  -1100632.66047   -811712.97344
                  23543378.5234                                   23543372.4694
                                                                        44.7504
        29.2504
   6553343.05546   5119225.23043
                  24118189.7034                                   24118185.5084
                                                                        39.5004
        20.5004
   7864554.60546   6169476.18843
                  24281480.8914                                   24281477.2894
                                                                        40.5004
        20.5004
  -5206433.00047  -4017735.27044
                  22981349.3834                                   22981346.0664
                                                                        43.0004
        28.5004
 09 10 10  0 53  0.0000000  0 10G02G04G05G13G29G10G23G16G07G25
 -13758275.35548 -10651230.62147
                  20696763.7424                                   20696757.8204
                                                                        52.2504
        42.5004
   2541446.02047   2011879.72345
                  22902250.9694                                   22902248.5984
                                                                        47.0004
        31.7504
 -13859709.23848 -10755106.81246
                  22011967.3594                                   22011963.8954
                                                                        49.0004
        39.2504
 -17515812.85248 -13570099.46946
                  21322703.3054                                   21322699.4224
                                                                        49.0004
        36.0004
 -16927736.92248 -13174975.50046
                  22170170.3524                                   22170167.1564
                                                                        49.5004
        37.2504
 -19226672.07048 -14965122.96946
                  21314982.0164                                   21314978.2194
                                                                        51.2504
        39.2504
  -1099620.54747   -810924.28944
                  23543571.1954                                   23543565.4964
                                                                        44.7504
        29.0004
   6399141.89846   4999068.53543
                  24088845.9774                                   24088842.1604
                                                                        39.2504
        22.0004
   7673105.57047   6020295.27343
                  24245049.6024                                   24245044.8594
                                                                        42.7504
        21.5004
  -5355094.18447  -4133575.15644
                  22953060.6954                                   22953056.9734
                                                                        44.7504
        28.2504
 09 10 10  0 53 30.0000000  0 10G02G04G05G13G29G10G23G16G07G25
 -13809776.00848 -10691361.00047
                  20686963.4144                                   20686957.7504
                                                                        51.0004
        42.0004
   2550165.22347   2018673.90645
                  22903910.7344                                   22903907.6294
                                                                        47.5004
        32.2504
 -14039901.85948 -10895516.64146
                  21977678.0084                                   21977674.4494
                                                                        49.0004
        39.0004
 -17577662.73448 -13618294.20346
                  21310933.5634                                   21310929.5904
                                                                        49.5004
        36.2504
 -17058316.02748 -13276725.43746
                  22145322.1094                                   22145318.9184
                                                                        49.5004
        37.2504
 -19394672.51248 -15096032.41446
                  21283012.4774                                   21283009.2234
                                                                        49.5004
        39.2504
  -1098264.94147   -809867.96544
                  23543828.6334                                   23543822.6214
                                                                        44.2504
        25.7504
   6245455.05546   4879312.57443
                  24059600.3054                                   24059596.9104
                                                                        40.7504
        21.2504
   7481941.26647   5871336.06644
                  24208672.4454                                   24208667.5634
                                                                        44.2504
        24.2504
  -5503244.69147  -4249017.10944
                  22924868.9924                                   22924864.9964
                                                                        45.0004
        29.7504
 09 10 10  0 54  0.0000000  0 10G02G04G05G13G29G10G23G16G07G25
 -13860709.18448 -10731049.17646
                  20677271.1414                                   20677265.6414
                                                                        51.5004
        41.7504
   2559149.64548   2025674.65645
                  22905620.4454                                   22905617.5944
                                                                        48.0004
        32.7504
 -14219728.94948 -11035641.64546
                  21943458.4774                                   21943454.4654
                                                                        49.2504
        40.0004
 -17638866.45748 -13665985.40246
                  21299286.8984                                   21299282.8444
                                                                        49.0004
        36.7504
 -17188307.67248 -13378017.62146
                  22120585.0394                                   22120581.9844
                                                                        49.7504
        37.2504
 -19562209.77748 -15226580.91446
                  21251131.5784                                   21251127.9104
                                                                        49.5004
        39.5004
  -1096568.36346   -808545.95343
                  23544151.6094                                   23544145.8714
                                                                        41.5004
        22.7504
   6092284.27746   4759958.71943
                  24030453.2424                                   24030448.5434
                                                                        40.5004
        22.0004
   7291065.30147   5722601.61744
                  24172349.5784                                   24172345.8324
                                                                        44.2504
        27.2504
  -5650882.48447  -4364059.53944
                  22896774.1564                                   22896770.1024
                                                                        43.5004
        28.7504
 09 10 10  0 54 30.0000000  0 10G02G04G05G13G29G10G23G16G07G25
 -13911072.21148 -10770293.08247
                  20667687.3524                                   20667681.9344
                                                                        50.7504
        42.0004
   2568400.94547   2032883.39545
                  22907380.7814                                   22907377.8404
                                                                        47.0004
        31.7504
 -14399184.25848 -11175476.95346
                  21909308.9454                                   21909305.3204
                                                                        50.0004
        39.7504
 -17699421.70348 -13713171.33646
                  21287763.7584                                   21287759.7234
                                                                        50.0004
        36.0004
 -17317705.80948 -13478847.32846
                  22095961.7194                                   22095958.3164
                                                                        49.2504
        37.0004
 -19729278.03148 -15356763.96146
                  21219339.2814                                   21219335.9144
                                                                        48.7504
        40.0004
  -1094529.82446   -806957.45743
                  23544538.6334                                   23544533.0664
                                                                        40.2504
        21.5004
   5939635.64547   4641011.71943
                  24001405.4924                                   24001400.1724
                                                                        42.0004
        21.5004
   7100483.76647   5574096.66044
                  24136082.7504                                   24136079.6684
                                                                        43.7504
        26.5004
  -5798002.12947  -4478698.24244
                  22868778.6174                                   22868774.5554
                                                                        44.7504
        29.0004
 09 10 10  0 55  0.0000000  0 10G02G04G05G13G29G10G23G16G07G25
 -13960869.83648 -10809096.42246
                  20658211.4924                                   20658205.5984
                                                                        51.5004
        41.7504
   2577913.78547   2040295.86745
                  22909191.1094                                   22909188.4964
                                                                        47.0004
        32.5004
 -14578269.79348 -11315024.10546
                  21875230.0864                                   21875226.6214
                                                                        50.0004
        39.2504
 -17759333.23848 -13759855.64845
                  21276362.7664                                   21276359.0664
                                                                        48.7504
        35.7504
 -17446513.17248 -13579216.69146
                  22071450.4534                                   22071447.0944
                                                                        49.5004
        37.0004
 -19895878.98448 -15486582.88346
                  21187635.9924                                   21187632.5824
                                                                        50.0004
        39.2504
  -1092155.68746   -805107.46143
                  23544990.8674                                   23544984.3444
                                                                        41.5004
        21.7504
   5787507.54746   4522470.34443
                  23972456.0394                                   23972451.1214
                                                                        40.5004
        22.0004
   6910196.53547   5425820.98444
                  24099872.1414                                   24099868.6334
                                                                        42.0004
        26.5004
  -5944605.03147  -4592934.26244
                  22840880.2814                                   22840877.1644
                                                                        45.0004
        29.0004
 09 10 10  0 55 30.0000000  0 10G02G04G05G13G29G10G23G16G07G25
 -14010103.07848 -10847459.98046
                  20648842.1724                                   20648837.0634
                                                                        51.0004
        41.5004
   2587685.85947   2047910.32045
                  22911050.9144                                   22911048.1174
                                                                        45.5004
        31.7504
 -14756983.66848 -11454281.65246
                  21841221.5634                                   21841218.0124
                                                                        50.0004
        39.2504
 -17818602.89848 -13806039.80546
                  21265084.3914                                   21265080.2974
                                                                        50.0004
        36.2504
 -17574728.40248 -13679124.68046
                  22047051.8054                                   22047048.7034
                                                                        49.0004
        37.5004
 -20062010.99248 -15616036.36346
                  21156022.0084                                   21156018.7344
                                                                        49.7504
        39.0004
  -1089448.43747   -802997.87144
                  23545506.8524                                   23545500.2154
                                                                        43.7504
        24.2504
   5635902.18046   4404336.26243
                  23943606.4224                                   23943601.5234
                                                                        40.7504
        20.7504
   6720206.26646   5277776.69944
                  24063718.0234                                   24063714.8594
                                                                        40.5004
        25.2504
  -6090689.41047  -4706766.22744
                  22813081.2814                                   22813078.3524
                                                                        44.2504
        28.7504
 09 10 10  0 56  0.0000000  0 10G02G04G05G13G29G10G23G16G07G25
 -14058779.23848 -10885389.44546
                  20639579.7894                                   20639574.2734
                                                                        50.7504
        41.7504
   2597708.66447   2055720.25845
                  22912957.9844                                   22912955.3364
                                                                        45.7504
        31.5004
 -14935330.20748 -11593252.98046
                  21807283.3134                                   21807280.3634
                                                                        49.5004
        39.7504
 -17877238.59048 -13851729.96145
                  21253926.5234                                   21253922.3244
                                                                        49.7504
        35.7504
 -17702356.71548 -13778575.28946
                  22022764.8364                                   22022761.7384
                                                                        49.0004
        37.5004
 -20227678.87948 -15745128.22346
                  21124496.4224                                   21124493.3324
                                                                        49.2504
        39.2504
  -1086417.29747   -800635.94944
                  23546083.0314                                   23546077.5744
                                                                        43.2504
        26.2504
   5484815.06346   4286606.06643
                  23914854.9694                                   23914850.6484
                                                                        38.7504
        20.7504
   6530509.57846   5129961.28943
                  24027618.9614                                   24027616.8524
                                                                        40.5004
        23.5004
  -6236260.15247  -4820197.98444
                  22785380.5004                                   22785377.0704
                                                                        43.5004
        28.7504
 09 10 10  0 56 30.0000000  0 10G02G04G05G13G29G10G23G16G07G25
 -12531473.24648  -9695280.87946
                  20930216.0164                                   20930210.9064
                                                                        50.5004
        41.7504
   4183404.40247   3291327.29345
                  23214705.6414                                   23214703.2814
                                                                        45.2504
        30.7504
 -13537877.39148 -10504328.70746
                  22073210.0474                                   22073206.1414
                                                                        50.5004
        39.5004
 -16359814.80948 -12669321.81646
                  21542682.0704                                   21542678.0274
                                                                        50.5004
        36.2504
 -16253967.50048 -12649960.30146
                  22298384.3054                                   22298380.9924
                                                                        49.5004
        36.7504
 -18817450.50048 -14646248.98046
                  21392854.1484                                   21392850.7464
                                                                        49.5004
        39.5004
    492359.90247    429580.03544
                  23846514.7274                                   23846508.7774
                                                                        43.2504
        26.7504
   6909678.43046   5396889.25043
                  24185997.2894                                   24185993.6024
                                                                        37.5004
        20.0004
   7916540.64847   6209985.61744
                  24291373.1254                                   24291369.3364
                                                                        43.0004
        26.2504
  -4805885.47347  -3705620.31245
                  23057571.6174                                   23057568.1054
                                                                        45.0004
        30.5004
 09 10 10  0 57  0.0000000  0 10G02G04G05G13G29G10G23G16G07G25
 -12579029.83248  -9732337.96146
                  20921166.5394                                   20921161.0704
                                                                        51.5004
        41.7504
   4193931.28147   3299529.96145
                  23216708.8834                                   23216706.4064
                                                                        46.0004
        31.0004
 -13715475.39548 -10642716.77346
                  22039414.3284                                   22039410.8444
                                                                        50.7504
        40.0004
 -16417177.34448 -12714019.90246
                  21531766.6334                                   21531763.0514
                                                                        50.5004
        36.2504
 -16380409.11748 -12748486.21146
                  22274322.8364                                   22274319.6454
                                                                        49.0004
        37.2504
 -18982175.89548 -14774606.43446
                  21361507.7664                                   21361504.6684
                                                                        50.7504
        39.7504
    496040.05947    432447.68844
                  23847214.9844                                   23847209.1134
                                                                        43.2504
        26.0004
   6759643.56346   5279979.00443
                  24157445.9614                                   24157442.8164
                                                                        37.7504
        19.7504
   7727449.10947   6062641.51643
                  24255389.3914                                   24255385.9414
                                                                        42.0004
        23.5004
  -4950413.73047  -3818239.72344
                  23030068.6094                                   23030065.0634
                                                                        44.2504
        27.7504
 09 10 10  0 57 30.0000000  0 10G02G04G05G13G29G10G23G16G07G25
 -12626031.02348  -9768962.27747
                  20912222.5864                                   20912217.0594
                                                                        49.7504
        42.0004
   4204704.28147   3307924.39145
                  23218759.4454                                   23218756.5594
                                                                        44.5004
        30.5004
 -13892698.75848 -10780812.89846
                  22005689.3754                                   22005686.3284
                                                                        51.0004
        40.0004
 -16473908.54748 -12758226.06645
                  21520970.9304                                   21520967.1414
                                                                        50.2504
        35.5004
 -16506257.89548 -12846550.19146
                  22250374.6724                                   22250372.0164
                                                                        48.5004
        37.0004
 -19146429.93448 -14902596.57046
                  21330251.4454                                   21330248.0394
                                                                        49.7504
        39.7504
    500038.21546    435563.10543
                  23847974.7974                                   23847969.8324
                                                                        41.5004
        23.5004
   6610135.19546   5163479.01643
                  24128996.6804                                   24128992.2704
                                                                        39.7504
        23.0004
   7538661.94147   5915534.63744
                  24219464.7424                                   24219460.7814
                                                                        42.5004
        24.0004
  -5094420.77747  -3930452.97744
                  23002665.1484                                   23002661.7734
                                                                        44.5004
        29.0004
 09 10 10  0 58  0.0000000  0 10G02G04G05G13G29G10G23G16G07G25
 -12672475.88748  -9805153.07446
                  20903384.1484                                   20903378.7624
                                                                        51.2504
        41.5004
   4215723.77747   3316510.92245
                  23220856.4144                                   23220853.5594
                                                                        46.5004
        30.5004
 -14069543.85548 -10918614.26646
                  21972037.1414                                   21972033.5554
                                                                        50.0004
        39.7504
 -16530007.46948 -12801939.53146
                  21510295.9534                                   21510291.9884
                                                                        49.5004
        36.2504
 -16631511.06648 -12944150.05546
                  22226540.1094                                   22226537.2194
                                                                        48.5004
        37.0004
 -19310208.65248 -15030216.35546
                  21299085.4144                                   21299082.4184
                                                                        50.2504
        40.0004
    504354.08247    438926.04744
                  23848796.9614                                   23848791.4224
                                                                        42.5004
        24.5004
   6461157.49646   5047392.50043
                  24100647.0784                                   24100643.0824
                                                                        41.2504
        23.5004
   7350184.42247   5768669.03943
                  24183598.9064                                   24183594.6174
                                                                        43.5004
        23.2504
  -5237902.42247  -4042256.84844
                  22975361.1174                                   22975358.5004
                                                                        42.2504
        29.5004
 09 10 10  0 58 30.0000000  0 10G02G04G05G13G29G10G23G16G07G25
 -12718365.71948  -9840911.38746
                  20894651.8134                                   20894646.3634
                                                                        49.7504
        41.7504
   4226987.59447   3325287.92245
                  23223000.0864                                   23222997.4654
                                                                        46.5004
        31.2504
 -14246008.69148 -11056119.32446
                  21938457.1804                                   21938453.4534
                                                                        50.5004
        39.7504
 -16585475.81248 -12845161.66045
                  21499740.5084                                   21499736.6254
                                                                        49.5004
        35.5004
 -16756167.32048 -13041284.79346
                  22202818.5394                                   22202815.6604
                                                                        49.5004
        37.5004
 -19473510.07848 -15157464.19946
                  21268010.2344                                   21268006.6214
                                                                        49.7504
        39.5004
    508984.20747    442533.92243
                  23849677.3134                                   23849672.0314
                                                                        42.7504
        22.0004
   6312712.39146   4931721.02044
                  24072398.8984                                   24072395.0204
                                                                        41.2504
        25.5004
   7162018.93847   5622046.39144
                  24147792.5944                                   24147787.8204
                                                                        44.7504
        25.0004
  -5380857.09847  -4153650.07845
                  22948157.9304                                   22948154.3834
                                                                        43.7504
        30.0004
 09 10 10  0 59  0.0000000  0 10G02G04G05G13G29G10G23G16G07G25
 -12763702.80948  -9876238.98047
                  20886024.5004                                   20886019.0904
                                                                        50.7504
        42.0004
   4238492.16447   3334252.56645
                  23225189.1564                                   23225186.6024
                                                                        45.7504
        31.2504
 -14422092.34048 -11193327.35946
                  21904949.4144                                   21904945.9414
                                                                        50.0004
        39.5004
 -16640315.81648 -12887894.16045
                  21489305.0084                                   21489300.8674
                                                                        49.2504
        35.5004
 -16880226.21548 -13137954.06246
                  22179211.2114                                   22179208.3794
                                                                        49.2504
        38.0004
 -19636333.99648 -15284339.96546
                  21237025.8054                                   21237022.3014
                                                                        49.2504
        40.5004
    513925.26647    446384.09443
                  23850617.9224                                   23850612.0474
                                                                        42.0004
        22.0004
   6164801.11746   4816465.49644
                  24044252.3594                                   24044248.2544
                                                                        40.0004
        25.0004
   6974167.47747   5475668.33644
                  24112045.2344                                   24112042.0124
                                                                        43.5004
        26.0004
  -5523284.31647  -4264632.32045
                  22921055.5704                                   22921051.7384
                                                                        44.0004
        30.5004
 09 10 10  0 59 30.0000000  0 10G02G04G05G13G29G10G23G16G07G25
 -12808487.59848  -9911136.21947
                  20877502.2344                                   20877496.6844
                                                                        51.2504
        42.5004
   4250236.19947   3343403.73845
                  23227423.2194                                   23227421.0474
                                                                        45.5004
        30.7504
 -14597792.43748 -11330236.53146
                  21871514.7814                                   21871511.2464
                                                                        49.7504
        40.0004
 -16694528.66848 -12930137.94545
                  21478988.3914                                   21478984.7814
                                                                        49.5004
        35.7504
 -17003685.96148 -13234156.45346
                  22155717.5084                                   22155714.6724
                                                                        49.5004
        37.5004
 -19798678.24248 -15410841.98046
                  21206132.5084                                   21206129.0234
                                                                        49.5004
        40.0004
    519175.70747    450475.33643
                  23851617.1724                                   23851611.3634
                                                                        43.0004
        22.5004
   6017425.88746   4701627.64843
                  24016207.8834                                   24016203.3164
                                                                        39.7504
        22.2504
   6786634.69547   5329538.99244
                  24076358.3594                                   24076356.2464
                                                                        42.0004
        25.7504
  -5665181.36347  -4375201.44945
                  22894053.3284                                   22894049.6094
                                                                        44.5004
        30.0004
 09 10 10  1  0  0.0000000  0 10G02G04G05G13G29G10G23G16G07G25
 -12852722.00848  -9945604.58246
                  20869084.7974                                   20869079.2974
                                                                        51.0004
        41.2504
   4262216.29347   3352738.84845
                  23229703.4144                                   23229701.1484
                                                                        46.2504
        31.0004
 -14773108.31248 -11466846.28946
                  21838153.1094                                   21838150.0554
                                                                        50.2504
        40.5004
 -16748117.48848 -12971895.46945
                  21468791.0554                                   21468786.7074
                                                                        48.5004
        35.2504
 -17126547.11348 -13329892.40646
                  22132337.8204                                   22132334.3914
                                                                        49.5004
        37.5004
 -19960541.79348 -15536969.41446
                  21175331.0864                                   21175327.6174
                                                                        50.0004
        39.7504
    524730.97747    454804.11743
                  23852674.6644                                   23852668.5704
                                                                        43.5004
        22.7504
   5870587.51646   4587208.14843
                  23988265.3984                                   23988260.6954
                                                                        40.0004
        21.0004
   6599421.50447   5183658.73044
                  24040733.9534                                   24040730.7544
                                                                        42.5004
        27.5004
  -5806548.10247  -4485357.35944
                  22867151.8524                                   22867147.9964
                                                                        44.2504
        28.7504
 09 10 10  1  0 30.0000000  0 10G02G04G05G13G29G10G23G16G07G25
 -12896407.21148  -9979645.00447
                  20860771.6024                                   20860766.6174
                                                                        50.2504
        42.0004
   4274431.52047   3362257.20745
                  23232028.1724                                   23232026.0204
                                                                        47.0004
        31.5004
 -14948037.72748 -11603154.90246
                  21804865.8914                                   21804862.0904
                                                                        49.5004
        40.7504
 -16801082.39147 -13013166.85945
                  21458712.1174                                   21458708.0434
                                                                        47.7504
        35.5004
 -17248807.67648 -13425160.37946
                  22109072.5554                                   22109069.5744
                                                                        50.0004
        38.0004
 -20121922.40248 -15662720.52046
                  21144621.2664                                   21144617.7734
                                                                        49.0004
        40.5004
    530589.58247    459369.22744
                  23853788.9384                                   23853783.6764
                                                                        42.5004
        24.2504
   5724288.82446   4473209.16443
                  23960425.4614                                   23960421.2384
                                                                        39.2504
        20.5004
   6412532.15247   5038030.86344
                  24005169.5474                                   24005166.4804
                                                                        44.0004
        27.5004
  -5947381.42647  -4595097.57444
                  22840352.0704                                   22840348.5124
                                                                        43.0004
        28.5004
 09 10 10  1  1  0.0000000  0 10G02G04G05G13G29G10G23G16G07G25
 -12939544.14548 -10013258.21147
                  20852563.1094                                   20852557.6484
                                                                        50.5004
        42.0004
   4286879.36747   3371956.81645
                  23234397.0474                                   23234394.4224
                                                                        46.7504
        30.5004
 -15122578.54348 -11739160.73846
                  21771651.7194                                   21771647.7504
                                                                        51.0004
        40.7504
 -16853425.48848 -13053953.68446
                  21448751.6254                                   21448747.6414
                                                                        48.7504
        36.0004
 -17370466.00848 -13519959.07846
                  22085921.7664                                   22085918.8014
                                                                        50.2504
        38.0004
 -20282818.54348 -15788094.11746
                  21114003.6804                                   21114000.2894
                                                                        50.0004
        40.2504
    536748.74247    464168.52343
                  23854961.2344                                   23854956.1174
                                                                        42.5004
        22.7504
   5578531.92646   4359632.39543
                  23932688.8364                                   23932684.5664
                                                                        40.2504
        20.7504
   6225968.32847   4892656.34844
                  23969667.8834                                   23969664.6214
                                                                        44.5004
        28.2504
  -6087679.94147  -4704421.08245
                  22813654.1954                                   22813650.7584
                                                                        44.7504
        30.0004
 09 10 10  1  1 30.0000000  0 10G02G04G05G13G29G10G23G16G07G25
 -12982133.85248 -10046445.01247
                  20844458.4844                                   20844453.1564
                                                                        50.7504
        42.0004
   4299557.97347   3381835.98444
                  23236809.6804                                   23236807.1054
                                                                        46.5004
        29.7504
 -15296728.67648 -11874862.11346
                  21738511.8674                                   21738508.1604
                                                                        50.2504
        40.7504
 -16905148.20347 -13094257.09445
                  21438909.0394                                   21438904.8674
                                                                        47.0004
        35.5004
 -17491521.40648 -13614287.96946
                  22062885.7344                                   22062882.1214
                                                                        50.2504
        37.2504
 -20443227.92248 -15913088.42246
                  21083479.1174                                   21083475.2194
                                                                        49.2504
        40.0004
    543206.35546    469200.39143
                  23856189.8444                                   23856184.3524
                                                                        41.0004
        22.0004
   5433318.90646   4246479.41443
                  23905055.7424                                   23905051.6414
                                                                        40.5004
        21.5004
   6039734.85947   4747539.60244
                  23934228.4694                                   23934225.0234
                                                                        44.5004
        27.2504
  -6227441.83647  -4813326.48044
                  22787057.8594                                   22787054.7584
                                                                        44.0004
        29.0004
 09 10 10  1  2  0.0000000  0 10G02G04G05G13G29G10G23G16G07G25
 -13024177.25848 -10079206.11346
                  20836457.8204                                   20836452.3794
                                                                        50.7504
        41.7504
   4312464.83647   3391892.66445
                  23239266.6644                                   23239263.4384
                                                                        46.5004
        30.2504
 -15470485.86748 -12010257.32846
                  21705446.9924                                   21705443.1644
                                                                        51.0004
        40.0004
 -16956251.63348 -13134077.94145
                  21429184.3444                                   21429179.9694
                                                                        48.5004
        35.0004
 -17611972.09448 -13708145.63746
                  22039964.5634                                   22039961.5944
                                                                        50.2504
        38.0004
 -20603148.85948 -16037702.12546
                  21053047.0474                                   21053043.8134
                                                                        48.7504
        40.2504
    549960.25047    474463.11343
                  23857475.5864                                   23857470.1334
                                                                        42.0004
        23.2504
   5288651.95347   4133751.94543
                  23877526.5474                                   23877522.4384
                                                                        42.2504
        22.7504
   5853833.86747   4602681.90644
                  23898852.1414                                   23898848.9024
                                                                        43.2504
        26.5004
  -6366664.84447  -4921811.91844
                  22760565.1484                                   22760561.8484
                                                                        44.7504
        29.7504
 09 10 10  1  2 30.0000000  0 10G02G04G05G13G29G10G23G16G07G25
 -13065676.18448 -10111542.96946
                  20828560.8054                                   20828555.6764
                                                                        50.7504
        41.5004
   4325598.36747   3402126.10944
                  23241765.8914                                   23241763.7704
                                                                        46.0004
        28.7504
 -15643849.04748 -12145345.51646
                  21672456.8204                                   21672453.0944
                                                                        50.7504
        40.0004
 -17006737.89848 -13173417.87145
                  21419577.2664                                   21419573.0744
                                                                        48.2504
        35.5004
 -17731817.79348 -13801531.90246
                  22017159.0634                                   22017155.8674
                                                                        50.0004
        37.7504
 -20762580.48848 -16161934.55146
                  21022708.3134                                   21022704.7734
                                                                        49.2504
        40.0004
    557006.75446    479953.85544
                  23858816.1254                                   23858811.1884
                                                                        41.5004
        25.5004
   5144532.80947   4021451.30943
                  23850101.9384                                   23850098.2734
                                                                        43.0004
        23.7504
   5668267.91847   4458085.05144
                  23863540.4924                                   23863536.6994
                                                                        43.0004
        24.0004
  -6505348.08647  -5029876.78545
                  22734174.5314                                   22734171.0554
                                                                        45.0004
        30.5004
 09 10 10  1  3  0.0000000  0 10G02G04G05G13G29G10G23G16G07G25
 -13106632.56248 -10143457.09046
                  20820767.3754                                   20820761.8954
                                                                        50.5004
        41.2504
   4338956.46547   3412464.78555
                  23244307.6024                                   23244305.7194
                                                                        45.5004
        30.5004
 -15816816.77348 -12280125.54746
                  21639541.9694                                   21639538.6174
                                                                        50.0004
        40.0004
 -17056609.45347 -13212278.82045
                  21410086.8594                                   21410082.6414
                                                                        47.7504
        35.0004
 -17851058.16048 -13894446.47346
                  21994468.2114                                   21994465.0164
                                                                        50.2504
        37.7504
 -20921521.35248 -16285784.57846
                  20992462.8204                                   20992459.4264
                                                                        49.2504
        40.5004
    564342.83247    485670.21144
                  23860212.5394                                   23860206.8284
                                                                        42.2504
        24.5004
   5000962.15647   3909578.04744
                  23822781.6564                                   23822777.1994
                                                                        43.5004
        24.2504
   5483040.14546   4313751.69544
                  23828292.8594                                   23828288.7234
                                                                        41.5004
        24.2504
  -6643490.21947  -5137519.98844
                  22707886.6174                                   22707883.1054
                                                                        43.7504
        29.7504
 09 10 10  1  3 30.0000000  0 10G02G04G05G13G29G10G23G16G07G25
 -13147048.06648 -10174949.75446
                  20813076.5164                                   20813071.2584
                                                                        49.7504
        41.5004
   4352536.51247   3423046.52045
                  23246892.2734                                   23246890.1994
                                                                        46.2504
        30.0004
 -15989387.52048 -12414596.23446
                  21606702.7344                                   21606699.4344
                                                                        50.5004
        40.0004
 -17105868.04348 -13250662.11345
                  21400713.4304                                   21400709.1134
                                                                        48.5004
        35.2504
 -17969692.03548 -13986888.44146
                  21971892.7034                                   21971889.6684
                                                                        49.7504
        37.7504
 -21079970.32448 -16409251.30546
                  20962310.8444                                   20962307.3794
                                                                        48.5004
        40.5004
    571965.87947    491610.19543
                  23861663.5084                                   23861657.9844
                                                                        43.5004
        23.2504
   4857942.03947   3798133.80943
                  23795564.7424                                   23795561.2854
                                                                        43.2504
        23.7504
   5298152.51646   4169683.42644
                  23793109.7894                                   23793106.0004
                                                                        40.0004
        24.5004
  -6781090.10547  -5244740.67245
                  22681702.1724                                   22681698.9884
                                                                        44.5004
        30.2504
 09 10 10  1  4  0.0000000  0 10G02G04G05G13G29G10G23G16G07G25
 -13186925.35248 -10206023.06246
                  20805488.2114                                   20805483.0864
                                                                        51.5004
        41.2504
   4366333.65647   3433796.86345
                  23249518.1254                                   23249516.1844
                                                                        45.0004
        30.7504
 -16161561.26248 -12548757.57446
                  21573939.2194                                   21573935.9454
                                                                        51.2504
        40.2504
 -17154516.82048 -13288570.24245
                  21391455.7664                                   21391451.8794
                                                                        48.2504
        35.0004
 -18087720.24648 -14078858.48846
                  21949432.5394                                   21949429.4614
                                                                        50.2504
        38.0004
 -21237926.84448 -16532334.29746
                  20932252.6644                                   20932249.3554
                                                                        49.5004
        39.5004
    579871.62147    497770.48843
                  23863167.7664                                   23863162.1954
                                                                        44.0004
        22.0004
   4715472.71947   3687118.75043
                  23768454.4614                                   23768449.7854
                                                                        42.7504
        22.7504
   5113606.56347   4025881.27044
                  23757991.5784                                   23757988.0784
                                                                        43.2504
        27.2504
  -6918147.32447  -5351538.50844
                  22655621.6564                                   22655617.6564
                                                                        45.5004
        29.2504
 09 10 10  1  4 30.0000000  0 10G02G04G05G13G29G10G23G16G07G25
 -13226262.01648 -10236675.08247
                  20798002.8364                                   20797997.7234
                                                                        49.7504
        42.0004
   4380351.42247   3444719.73045
                  23252185.5314                                   23252184.4844
                                                                        46.5004
        31.0004
 -16333332.14548 -12682604.99646
                  21541252.6094                                   21541249.3284
                                                                        51.2504
        41.7504
 -17202554.19948 -13326001.94945
                  21382314.4064                                   21382310.4574
                                                                        48.2504
        35.0004
 -18205138.11348 -14170352.94946
                  21927088.8834                                   21927085.8714
                                                                        49.7504
        37.7504
 -21395385.81248 -16655029.60246
                  20902289.2584                                   20902286.0044
                                                                        48.5004
        40.0004
    588061.30547    504152.08243
                  23864725.7814                                   23864720.2114
                                                                        43.5004
        21.5004
   4573559.93847   3576537.38744
                  23741449.6484                                   23741444.8834
                                                                        42.5004
        24.0004
   4929409.06647   3882350.67244
                  23722940.6334                                   23722936.7584
                                                                        43.2504
        29.0004
  -7054656.80147  -5457909.53144
                  22629644.7664                                   22629640.8244
                                                                        46.0004
        29.5004
 09 10 10  1  5  0.0000000  0 10G02G04G05G13G29G10G23G16G07G25
 -11689644.42248  -9039310.85246
                  21090411.4064                                   21090405.7894
                                                                        51.0004
        41.7504
   5970000.34447   4683407.25045
                  23554685.8754                                   23554683.9614
                                                                        46.0004
        30.0004
 -14929279.14848 -11588537.71546
                  21808434.9454                                   21808431.6334
                                                                        51.7504
        41.2504
 -15674566.23848 -12135361.97745
                  21673080.9614                                   21673076.6764
                                                                        49.2504
        34.2504
 -16746526.83648 -13033772.74246
                  22204652.9384                                   22204650.4144
                                                                        50.2504
        38.2504
 -19976926.31648 -15549736.49246
                  21172213.0634                                   21172210.0474
                                                                        48.5004
        40.2504
   2171945.56646   1738347.60943
                  24166129.5164                                   24166123.6374
                                                                        41.2504
        22.0004
   6007624.01247   4693989.94543
                  24014342.2344                                   24014337.8054
                                                                        42.0004
        22.5004
   6320981.90247   4966692.60244
                  23987748.2894                                   23987744.9344
                                                                        43.5004
        28.7504
  -5615198.57447  -4336253.78144
                  22903564.8984                                   22903560.9024
                                                                        46.0004
        29.7504
 09 10 10  1  5 30.0000000  0 10G02G04G05G13G29G10G23G16G07G25
 -11727918.12548  -9069134.89146
                  21083128.3984                                   21083122.8954
                                                                        50.5004
        41.0004
   5984437.12547   4694656.33645
                  23557434.1564                                   23557431.6254
                                                                        46.2504
        30.2504
 -15100253.05148 -11721764.12546
                  21775899.6644                                   21775896.0594
                                                                        51.5004
        41.0004
 -15721399.31648 -12171855.27745
                  21664168.7734                                   21664165.1134
                                                                        49.0004
        35.5004
 -16862734.44548 -13124324.12946
                  22182539.7504                                   22182536.9144
                                                                        50.2504
        37.2504
 -20133398.80548 -15671663.09446
                  21142437.2664                                   21142434.2464
                                                                        49.7504
        40.5004
   2180681.04346   1745154.42243
                  24167790.8754                                   24167786.1724
                                                                        40.7504
        20.7504
   5866815.58646   4584269.09443
                  23987547.2424                                   23987543.0394
                                                                        41.2504
        21.7504
   6137475.89847   4823700.52344
                  23952827.9534                                   23952825.2344
                                                                        42.0004
        28.0004
  -5750621.52047  -4441778.16445
                  22877794.4144                                   22877790.7894
                                                                        45.5004
        30.0004
 09 10 10  1  6  0.0000000  0 10G02G04G05G13G29G10G23G16G07G25
 -11765660.95748  -9098545.02346
                  21075946.3984                                   21075940.9654
                                                                        51.2504
        41.2504
   5999081.37947   4706067.20745
                  23560220.3674                                   23560218.3484
                                                                        46.0004
        30.0004
 -15270825.07848 -11854677.39146
                  21743440.9304                                   21743437.6564
                                                                        52.0004
        40.5004
 -15767632.14148 -12207880.85945
                  21655371.1564                                   21655367.2304
                                                                        49.2504
        35.0004
 -16978335.24648 -13214402.67246
                  22160541.5234                                   22160538.0664
                                                                        50.0004
        38.0004
 -20289375.23048 -15793203.16846
                  21112756.0554                                   21112752.9454
                                                                        50.0004
        40.5004
   2189686.52746   1752171.61343
                  24169504.7424                                   24169500.2774
                                                                        41.2504
        22.5004
   5726562.59847   4474981.06343
                  23960858.2894                                   23960853.6294
                                                                        42.0004
        21.5004
   5954322.28946   4680983.64544
                  23917975.6414                                   23917972.6884
                                                                        41.7504
        28.0004
  -5885497.93447  -4546876.68045
                  22852128.3364                                   22852124.7154
                                                                        45.5004
        30.0004
 09 10 10  1  6 30.0000000  0 10G02G04G05G13G29G10G23G16G07G25
 -11802872.28948  -9127540.65246
                  21068865.0164                                   21068859.7034
                                                                        50.5004
        41.2504
   6013933.98047   4717641.24244
                  23563046.0944                                   23563044.2624
                                                                        44.5004
        27.7504
 -15440991.59048 -11987274.64846
                  21711059.1334                                   21711055.7304
                                                                        51.5004
        40.0004
 -15813264.62148 -12243438.64145
                  21646687.6174                                   21646683.3634
                                                                        49.7504
        35.0004
 -17093326.23448 -13304006.05546
                  22138659.6804                                   22138656.1994
                                                                        50.2504
        38.0004
 -20444851.96548 -15914353.89546
                  21083169.8204                                   21083166.7384
                                                                        49.7504
        40.5004
   2198960.75047   1759398.25044
                  24171270.8204                                   24171264.7584
                                                                        43.5004
        27.0004
   5586868.75447   4366128.69543
                  23934275.3754                                   23934270.9224
                                                                        42.0004
        21.5004
   5771524.03147   4538543.48444
                  23883189.7734                                   23883186.6374
                                                                        42.2504
        26.0004
  -6019824.87947  -4651547.05545
                  22826566.7034                                   22826563.1604
                                                                        45.7504
        30.0004
 09 10 10  1  7  0.0000000  0 10G02G04G05G13G29G10G23G16G07G25
 -11839551.03948  -9156121.39546
                  21061885.0784                                   21061879.8954
                                                                        49.5004
        41.5004
   6028994.18047   4729376.37144
                  23565912.2194                                   23565909.7234
                                                                        45.0004
        27.5004
 -15610746.89548 -12119551.50446
                  21678756.0234                                   21678752.2584
                                                                        51.0004
        41.0004
 -15858295.33248 -12278527.49645
                  21638118.2034                                   21638114.3554
                                                                        49.5004
        34.7504
 -17207702.84848 -13393130.69546
                  22116894.5314                                   22116891.4024
                                                                        50.0004
        38.0004
 -20599823.56648 -16035110.98046
                  21053679.5864                                   21053676.3794
                                                                        49.2504
        40.5004
   2208505.06647   1766835.37944
                  24173087.2584                                   24173081.0474
                                                                        44.2504
        25.7504
   5447739.70746   4257716.44943
                  23907799.6174                                   23907795.1914
                                                                        41.5004
        22.7504
   5589086.35546   4396383.46144
                  23848473.8674                                   23848470.3554
                                                                        41.7504
        27.2504
  -6153597.12147  -4755785.14545
                  22801110.1484                                   22801106.8134
                                                                        46.0004
        30.5004
 09 10 10  1  7 30.0000000  0 10G02G04G05G13G29G10G23G16G07G25
 -11875698.64848  -9184288.34046
                  21055006.6024                                   21055001.2034
                                                                        50.7504
        41.5004
   6044261.90647   4741273.90244
                  23568816.9694                                   23568814.7384
                                                                        44.7504
        29.5004
 -15780089.95748 -12251507.14546
                  21646531.0784                                   21646527.1374
                                                                        52.0004
        41.0004
 -15902726.59848 -12313149.26245
                  21629663.5704                                   21629659.5394
                                                                        49.5004
        35.2504
 -17321464.89848 -13481776.44146
                  22095246.1804                                   22095243.3054
                                                                        49.5004
        38.0004
 -20754289.07048 -16155473.71546
                  21024286.0234                                   21024282.5984
                                                                        50.2504
        40.0004
   2218316.36347   1774480.54344
                  24174954.1644                                   24174947.8014
                                                                        42.2504
        24.0004
   5309176.64146   4149745.25043
                  23881432.2664                                   23881428.0274
                                                                        41.5004
        22.5004
   5407015.64147   4254510.21144
                  23813827.3444                                   23813823.0704
                                                                        43.7504
        24.7504
  -6286813.22347  -4859589.92245
                  22775760.2114                                   22775757.1764
                                                                        45.0004
        30.5004
 09 10 10  1  8  0.0000000  0 10G02G04G05G13G29G10G23G16G07G25
 -11911318.44948  -9212044.14546
                  21048228.6804                                   21048223.3014
                                                                        50.7504
        41.2504
   6059730.77347   4753327.53545
                  23571760.9454                                   23571759.1294
                                                                        45.0004
        30.5004
 -15949020.49248 -12383141.33646
                  21614384.5784                                   21614380.5004
                                                                        52.2504
        41.0004
 -15946561.22348 -12347306.11745
                  21621322.0554                                   21621317.9144
                                                                        49.2504
        35.0004
 -17434612.83648 -13569943.68446
                  22073714.7814                                   22073711.4844
                                                                        49.5004
        38.2504
 -20908248.48448 -16275442.07046
                  20994988.3364                                   20994985.2034
                                                                        50.0004
        40.2504
   2228390.50446   1782330.47743
                  24176870.7034                                   24176865.0864
                                                                        40.2504
        21.5004
   5171179.43846   4042214.99643
                  23855171.8204                                   23855168.6604
                                                                        41.5004
        22.7504
   5225311.12947   4112922.33644
                  23779250.3524                                   23779245.5084
                                                                        42.5004
        26.0004
  -6419473.73447  -4962961.75445
                  22750515.9144                                   22750512.5784
                                                                        45.7504
        30.5004
 09 10 10  1  8 30.0000000  0 10G02G04G05G13G29G10G23G16G07G25
 -11946415.54348  -9239392.52346
                  21041549.9454                                   21041544.6414
                                                                        50.7504
        41.0004
   6075396.03547   4765534.23844
                  23574742.2034                                   23574740.1914
                                                                        44.5004
        29.5004
 -16117541.10248 -12514456.11346
                  21582316.2584                                   21582312.5314
                                                                        50.7504
        40.5004
 -15989805.64548 -12381003.07045
                  21613092.9064                                   21613088.9064
                                                                        49.5004
        35.0004
 -17547150.46548 -13657635.34446
                  22052299.3834                                   22052296.4574
                                                                        49.7504
        38.5004
 -21061704.48048 -16395018.19546
                  20965786.6564                                   20965783.5554
                                                                        49.5004
        40.5004
   2238720.76246   1790380.01243
                  24178836.4534                                   24178830.4654
                                                                        39.7504
        18.5004
   5033745.73846   3935123.82843
                  23829019.0084                                   23829015.7424
                                                                        41.5004
        22.7504
   5043971.43447   3971618.80544
                  23744741.5944                                   23744738.1604
                                                                        43.5004
        27.0004
  -6551581.24647  -5065902.67245
                  22725376.7974                                   22725373.1684
                                                                        46.0004
        30.5004
 09 10 10  1  9  0.0000000  0  9G02G04G05G13G29G10G16G07G25
 -11980990.76648  -9266334.39146
                  21034970.6804                                   21034964.6764
                                                                        51.0004
        40.7504
   6091256.32447   4777892.93044
                  23577759.8204                                   23577758.3364
                                                                        44.5004
        28.7504
 -16285649.18448 -12645449.45346
                  21550326.3524                                   21550322.7704
                                                                        50.5004
        41.0004
 -16032460.28148 -12414240.45745
                  21604975.9924                                   21604971.9414
                                                                        49.2504
        34.7504
 -17659075.72348 -13744849.82846
                  22031000.7974                                   22030998.0124
                                                                        49.2504
        38.5004
 -21214654.96148 -16514200.39846
                  20936681.2114                                   20936677.9024
                                                                        50.7504
        40.7504
   4896878.23447   3828473.85544
                  23802974.7504                                   23802970.2194
                                                                        43.0004
        25.2504
   4863001.35247   3830603.53944
                  23710304.6644                                   23710300.7464
                                                                        42.7504
        27.2504
  -6683133.36747  -5168410.86745
                  22700343.5704                                   22700339.9844
                                                                        46.2504
        31.0004
 09 10 10  1  9 30.0000000  0  9G02G04G05G13G29G10G16G07G25
 -12015043.08648  -9292868.62146
                  21028490.4144                                   21028485.0204
                                                                        49.7504
        41.0004
   6107310.09447   4790401.63744
                  23580815.2734                                   23580813.2424
                                                                        43.5004
        27.7504
 -16453340.78148 -12776118.23446
                  21518415.5944                                   21518412.2734
                                                                        50.5004
        41.0004
 -16074526.07448 -12447019.01245
                  21596970.9924                                   21596966.9224
                                                                        49.2504
        34.5004
 -17770386.39548 -13831585.41446
                  22009819.5164                                   22009816.4574
                                                                        49.5004
        38.0004
 -21367096.18048 -16632985.78946
                  20907672.7664                                   20907669.3524
                                                                        50.2504
        40.5004
   4760580.30147   3722267.71544
                  23777038.0394                                   23777033.8834
                                                                        43.0004
        25.7504
   4682404.24247   3689878.77744
                  23675937.2194                                   23675934.7974
                                                                        42.7504
        29.5004
  -6814126.87547  -5270483.82445
                  22675416.2664                                   22675412.5704
                                                                        47.0004
        30.2504
 09 10 10  1 10  0.0000000  0  9G02G04G05G13G29G10G16G07G25
 -12048577.22348  -9318999.09846
                  21022108.8364                                   21022103.7304
                                                                        50.2504
        41.0004
   6123556.46947   4803061.55144
                  23583906.5394                                   23583904.4264
                                                                        43.5004
        28.7504
 -16620616.41448 -12906462.88746
                  21486584.2974                                   21486580.3634
                                                                        50.0004
        41.0004
 -16116007.15248 -12479341.92645
                  21589077.9064                                   21589073.7854
                                                                        49.2504
        34.7504
 -17881083.76248 -13917843.09046
                  21988754.0474                                   21988751.5354
                                                                        48.7504
        38.2504
 -21519029.22348 -16751375.19546
                  20878760.5474                                   20878757.3054
                                                                        49.7504
        40.5004
   4624851.06346   3616504.68444
                  23751209.6564                                   23751205.2584
                                                                        41.5004
        25.0004
   4502180.87546   3549445.19544
                  23641641.7664                                   23641639.0554
                                                                        41.0004
        28.5004
  -6944563.03547  -5372122.48045
                  22650595.1724                                   22650591.4694
                                                                        46.2504
        30.0004
 09 10 10  1 10 30.0000000  0  9G02G04G05G13G29G10G16G07G25
 -12081580.32048  -9344715.63346
                  21015828.4534                                   21015823.0234
                                                                        50.0004
        41.5004
   6140005.48847   4815879.54344
                  23587035.6884                                   23587033.7704
                                                                        42.7504
        28.5004
 -16787461.12148 -13036471.74646
                  21454834.4694                                   21454831.3244
                                                                        49.7504
        41.5004
 -16156891.17248 -12511199.58645
                  21581297.5634                                   21581293.8324
                                                                        50.2504
        34.7504
 -17991153.66847 -14003611.83646
                  21967808.4454                                   21967805.6954
                                                                        47.7504
        38.5004
 -21670438.54348 -16869356.50446
                  20849948.2894                                   20849945.4494
                                                                        49.5004
        41.0004
   4489706.11347   3511196.94144
                  23725492.4924                                   23725487.3444
                                                                        43.2504
        25.0004
   4322348.62947   3409316.41844
                  23607420.6414                                   23607417.6414
                                                                        43.0004
        29.0004
  -7074426.35947  -5473314.80545
                  22625883.2974                                   22625879.8094
                                                                        46.2504
        30.2504
 09 10 10  1 11  0.0000000  0  9G02G04G05G13G29G10G16G07G25
 -12114056.47748  -9370021.68046
                  21009648.4534                                   21009643.0514
                                                                        49.5004
        40.5004
   6156652.21147   4828851.51244
                  23590203.9454                                   23590201.0234
                                                                        44.5004
        28.5004
 -16953875.13748 -13166145.05546
                  21423167.1954                                   21423163.8714
                                                                        51.0004
        41.2504
 -16197182.60248 -12542595.50445
                  21573630.3754                                   21573626.4494
                                                                        49.2504
        34.7504
 -18100597.34448 -14088892.61346
                  21946982.2504                                   21946979.3244
                                                                        48.7504
        38.0004
 -21821324.56648 -16986930.02046
                  20821235.8444                                   20821232.7664
                                                                        49.7504
        41.0004
   4355144.99647   3406344.10944
                  23699886.5084                                   23699881.5984
                                                                        42.0004
        24.0004
   4142907.26246   3269492.03144
                  23573274.3054                                   23573270.6994
                                                                        41.5004
        28.0004
  -7203717.72347  -5574061.43745
                  22601279.5004                                   22601276.6454
                                                                        46.0004
        30.7504
 09 10 10  1 11 30.0000000  0  9G02G04G05G13G29G10G16G07G25
 -12146012.13348  -9394922.15246
                  21003567.4454                                   21003562.2344
                                                                        49.2504
        41.0004
   6173488.99247   4841971.19544
                  23593408.2504                                   23593405.3954
                                                                        45.2504
        28.5004
 -17119861.53148 -13295485.12546
                  21391580.8284                                   21391577.3324
                                                                        50.0004
        41.5004
 -16236888.34048 -12573535.05945
                  21566074.5864                                   21566070.6994
                                                                        49.5004
        34.5004
 -18209419.28948 -14173688.94946
                  21926274.2734                                   21926271.0704
                                                                        49.2504
        38.0004
 -21971691.44548 -17104099.08246
                  20792621.9924                                   20792618.7384
                                                                        50.0004
        40.5004
   4221164.09446   3301943.41044
                  23674390.8364                                   23674385.4454
                                                                        41.2504
        24.0004
   3963855.37946   3129971.12144
                  23539201.5314                                   23539198.0164
                                                                        41.0004
        27.7504
  -7332440.10947  -5674364.43745
                  22576784.8134                                   22576780.6804
                                                                        46.5004
        30.0004
 09 10 10  1 12  0.0000000  0  9G02G04G05G13G29G10G16G07G25
 -12177453.32848  -9419422.14846
                  20997584.7274                                   20997579.3914
                                                                        50.7504
        41.0004
   6190510.01647   4855233.98844
                  23596646.8914                                   23596644.7894
                                                                        43.7504
        27.7504
 -17285422.44948 -13424493.64546
                  21360075.5634                                   21360072.5084
                                                                        50.5004
        41.5004
 -16276014.25048 -12604022.78145
                  21558629.1804                                   21558625.7814
                                                                        49.7504
        34.5004
 -18317622.32048 -14258003.00846
                  21905683.8834                                   21905680.7344
                                                                        48.5004
        38.0004
 -22121542.15648 -17220866.32846
                  20764106.7114                                   20764103.4414
                                                                        51.2504
        41.0004
   4087761.18847   3197993.12143
                  23649004.6884                                   23649000.2034
                                                                        43.0004
        23.5004
   3785191.28546   2990752.45744
                  23505202.3364                                   23505199.1094
                                                                        41.2504
        25.5004
  -7460597.06247  -5774226.96945
                  22552396.8524                                   22552393.2194
                                                                        46.5004
        30.0004
 09 10 10  1 12 30.0000000  0  9G02G04G05G13G29G10G16G07G25
 -12208382.60548  -9443523.29346
                  20991699.5084                                   20991694.4614
                                                                        50.2504
        41.2504
   6207713.24647   4868639.16844
                  23599920.4064                                   23599918.1334
                                                                        43.7504
        28.2504
 -17450557.59848 -13553170.41046
                  21328651.5314                                   21328648.0434
                                                                        50.7504
        41.0004
 -16314564.55948 -12634062.00445
                  21551293.5004                                   21551289.4734
                                                                        49.2504
        34.5004
 -18425207.64148 -14341835.72346
                  21885211.0554                                   21885207.4304
                                                                        49.5004
        38.0004
 -22270875.84048 -17337230.44146
                  20735689.4224                                   20735686.3204
                                                                        50.2504
        40.2504
   3954936.10247   3094493.06643
                  23623729.0394                                   23623724.6954
                                                                        43.2504
        23.7504
   3606917.27046   2851837.71544
                  23471278.1174                                   23471274.6724
                                                                        41.7504
        28.5004
  -7588188.69147  -5873649.05944
                  22528117.0314                                   22528113.6914
                                                                        46.2504
        29.7504
 09 10 10  1 13  0.0000000  0  9G02G04G05G13G29G10G16G07G25
 -12238802.68448  -9467227.09846
                  20985910.7974                                   20985905.4804
                                                                        50.5004
        40.5004
   6225093.44547   4882182.16444
                  23603228.0234                                   23603225.8244
                                                                        43.7504
        26.5004
 -17615268.04748 -13681516.19146
                  21297308.2584                                   21297304.5704
                                                                        49.0004
        41.5004
 -16352542.22748 -12663655.00045
                  21544066.2114                                   21544062.7544
                                                                        49.5004
        34.5004
 -18532177.23048 -14425188.65246
                  21864855.7034                                   21864852.7384
                                                                        48.0004
        38.5004
 -22419692.07848 -17453190.77746
                  20707370.6094                                   20707367.4344
                                                                        51.0004
        40.7504
   3822688.16846   2991442.75443
                  23598562.9304                                   23598558.8054
                                                                        41.2504
        23.0004
   3429033.56347   2713227.07844
                  23437428.2504                                   23437425.1994
                                                                        42.0004
        27.7504
  -7715215.58647  -5972631.01644
                  22503944.3594                                   22503941.1644
                                                                        46.2504
        29.7504
 09 10 10  1 13 30.0000000  0  9G02G04G05G13G29G10G16G07G25
 -10693297.50848  -8262937.27046
                  21280010.6564                                   21280005.0864
                                                                        50.0004
        40.0004
   7818065.94547   6123459.50444
                  23906360.6644                                   23906357.8914
                                                                        43.7504
        28.0004
 -16204129.03548 -12581927.39146
                  21565839.1954                                   21565835.8134
                                                                        49.5004
        41.7504
 -14814530.85248 -11465204.60245
                  21836740.1094                                   21836736.1134
                                                                        48.7504
        33.5004
 -17063108.97348 -13280460.16446
                  22144409.7974                                   22144406.4924
                                                                        49.7504
        38.7504
 -20992571.80948 -16341150.58646
                  20978943.7584                                   20978940.8984
                                                                        51.0004
        41.0004
   5266441.18846   4116445.10943
                  23873300.0864                                   23873295.5234
                                                                        41.5004
        22.7504
   4826966.98847   3802526.12544
                  23703446.1094                                   23703442.5744
                                                                        43.5004
        28.0004
  -6266254.78547  -4843570.62144
                  22779672.5394                                   22779668.8404
                                                                        46.0004
        29.0004
 09 10 10  1 14  0.0000000  0  9G02G04G05G13G29G10G16G07G25
 -10722708.55148  -8285855.03546
                  21274414.0084                                   21274408.5314
                                                                        50.7504
        40.2504
   7835791.96947   6137272.11744
                  23909732.8674                                   23909731.7154
                                                                        42.5004
        27.0004
 -16367988.95748 -12709611.50847
                  21534658.3204                                   21534654.5514
                                                                        50.0004
        42.0004
 -14851373.06648 -11493912.82045
                  21829729.5474                                   21829725.5044
                                                                        48.7504
        33.7504
 -17168846.91848 -13362853.37146
                  22124288.5474                                   22124285.4884
                                                                        48.7504
        38.5004
 -21140355.34048 -16456307.12946
                  20950821.9924                                   20950819.1954
                                                                        51.0004
        41.0004
   5135349.76646   4014295.94943
                  23848353.6564                                   23848349.4344
                                                                        40.7504
        22.5004
   4649869.72747   3664528.28944
                  23669745.9774                                   23669741.4224
                                                                        44.2504
        28.5004
  -6392151.50847  -4941672.03145
                  22755715.4614                                   22755711.9024
                                                                        47.0004
        30.2504
 09 10 10  1 14 30.0000000  0  9G02G04G05G13G29G10G16G07G25
 -10751617.48848  -8308381.36346
                  21268912.3444                                   21268907.3754
                                                                        51.0004
        40.7504
   7853687.40247   6151216.66444
                  23913138.5944                                   23913136.2034
                                                                        42.7504
        27.0004
 -16531422.37948 -12836964.41846
                  21503559.6644                                   21503558.0234
                                                                        50.5004
        41.2504
 -14887651.09848 -11522181.41045
                  21822826.0084                                   21822821.7344
                                                                        49.7504
        33.0004
 -17273969.04748 -13444766.73046
                  22104284.4384                                   22104281.4884
                                                                        48.7504
        38.5004
 -21287620.15648 -16571059.35246
                  20922798.5704                                   20922795.8754
                                                                        51.0004
        40.7504
   5004838.20346   3912598.64543
                  23823517.8444                                   23823513.8134
                                                                        40.0004
        22.0004
   4473169.36747   3526839.66444
                  23636120.7034                                   23636116.5274
                                                                        43.7504
        28.0004
  -6517481.61347  -5039331.94145
                  22731865.8054                                   22731862.4304
                                                                        46.7504
        30.2504
 09 10 10  1 15  0.0000000  0  9G02G04G05G13G29G10G16G07G25
 -10780026.27348  -8330518.07846
                  21263506.3984                                   21263501.2114
                                                                        50.5004
        40.5004
   7871750.21547   6165291.63744
                  23916576.4144                                   23916573.2194
                                                                        43.7504
        26.7504
 -16694419.77048 -12963974.41446
                  21472541.3134                                   21472538.8484
                                                                        51.0004
        41.0004
 -14923366.45348 -11550011.53545
                  21816029.3914                                   21816025.6254
                                                                        49.0004
        33.5004
 -17378474.12548 -13526199.28546
                  22084398.1174                                   22084394.5164
                                                                        49.0004
        38.5004
 -21434361.90248 -16685402.73846
                  20894873.8674                                   20894871.0984
                                                                        50.5004
        41.0004
   4874908.28946   3811354.53143
                  23798793.7584                                   23798789.0784
                                                                        40.7504
        22.0004
   4296869.04347   3389462.85944
                  23602571.7274                                   23602567.6254
                                                                        42.7504
        28.5004
  -6642243.95747  -5136549.59045
                  22708124.8674                                   22708121.1954
                                                                        47.0004
        30.2504
 09 10 10  1 15 30.0000000  0  9G02G04G05G13G29G10G16G07G25
 -10807936.46548  -8352266.34446
                  21258195.3204                                   21258190.2424
                                                                        50.5004
        40.5004
   7889978.36347   6179495.32844
                  23920044.9924                                   23920042.3134
                                                                        45.0004
        26.5004
 -16856988.40248 -13090651.91846
                  21441606.4694                                   21441603.5824
                                                                        51.0004
        41.7504
 -14958521.61348 -11577405.16845
                  21809339.1644                                   21809335.4844
                                                                        48.5004
        33.5004
 -17482362.11748 -13607150.96946
                  22064628.5634                                   22064625.3874
                                                                        49.0004
        38.7504
 -21580586.69148 -16799345.59446
                  20867049.3054                                   20867047.0514
                                                                        50.5004
        40.5004
   4745561.40246   3710564.73843
                  23774179.7194                                   23774175.1484
                                                                        41.2504
        22.7504
   4120970.75447   3252398.82844
                  23569099.4064                                   23569096.2344
                                                                        42.0004
        29.2504
  -6766437.37147  -5233323.97345
                  22684491.7584                                   22684488.1724
                                                                        47.0004
        30.5004
 09 10 10  1 16  0.0000000  0  9G02G04G05G13G29G10G16G07G25
 -10835350.14848  -8373627.61746
                  21252978.6804                                   21252973.5124
                                                                        50.5004
        40.7504
   7908369.46147   6193826.13344
                  23923544.4694                                   23923542.0474
                                                                        43.5004
        25.7504
 -17019122.35548 -13216989.92246
                  21410753.0394                                   21410750.2894
                                                                        50.5004
        41.7504
 -14993119.22348 -11604364.34045
                  21802756.2034                                   21802752.2344
                                                                        48.7504
        33.5004
 -17585633.22348 -13687621.98446
                  22044976.8594                                   22044973.9774
                                                                        48.7504
        39.0004
 -21726285.68748 -16912876.98846
                  20839323.4694                                   20839321.5514
                                                                        51.5004
        41.0004
   4616798.23447   3610229.80943
                  23749676.7194                                   23749672.2194
                                                                        42.0004
        22.5004
   3945479.43047   3115652.70744
                  23535704.0784                                   23535701.4224
                                                                        43.0004
        28.7504
  -6890060.41047  -5329653.58645
                  22660967.1094                                   22660963.5204
                                                                        46.0004
        30.5004
