     2.11           OBSERVATION DATA    G (GPS)             RINEX VERSION / TYPE
teqc  2019Feb25                         20221121 12:28:08UTCPGM / RUN BY / DATE
OSX ker:10.11.6|Core i5|gcc 4.3 -m64|OSX ker:10.10+|=+      COMMENT
BIT 2 OF LLI FLAGS DATA COLLECTED UNDER A/S CONDITION       COMMENT
04712811                                                    MARKER NAME
2811                                                        MARKER NUMBER
-Unknown-           -Unknown-                               OBSERVER / AGENCY
0220400471          TRIMBLE R7          2.30                REC # / TYPE / VERS
-Unknown-           TRM39105.00     NONE                    ANT # / TYPE
  1449459.9835 -1709239.9277  5952441.3055                  APPROX POSITION XYZ
        0.0000        0.0000        0.0000                  ANTENNA: DELTA H/E/N
     1     1                                                WAVELENGTH FACT L1/2
    20    L1    L2    L5    L6    L7    L8    C1    P1    C2# / TYPES OF OBSERV
          P2    C5    C6    C7    C8    S1    S2    S5    S6# / TYPES OF OBSERV
          S7    S8                                          # / TYPES OF OBSERV
    30.0000                                                 INTERVAL
    15                                                      LEAP SECONDS
Forced Modulo Decimation to 30 seconds                      COMMENT
 SNR is mapped to RINEX snr flag value [0-9]                COMMENT
  L1 & L2: min(max(int(snr_dBHz/6), 0), 9)                  COMMENT
teqc edited: Beidou # 1 - 37 excluded                       COMMENT
  2009    10     8    23    10    0.0000000     GPS         TIME OF FIRST OBS
                                                            END OF HEADER
 09 10  8 23 10  0.0000000  0  9G02G04G12G13G17G20G23G30G31
   -249099.10558   -153207.36756
                  21408267.0234                                   21408261.7704
                                                                        53.0004
        41.5004
   -121783.97758    -73995.34857
                  20413771.4224                                   20413768.3914
                                                                        50.0004
        43.0004
    -24830.88357    -16553.72355
                  23010279.5394                                   23010276.3364
                                                                        45.5004
        35.0004
   -287196.00457   -174944.15654
                  22779019.4924                                   22779015.6564
                                                                        46.0004
        29.7504
     60646.34857     35262.77054
                  24001857.0784                                   24001854.2814
                                                                        43.5004
        28.7504
     34287.98057     20833.50054
                  23155180.4144                                   23155177.2934
                                                                        42.7504
        28.0004
   -167693.44558   -101472.82455
                  21782639.6724                                   21782634.4414
                                                                        48.0004
        35.7504
   -116745.09457    -72029.98455
                  22402825.0554                                   22402822.4024
                                                                        44.2504
        31.7504
   -121679.69957    -75111.18754
                  23524639.7974                                   23524636.3204
                                                                        43.0004
        28.5004
 09 10  8 23 10 30.0000000  0  8G02G04G12G13G17G20G23G30
   -404942.08648   -274643.45346
                  21378610.9064                                   21378605.5314
                                                                        53.5004
        41.0004
   -198797.42248   -134005.80547
                  20399116.1644                                   20399113.4304
                                                                        51.5004
        42.2504
    -43992.19147    -31484.60945
                  23006633.1644                                   23006629.7704
                                                                        46.0004
        34.7504
   -465576.51247   -313941.97745
                  22745074.9694                                   22745070.8834
                                                                        47.2504
        30.2504
     92989.81346     60465.36344
                  24008011.9924                                   24008009.4414
                                                                        41.7504
        27.0004
     51954.30547     34599.46144
                  23158542.4384                                   23158539.6214
                                                                        42.7504
        26.0004
   -272137.41048   -182857.73046
                  21762764.8754                                   21762759.2154
                                                                        49.0004
        36.0004
   -191664.62147   -130408.86345
                  22388568.2974                                   22388565.7934
                                                                        47.2504
        31.2504
 09 10  8 23 11  0.0000000  0  8G02G04G12G13G17G20G23G30
   -561717.91048   -396806.43046
                  21348777.5944                                   21348772.6524
                                                                        53.0004
        41.0004
   -276575.32048   -194611.89147
                  20384315.8524                                   20384312.9534
                                                                        50.0004
        42.7504
    -63995.05147    -47071.22745
                  23002826.8754                                   23002824.1604
                                                                        46.7504
        35.0004
   -644907.89147   -453681.19544
                  22710949.5704                                   22710945.2034
                                                                        47.0004
        29.0004
    124146.21947     84742.98844
                  24013940.4064                                   24013938.3284
                                                                        42.0004
        28.5004
     68553.84446     47534.17244
                  23161700.5784                                   23161697.8364
                                                                        40.7504
        25.7504
   -377292.04748   -264796.40245
                  21742754.9144                                   21742749.1524
                                                                        48.0004
        35.7504
   -267237.48047   -189296.78945
                  22374186.8134                                   22374184.8634
                                                                        44.5004
        31.7504
 09 10  8 23 11 30.0000000  0  8G02G04G12G13G17G20G23G30
   -719099.90248   -519441.73046
                  21318828.5704                                   21318823.3674
                                                                        53.0004
        40.7504
   -354793.78548   -255561.25447
                  20369430.8984                                   20369428.0124
                                                                        51.0004
        43.0004
    -84517.33247    -63062.60245
                  22998921.6954                                   22998918.1564
                                                                        47.0004
        33.7504
   -824859.85247   -593903.19545
                  22676704.8984                                   22676701.8014
                                                                        46.5004
        30.2504
    154438.29347    108347.14545
                  24019705.5554                                   24019702.8164
                                                                        44.2504
        30.0004
     84408.65247     59888.52044
                  23164718.0554                                   23164714.9144
                                                                        42.0004
        25.2504
   -482831.97748   -347035.27046
                  21722670.8834                                   21722665.3404
                                                                        48.0004
        36.0004
   -343139.68447   -248441.40645
                  22359743.8134                                   22359740.6374
                                                                        47.0004
        31.0004
 09 10  8 23 12  0.0000000  0  8G02G04G12G13G17G20G23G30
   -876900.82448   -642403.45746
                  21288800.2194                                   21288795.2194
                                                                        52.5004
        40.5004
   -433267.68748   -316709.77047
                  20354497.9144                                   20354495.1134
                                                                        51.5004
        42.5004
   -105375.58647    -79315.77045
                  22994952.5784                                   22994949.1374
                                                                        46.2504
        34.2504
  -1005246.16847   -734463.98445
                  22642379.0234                                   22642375.6764
                                                                        46.5004
        30.2504
    184048.69147    131420.13744
                  24025339.6174                                   24025337.0664
                                                                        44.0004
        27.7504
     99701.69146     71805.15644
                  23167628.4384                                   23167624.7854
                                                                        41.7504
        27.5004
   -588570.90247   -429429.26645
                  21702549.4454                                   21702543.7934
                                                                        47.7504
        35.5004
   -419186.30147   -307698.54345
                  22345271.9384                                   22345269.3754
                                                                        47.0004
        31.5004
 09 10  8 23 12 30.0000000  0  8G02G04G12G13G17G20G23G30
    540426.30548    462007.28946
                  21558508.6024                                   21558503.4064
                                                                        52.7504
        40.7504
   1063545.04348    849637.77747
                  20639331.5554                                   20639328.8404
                                                                        51.7504
        42.5004
   1448968.25447   1131861.19545
                  23290734.0944                                   23290731.0234
                                                                        46.0004
        34.5004
    389481.68847    352336.82845
                  22907786.6804                                   22907783.3524
                                                                        47.2504
        31.5004
   1788513.67247   1381652.54744
                  24330659.9304                                   24330656.3014
                                                                        43.5004
        27.5004
   1689969.73847   1310975.07044
                  23470246.8134                                   23470242.5864
                                                                        42.5004
        24.5004
    881034.98048    715718.16446
                  21982206.3284                                   21982200.4884
                                                                        49.2504
        36.2504
   1080164.78147    860626.90245
                  22630588.9384                                   22630586.0234
                                                                        47.0004
        31.0004
 09 10  8 23 13  0.0000000  0  8G02G04G12G13G17G20G23G30
    382112.65248    338646.00046
                  21528382.2974                                   21528377.5044
                                                                        53.5004
        41.2504
    984879.43048    788339.88347
                  20624362.3674                                   20624359.1254
                                                                        52.0004
        42.5004
   1427750.18847   1115327.58245
                  23286696.7424                                   23286693.6094
                                                                        47.0004
        34.2504
    208555.42247    211355.27745
                  22873357.7424                                   22873354.3794
                                                                        47.0004
        30.2504
   1817073.54347   1403906.96944
                  24336094.1564                                   24336090.4414
                                                                        42.7504
        25.2504
   1704451.92646   1322259.95344
                  23473002.2114                                   23472998.3834
                                                                        41.2504
        24.5004
    775219.64548    633264.63745
                  21962070.4534                                   21962065.1174
                                                                        49.5004
        35.7504
   1004147.46547    801392.66845
                  22616123.3284                                   22616121.0274
                                                                        45.7504
        30.5004
 09 10  8 23 13 30.0000000  0  8G02G04G12G13G17G20G23G30
    223653.72348    215171.50046
                  21498228.9774                                   21498223.3554
                                                                        52.7504
        41.0004
    906225.24248    727050.79747
                  20609395.2344                                   20609392.1884
                                                                        52.2504
        42.7504
   1406456.93047   1098735.37145
                  23282644.7344                                   23282641.5124
                                                                        46.0004
        34.2504
     27472.69547     70252.11345
                  22838897.9774                                   22838895.0314
                                                                        46.5004
        30.2504
   1845212.49647   1425833.42244
                  24341448.7194                                   24341445.5904
                                                                        43.2504
        26.5004
   1718633.11746   1333310.26644
                  23475700.3834                                   23475697.0204
                                                                        41.0004
        24.5004
    669475.21548    550866.34846
                  21941947.9614                                   21941942.5164
                                                                        49.0004
        36.0004
    928251.99247    742253.35245
                  22601680.8984                                   22601678.5824
                                                                        47.0004
        31.7504
 09 10  8 23 14  0.0000000  0  8G02G04G12G13G17G20G23G30
     65092.24248     91617.10546
                  21468055.5084                                   21468049.9614
                                                                        53.0004
        41.2504
    827623.62948    665802.76647
                  20594437.6334                                   20594434.5164
                                                                        52.0004
        42.7504
   1385126.85547   1082114.47345
                  23278585.7974                                   23278582.3674
                                                                        45.7504
        34.0004
   -153724.18047    -70940.32445
                  22804417.5394                                   22804414.3984
                                                                        46.7504
        30.5004
   1872968.96947   1447461.78944
                  24346730.3054                                   24346727.6684
                                                                        42.5004
        28.0004
   1732551.48846   1344155.75844
                  23478349.5474                                   23478346.2894
                                                                        41.0004
        26.2504
    563843.43448    468555.85946
                  21921846.8204                                   21921841.0664
                                                                        50.0004
        36.5004
    852518.66048    683240.45745
                  22587269.4064                                   22587266.7034
                                                                        48.0004
        32.0004
 09 10  8 23 14 30.0000000  0  7G02G04G12G13G20G23G30
    -93537.20348    -31990.23046
                  21437869.4924                                   21437864.3284
                                                                        53.0004
        41.2504
    749106.96548    604621.12947
                  20579496.3284                                   20579493.5124
                                                                        50.5004
        43.2504
   1363790.32047   1065488.49645
                  23274525.3834                                   23274522.0204
                                                                        46.0004
        33.0004
   -334999.81647   -212194.68045
                  22769923.4304                                   22769919.6954
                                                                        47.5004
        32.0004
   1746237.73846   1354820.39144
                  23480953.4694                                   23480949.6214
                                                                        41.5004
        25.0004
    458357.46548    386359.00846
                  21901773.4064                                   21901767.7704
                                                                        49.5004
        36.2504
    776979.46947    624378.84445
                  22572894.8204                                   22572892.4494
                                                                        44.2504
        31.2504
 09 10  8 23 15  0.0000000  0  7G02G04G12G13G20G23G30
   -252176.00848   -155604.80146
                  21407681.0554                                   21407676.1644
                                                                        53.0004
        41.0004
    670730.56348    543548.51247
                  20564581.7974                                   20564578.3284
                                                                        51.7504
        42.2504
   1342501.49647   1048899.72745
                  23270474.5084                                   23270471.0044
                                                                        46.0004
        33.0004
   -516294.09447   -353463.46545
                  22735424.2274                                   22735420.6024
                                                                        47.7504
        31.2504
   1759745.65646   1365345.96943
                  23483524.3914                                   23483521.1174
                                                                        40.0004
        23.5004
    353074.35248    304320.21945
                  21881738.8984                                   21881733.0514
                                                                        49.2504
        35.7504
    701690.05947    565711.67645
                  22558567.7274                                   22558565.0394
                                                                        47.2504
        31.2504
 09 10  8 23 15 30.0000000  0  7G02G04G12G13G20G23G30
   -410779.52748   -279191.90646
                  21377500.0314                                   21377494.7734
                                                                        53.2504
        41.5004
    592537.61348    482618.77047
                  20549702.3674                                   20549699.3444
                                                                        50.7504
        42.2504
   1321300.77347   1032379.62945
                  23266440.5164                                   23266437.0634
                                                                        46.7504
        34.0004
   -697558.82047   -494708.28544
                  22700930.0554                                   22700926.8484
                                                                        46.0004
        29.2504
   1773116.34046   1375764.72344
                  23486067.9614                                   23486065.1724
                                                                        41.0004
        24.7504
    248037.99247    222473.75045
                  21861751.1254                                   21861745.1914
                                                                        47.5004
        35.5004
    626693.33247    507272.66845
                  22544296.0234                                   22544294.1454
                                                                        46.7504
        30.7504
 09 10  8 23 16  0.0000000  0  7G02G04G12G13G20G23G30
   -569300.02748   -402714.35946
                  21347334.3204                                   21347329.2074
                                                                        52.7504
        41.2504
    514574.25048    421868.03547
                  20534866.3754                                   20534863.7934
                                                                        51.5004
        42.7504
   1300231.85547   1015962.31345
                  23262431.0704                                   23262427.8164
                                                                        46.2504
        33.5004
   -878745.99647   -635892.38744
                  22666451.0394                                   22666446.5394
                                                                        46.2504
        29.0004
   1786393.34046   1386110.47344
                  23488595.3284                                   23488591.8554
                                                                        40.7504
        24.2504
    143294.99248    140855.92245
                  21841818.7584                                   21841813.0904
                                                                        48.7504
        35.5004
    552034.79347    449097.17645
                  22530089.3754                                   22530086.7734
                                                                        47.2504
        30.5004
 09 10  8 23 16 30.0000000  0  7G02G04G12G13G20G23G30
   -727708.09448   -526149.22746
                  21317190.2344                                   21317185.3014
                                                                        52.2504
        41.2504
    436865.85248    361315.74647
                  20520079.2974                                   20520076.7464
                                                                        51.0004
        42.7504
   1279319.58247    999666.97345
                  23258450.9774                                   23258448.1884
                                                                        44.5004
        33.2504
  -1059829.28147   -776996.36745
                  22631991.5084                                   22631988.0634
                                                                        46.7504
        30.5004
   1799600.97346   1396402.17644
                  23491108.3054                                   23491105.1134
                                                                        41.2504
        24.0004
     38872.01648     59487.48445
                  21821948.1484                                   21821942.0864
                                                                        49.7504
        35.7504
    477740.53947    391205.50845
                  22515951.4924                                   22515948.9884
                                                                        45.0004
        30.5004
 09 10  8 23 17  0.0000000  0  7G02G04G12G13G20G23G30
   -885982.82448   -649480.27746
                  21287071.5234                                   21287066.7384
                                                                        53.0004
        41.5004
    359433.04348    300978.49247
                  20505344.3444                                   20505341.7304
                                                                        53.0004
        42.7504
   1258580.89847    983506.96945
                  23254505.2504                                   23254501.9264
                                                                        45.7504
        33.5004
  -1240783.02747   -917999.14545
                  22597557.5234                                   22597554.0824
                                                                        46.2504
        31.2504
   1812756.65646   1406653.34844
                  23493611.3834                                   23493608.7384
                                                                        41.7504
        25.5004
    -65210.22748    -21615.55145
                  21802141.7274                                   21802135.5784
                                                                        50.0004
        35.7504
    403828.71547    333611.83245
                  22501886.6644                                   22501884.2734
                                                                        46.5004
        31.0004
 09 10  8 23 17 30.0000000  0  7G02G04G12G13G20G23G30
  -1044100.52748   -772689.03146
                  21256983.4224                                   21256977.4884
                                                                        52.7504
        41.7504
    282296.71148    240872.25047
                  20490665.7664                                   20490662.9964
                                                                        52.7504
        42.5004
   1238034.91847    967497.06645
                  23250595.1954                                   23250592.3484
                                                                        45.5004
        33.5004
  -1421583.27747  -1058882.43745
                  22563152.2734                                   22563148.8364
                                                                        47.0004
        31.5004
   1825880.56647   1416879.83644
                  23496109.1884                                   23496105.6214
                                                                        42.2504
        25.0004
   -168928.97748   -102435.35245
                  21782404.8674                                   21782398.6174
                                                                        50.0004
        35.5004
    330320.72347    276332.86745
                  22487898.4224                                   22487895.9614
                                                                        47.5004
        31.2504
 09 10  8 23 18  0.0000000  0  7G02G04G12G13G20G23G30
  -1202041.37548   -895759.81246
                  21226927.7734                                   21226922.7114
                                                                        52.5004
        41.7504
    205473.34048    181009.84447
                  20476046.6254                                   20476043.9184
                                                                        52.2504
        42.7504
   1217696.99647    951649.39845
                  23246724.8754                                   23246722.0354
                                                                        47.2504
        34.0004
  -1602210.61347  -1199631.09845
                  22528780.3364                                   22528777.0824
                                                                        46.5004
        31.7504
   1838986.00046   1427091.85943
                  23498602.5554                                   23498599.5434
                                                                        41.7504
        22.5004
   -272267.77348   -182959.14545
                  21762740.0784                                   21762733.8524
                                                                        50.5004
        35.5004
    257233.15247    219381.55145
                  22473990.4454                                   22473988.1994
                                                                        46.0004
        31.5004
 09 10  8 23 18 30.0000000  0  7G02G04G12G13G20G23G30
  -1359787.01248  -1018678.53546
                  21196909.8984                                   21196904.8554
                                                                        51.7504
        41.2504
    128979.57048    121404.13747
                  20461490.6094                                   20461487.5744
                                                                        53.0004
        42.5004
   1197580.84447    935974.41845
                  23242897.1174                                   23242894.3754
                                                                        47.2504
        34.0004
  -1782644.07047  -1340228.58245
                  22494444.7504                                   22494441.2854
                                                                        47.2504
        30.5004
   1852088.74646   1437301.79343
                  23501096.2034                                   23501092.9654
                                                                        41.7504
        23.7504
   -375208.02348   -263172.32046
                  21743151.1334                                   21743145.6764
                                                                        50.0004
        36.2504
    184582.10547    162770.39545
                  22460165.5234                                   22460162.6724
                                                                        47.7504
        31.7504
 09 10  8 23 19  0.0000000  0  7G02G04G12G13G20G23G30
  -1517317.84048  -1141429.89546
                  21166932.7424                                   21166927.8284
                                                                        51.7504
        41.0004
     52833.40648     62069.61347
                  20447000.5704                                   20446997.6174
                                                                        53.0004
        42.2504
   1177702.19147    920484.50845
                  23239114.5234                                   23239111.5744
                                                                        46.7504
        33.0004
  -1962863.64147  -1480659.53145
                  22460150.5164                                   22460146.5044
                                                                        47.0004
        31.5004
   1865204.12546   1447521.58243
                  23503591.8364                                   23503588.4414
                                                                        41.0004
        22.7504
   -477731.25448   -343060.50445
                  21723641.5944                                   21723635.9104
                                                                        49.5004
        35.7504
    112384.53147    106512.56345
                  22446426.2034                                   22446423.8754
                                                                        46.7504
        30.7504
 09 10  8 23 19 30.0000000  0  8G02G04G12G13G31G20G23G30
  -1674613.74648  -1263998.18446
                  21137000.3284                                   21136995.4964
                                                                        52.0004
        41.5004
    -22948.19148      3019.09447
                  20432579.5084                                   20432576.8364
                                                                        52.7504
        42.2504
   1158077.03147    905192.12145
                  23235379.4924                                   23235376.2274
                                                                        47.0004
        33.0004
  -2142848.62547  -1620907.85545
                  22425900.5864                                   22425897.0164
                                                                        47.7504
        30.7504
   1542244.07057   1206087.64155
                  23541889.1804                                   23541885.8954
                                                                        43.2504
        30.2504
   1878347.57446   1457763.24243
                  23506092.9304                                   23506088.7624
                                                                        41.0004
        22.7504
   -579819.76248   -422609.95745
                  21704214.6094                                   21704209.2074
                                                                        49.7504
        35.5004
     40657.64847     50621.47345
                  22432777.0474                                   22432775.1254
                                                                        44.7504
        30.5004
 09 10  8 23 20  0.0000000  0  8G02G04G12G13G31G20G23G30
  -1831655.30148  -1386368.29746
                  21107116.8524                                   21107111.7974
                                                                        52.2504
        41.7504
    -98348.02048    -55734.05547
                  20418231.3054                                   20418228.5634
                                                                        52.5004
        42.5004
   1138719.69147    890108.52745
                  23231696.1254                                   23231692.9184
                                                                        46.7504
        33.0004
  -2322576.77347  -1760955.62945
                  22391699.3674                                   22391695.8284
                                                                        47.5004
        31.0004
   1466727.17247   1147243.31645
                  23527518.5784                                   23527515.7304
                                                                        43.7504
        30.0004
   1891534.91446   1468039.11743
                  23508602.5314                                   23508598.7624
                                                                        40.0004
        22.0004
   -681455.39848   -501806.56245
                  21684874.1094                                   21684868.6174
                                                                        50.5004
        35.5004
    -30581.98447     -4889.89545
                  22419220.8204                                   22419217.9574
                                                                        47.7504
        30.5004
 09 10  8 23 20 30.0000000  0  8G02G04G12G13G31G20G23G30
  -1988442.08248  -1508539.73846
                  21077281.0634                                   21077275.8794
                                                                        53.0004
        41.2504
   -173368.37548   -114191.42647
                  20403955.1334                                   20403952.8954
                                                                        52.5004
        42.2504
   1119626.23447    875230.46545
                  23228063.1414                                   23228059.7504
                                                                        47.7504
        33.2504
  -2502049.13747  -1900804.11345
                  22357546.5704                                   22357543.0314
                                                                        47.7504
        30.5004
   1391620.71947   1088718.82844
                  23513226.2664                                   23513222.6484
                                                                        44.0004
        29.0004
   1904761.18046   1478345.28543
                  23511119.7894                                   23511116.0314
                                                                        40.5004
        22.5004
   -782640.14548   -580651.82845
                  21665619.3984                                   21665613.9024
                                                                        50.0004
        35.2504
   -101336.67647    -60023.38745
                  22405756.7974                                   22405753.7504
                                                                        46.7504
        31.5004
 09 10  8 23 21  0.0000000  0  8G02G04G12G13G31G20G23G30
   -569546.44548   -402906.77047
                  21347287.6414                                   21347282.4774
                                                                        52.5004
        42.0004
   1327413.68848   1055249.00447
                  20689544.9924                                   20689542.2934
                                                                        53.0004
        42.5004
   2676216.24247   2088157.73445
                  23524272.3134                                   23524268.9694
                                                                        47.0004
        33.2504
  -1105835.08247   -812845.37545
                  22623237.7424                                   22623233.9534
                                                                        47.7504
        31.2504
   2892347.68847   2258116.44544
                  23798805.4384                                   23798801.5204
                                                                        43.0004
        28.7504
   3493445.88746   2716281.41844
                  23813436.5394                                   23813432.8094
                                                                        41.0004
        25.2504
    692052.02748    568458.94545
                  21946243.9064                                   21946238.3524
                                                                        49.7504
        35.7504
   1403815.30947   1112822.34445
                  22692177.8054                                   22692174.9384
                                                                        47.0004
        31.7504
 09 10  8 23 21 30.0000000  0  8G02G04G12G13G31G20G23G30
   -725803.45348   -524665.64146
                  21317553.1884                                   21317548.4654
                                                                        51.7504
        41.7504
   1253166.05148    997393.35247
                  20675416.3284                                   20675413.5124
                                                                        52.7504
        42.7504
   2657658.87947   2073697.45745
                  23520740.9614                                   23520737.4224
                                                                        46.5004
        32.5004
  -1284769.32047   -952274.46145
                  22589186.8674                                   22589183.7034
                                                                        46.7504
        31.7504
   2818076.03547   2200242.44544
                  23784671.8674                                   23784668.4964
                                                                        44.0004
        29.5004
   3506760.78946   2726656.73444
                  23815970.1174                                   23815966.6484
                                                                        40.2504
        25.7504
    591787.78948    490331.00445
                  21927164.1174                                   21927158.5944
                                                                        49.2504
        35.7504
   1334042.78947   1058454.18045
                  22678900.2034                                   22678897.8324
                                                                        45.7504
        31.0004
 09 10  8 23 22  0.0000000  0  8G02G04G12G13G31G20G23G30
   -881768.59448   -646197.00846
                  21287874.0554                                   21287869.2894
                                                                        51.5004
        41.2504
   1179329.58248    939858.94947
                  20661365.0944                                   20661362.2664
                                                                        52.7504
        42.2504
   2639389.51647   2059461.69545
                  23517264.4694                                   23517261.4224
                                                                        47.5004
        33.5004
  -1463406.98847  -1091472.49645
                  22555193.5634                                   22555190.6994
                                                                        46.7504
        31.2504
   2744244.29747   2142711.24644
                  23770622.3054                                   23770618.4454
                                                                        43.0004
        28.7504
   3520139.74246   2737081.94943
                  23818515.7584                                   23818512.5554
                                                                        40.2504
        23.2504
    492007.54748    412580.18046
                  21908176.4064                                   21908170.5354
                                                                        49.0004
        36.0004
   1264783.57447   1004485.93445
                  22665720.8834                                   22665717.9574
                                                                        46.0004
        30.5004
 09 10  8 23 22 30.0000000  0  8G02G04G12G13G31G20G23G30
  -1037426.60248   -767488.89546
                  21258253.1564                                   21258247.9064
                                                                        52.2504
        41.2504
   1105914.86748    882652.87147
                  20647394.5634                                   20647391.8754
                                                                        53.0004
        42.0004
   2621418.71147   2045458.43445
                  23513844.5864                                   23513841.8554
                                                                        47.0004
        33.0004
  -1641731.78548  -1230426.75845
                  22521259.4304                                   22521256.0354
                                                                        48.0004
        32.2504
   2670865.15247   2085532.69144
                  23756658.3834                                   23756654.7854
                                                                        44.5004
        28.7504
   3533593.71546   2747565.55543
                  23821075.3284                                   23821072.9264
                                                                        40.0004
        21.7504
    392724.68848    335216.91045
                  21889283.8524                                   21889277.9804
                                                                        49.7504
        35.5004
   1196049.91847    950927.23445
                  22652640.7894                                   22652638.5744
                                                                        46.0004
        30.0004
 09 10  8 23 23  0.0000000  0  8G02G04G12G13G31G20G23G30
  -1192763.12948   -888530.28946
                  21228693.5084                                   21228688.4654
                                                                        52.2504
        41.5004
   1032934.94148    825785.43847
                  20633507.0004                                   20633504.4654
                                                                        52.7504
        42.5004
   2603757.02047   2031696.07845
                  23510483.6254                                   23510480.6684
                                                                        47.0004
        33.0004
  -1819728.05947  -1369125.32045
                  22487388.1954                                   22487384.5744
                                                                        47.7504
        31.7504
   2597951.23047   2028716.64544
                  23742783.4534                                   23742779.9804
                                                                        44.5004
        29.2504
   3547134.07046   2758116.50443
                  23823652.0394                                   23823648.9694
                                                                        40.0004
        20.2504
    293953.12548    258252.06345
                  21870487.8984                                   21870482.7974
                                                                        48.7504
        35.7504
   1127853.42247    897787.08645
                  22639664.1644                                   22639661.0124
                                                                        44.5004
        31.0004
 09 10  8 23 23 30.0000000  0  8G02G04G12G13G31G20G23G30
  -1347763.53948  -1009309.75046
                  21199197.9304                                   21199193.3324
                                                                        51.2504
        41.5004
    960401.32848    769265.75447
                  20619704.3524                                   20619701.7734
                                                                        53.0004
        42.5004
   2586414.36348   2018182.24645
                  23507183.2974                                   23507180.6294
                                                                        48.0004
        33.5004
  -1997380.70747  -1507555.98445
                  22453581.8984                                   22453579.1294
                                                                        47.5004
        31.2504
   2525513.73447   1972271.85944
                  23728999.0474                                   23728995.3484
                                                                        45.0004
        29.5004
   3560770.19946   2768742.10543
                  23826247.2344                                   23826243.1954
                                                                        40.7504
        19.7504
    195704.83648    181694.96946
                  21851792.0474                                   21851786.6524
                                                                        48.0004
        36.0004
   1060206.41847    845075.13745
                  22626791.2974                                   22626788.5944
                                                                        45.0004
        31.0004
 09 10  8 23 24  0.0000000  0  8G02G04G12G13G31G20G23G30
  -1502417.75848  -1129819.51246
                  21169768.4144                                   21169763.2774
                                                                        51.5004
        41.7504
    888322.72348    713100.63347
                  20605988.3364                                   20605985.3054
                                                                        53.5004
        42.2504
   2569397.14148   2004922.05945
                  23503945.1564                                   23503941.3714
                                                                        48.0004
        31.7504
  -2174678.19947  -1645710.10945
                  22419843.1414                                   22419840.2854
                                                                        47.0004
        30.2504
   2453560.62547   1916204.50044
                  23715307.4144                                   23715303.3674
                                                                        45.0004
        28.5004
   3574508.73047   2779447.50043
                  23828862.0864                                   23828857.8404
                                                                        42.7504
        22.5004
     97989.18848    105552.91846
                  21833197.3594                                   21833191.3484
                                                                        49.0004
        36.0004
    993116.23847    792797.06345
                  22614024.1094                                   22614021.1214
                                                                        45.0004
        30.7504
 09 10  8 23 24 30.0000000  0  8G02G04G12G13G31G20G23G30
  -1656718.32048  -1250053.70747
                  21140405.8674                                   21140400.8524
                                                                        50.5004
        42.0004
    816703.91448    657293.77747
                  20592359.6484                                   20592356.6644
                                                                        53.2504
        42.2504
   2552707.92248   1991917.53545
                  23500769.4224                                   23500765.3204
                                                                        48.0004
        32.0004
  -2351611.02347  -1783579.68445
                  22386174.2664                                   22386171.0594
                                                                        47.2504
        31.7504
   2382097.12547   1860518.65644
                  23701707.7584                                   23701704.1174
                                                                        45.5004
        29.5004
   3588353.24247   2790235.47344
                  23831496.4384                                   23831492.9304
                                                                        44.7504
        24.5004
       812.03948     29830.47745
                  21814705.0944                                   21814699.1024
                                                                        48.5004
        35.5004
    926587.10247    740956.20745
                  22601363.9384                                   22601360.9454
                                                                        44.2504
        31.0004
 09 10  8 23 25  0.0000000  0  8G02G04G12G13G31G20G23G30
  -1810658.32448  -1370006.96947
                  21111111.8914                                   21111107.0234
                                                                        51.5004
        42.2504
    745548.98848    601848.39547
                  20578819.3674                                   20578816.5744
                                                                        53.5004
        42.5004
   2536348.83648   1979170.14145
                  23497656.5554                                   23497652.9104
                                                                        48.7504
        31.5004
  -2528172.08647  -1921159.33645
                  22352575.1724                                   22352571.4534
                                                                        47.5004
        31.2504
   2311126.87547   1805217.15644
                  23688203.1024                                   23688199.1844
                                                                        45.0004
        29.2504
   3602305.89847   2801107.66444
                  23834152.0634                                   23834148.6254
                                                                        44.0004
        26.2504
    -95822.12548    -45468.88345
                  21796316.2194                                   21796310.7974
                                                                        49.2504
        35.2504
    860622.43047    689555.23045
                  22588811.7664                                   22588808.1454
                                                                        44.5004
        30.7504
 09 10  8 23 25 30.0000000  0  8G02G04G12G13G31G20G23G30
  -1964225.18748  -1489669.48047
                  21081889.3134                                   21081884.1954
                                                                        50.2504
        42.0004
    674868.36748    546772.61747
                  20565369.2584                                   20565366.5124
                                                                        53.2504
        42.5004
   2520328.48848   1966686.71545
                  23494608.1954                                   23494604.7584
                                                                        48.0004
        32.7504
  -2704349.14148  -2058440.33645
                  22319049.8674                                   22319046.2774
                                                                        48.0004
        31.7504
   2240660.27347   1750308.11744
                  23674793.6954                                   23674789.5044
                                                                        45.7504
        29.0004
   3616375.66846   2812071.09043
                  23836828.7274                                   23836825.8444
                                                                        41.2504
        21.7504
   -191901.61747   -120335.98845
                  21778032.5704                                   21778026.9024
                                                                        47.7504
        35.5004
    795231.91047    638601.57845
                  22576368.0004                                   22576365.0904
                                                                        44.5004
        30.0004
 09 10  8 23 26  0.0000000  0  8G02G04G12G13G31G20G23G30
  -2117412.86748  -1609036.50047
                  21052738.7734                                   21052733.9344
                                                                        51.0004
        42.0004
    604665.61349    492069.30547
                  20552009.9534                                   20552007.2114
                                                                        54.0004
        42.5004
   2504648.95347   1954469.10945
                  23491623.7584                                   23491620.6524
                                                                        47.7504
        32.5004
  -2880132.97748  -2195414.17645
                  22285598.9924                                   22285595.2114
                                                                        49.0004
        31.2504
   2170700.48447   1695793.97344
                  23661480.6094                                   23661477.0904
                                                                        45.0004
        29.5004
   3630564.47746   2823127.20343
                  23839527.6174                                   23839525.6214
                                                                        40.0004
        20.7504
   -287422.81248   -194768.06645
                  21759855.5704                                   21759850.2424
                                                                        48.7504
        35.5004
    730418.98447    588098.01245
                  22564034.7034                                   22564031.3874
                                                                        45.7504
        31.5004
 09 10  8 23 26 30.0000000  0  8G02G04G12G13G31G20G23G30
  -2270217.34848  -1728104.93446
                  21023660.7974                                   21023655.7934
                                                                        51.2504
        41.7504
    534942.06648    437739.35247
                  20538741.9614                                   20538739.0634
                                                                        53.7504
        42.5004
   2489309.92647   1942517.14845
                  23488704.6804                                   23488701.2974
                                                                        47.2504
        31.5004
  -3055521.10548  -2332080.25845
                  22252223.8754                                   22252220.2194
                                                                        48.7504
        32.7504
   2101249.05947   1641676.00444
                  23648264.3134                                   23648260.6524
                                                                        45.0004
        29.2504
   3644872.26646   2834276.08243
                  23842251.0004                                   23842248.2424
                                                                        40.2504
        20.7504
   -382383.22348   -268763.19146
                  21741785.2194                                   21741779.7274
                                                                        49.5004
        36.5004
    666184.17647    538044.88345
                  22551811.2274                                   22551808.4614
                                                                        45.5004
        30.0004
 09 10  8 23 27  0.0000000  0  8G02G04G12G13G31G20G23G30
  -2422630.04748  -1846868.08247
                  20994657.4384                                   20994652.7894
                                                                        51.2504
        42.0004
    465703.57448    383787.08247
                  20525566.5944                                   20525563.7074
                                                                        53.0004
        42.7504
   2474314.31347   1930832.45345
                  23485850.7194                                   23485847.9144
                                                                        46.7504
        31.7504
  -3230502.19948  -2468429.14845
                  22218926.0554                                   22218922.2894
                                                                        49.0004
        33.0004
   2032311.91447   1587958.77044
                  23635145.5634                                   23635142.5824
                                                                        44.7504
        28.7504
   3659303.79747   2845521.41443
                  23844997.9224                                   23844994.4414
                                                                        42.0004
        21.5004
   -476775.44148   -342315.55146
                  21723823.1724                                   21723817.4774
                                                                        49.5004
        36.0004
    602533.12947    488446.64145
                  22539698.7734                                   22539696.1374
                                                                        46.0004
        30.7504
 09 10  8 23 27 30.0000000  0  8G02G04G12G13G31G20G23G30
  -2574643.84048  -1965320.36746
                  20965730.3914                                   20965725.4224
                                                                        51.2504
        41.7504
    396955.08648    330216.80947
                  20512484.1804                                   20512481.2624
                                                                        53.5004
        42.2504
   2459665.10247   1919417.61345
                  23483062.9614                                   23483059.7034
                                                                        47.0004
        31.0004
  -3405069.53948  -2604455.60545
                  22185707.0704                                   22185703.7194
                                                                        48.0004
        33.0004
   1963892.95347   1534645.28944
                  23622126.6094                                   23622122.6954
                                                                        45.0004
        28.5004
   3673861.06347   2856864.80543
                  23847768.1564                                   23847763.8594
                                                                        43.2504
        21.0004
   -570595.01248   -415421.72745
                  21705969.7664                                   21705963.9924
                                                                        48.5004
        35.5004
    539470.17647    439306.66045
                  22527698.1564                                   22527695.3524
                                                                        46.0004
        31.5004
 09 10  8 23 28  0.0000000  0  8G02G04G12G13G31G20G23G30
  -2726254.89148  -2083458.84046
                  20936879.7194                                   20936874.9104
                                                                        51.2504
        41.5004
    328698.41048    277029.78947
                  20499495.2504                                   20499493.0864
                                                                        53.5004
        42.2504
   2445361.87947   1908272.29345
                  23480341.5234                                   23480337.7974
                                                                        47.5004
        32.0004
  -3579216.89547  -2740154.86745
                  22152568.0474                                   22152564.7704
                                                                        47.7504
        33.0004
   1895994.05147   1481737.06644
                  23609205.6644                                   23609201.9574
                                                                        44.5004
        29.5004
   3688545.75046   2868307.53143
                  23850562.5634                                   23850558.0984
                                                                        41.7504
        21.2504
   -663838.85948   -488079.28146
                  21688226.0784                                   21688220.8524
                                                                        49.0004
        36.0004
    476996.07047    390625.53145
                  22515809.7814                                   22515807.1484
                                                                        45.2504
        31.0004
 09 10  8 23 28 30.0000000  0  8G02G04G12G13G31G20G23G30
  -2877455.39148  -2201277.40247
                  20908107.0784                                   20908102.0634
                                                                        52.0004
        42.0004
    260938.31648    224229.69947
                  20486600.8524                                   20486598.3204
                                                                        53.0004
        42.5004
   2431407.89047   1897399.06045
                  23477686.0234                                   23477682.3634
                                                                        47.7504
        33.0004
  -3752936.57848  -2875520.87945
                  22119510.0634                                   22119506.5824
                                                                        48.5004
        32.5004
   1828619.68447   1429237.57044
                  23596384.7344                                   23596381.0084
                                                                        44.0004
        29.7504
   3703360.00446   2879851.12943
                  23853381.3754                                   23853377.7384
                                                                        40.7504
        20.5004
   -756502.04348   -560284.36346
                  21670593.3284                                   21670587.5434
                                                                        50.0004
        36.0004
    415115.15247    342406.63745
                  22504034.1954                                   22504031.4024
                                                                        45.7504
        30.5004
 09 10  8 23 29  0.0000000  0  8G02G04G12G13G31G20G23G30
  -3028241.31648  -2318772.92647
                  20879413.9224                                   20879408.9804
                                                                        52.0004
        42.2504
    193676.51248    171817.89847
                  20473801.4144                                   20473798.5434
                                                                        52.7504
        42.5004
   2417803.22347   1886798.04345
                  23475097.2274                                   23475093.6954
                                                                        46.7504
        31.7504
  -3926223.01648  -3010549.29345
                  22086534.6254                                   22086531.3674
                                                                        48.7504
        32.5004
   1761771.40247   1377148.01644
                  23583663.8594                                   23583660.1804
                                                                        44.7504
        27.5004
   3718304.65246   2891496.29743
                  23856225.1174                                   23856221.6174
                                                                        40.2504
        22.0004
   -848581.19548   -632034.35946
                  21653070.9454                                   21653065.3914
                                                                        50.0004
        36.7504
    353828.55947    294650.84045
                  22492371.7274                                   22492369.3444
                                                                        46.2504
        31.2504
 09 10  8 23 29 30.0000000  0  8G02G04G12G13G31G20G23G30
  -1603178.61348  -1208334.41847
                  21150593.8594                                   21150588.8014
                                                                        51.7504
        42.0004
   1702341.75848   1347401.20347
                  20760890.9454                                   20760888.3444
                                                                        52.7504
        42.2504
   3979972.56647   3104072.91845
                  23772367.8834                                   23772364.3674
                                                                        46.0004
        30.7504
  -2523640.73848  -1917628.08245
                  22353437.3914                                   22353433.6134
                                                                        49.2504
        32.2504
   3270877.59047   2553074.93844
                  23870837.0084                                   23870833.3324
                                                                        44.5004
        28.2504
   5308804.19546   4130846.56343
                  24158886.5634                                   24158883.8984
                                                                        39.5004
        22.0004
    635353.09848    524278.09045
                  21935454.4924                                   21935448.8634
                                                                        49.7504
        35.5004
   1868563.96947   1474964.14845
                  22780616.3524                                   22780614.0744
                                                                        45.7504
        31.5004
 09 10  8 23 30  0.0000000  0  8G02G04G12G13G31G20G23G30
  -1753111.84848  -1325165.47747
                  21122062.7584                                   21122057.5354
                                                                        51.7504
        42.5004
   1636092.43848   1295778.31347
                  20748284.0784                                   20748281.4024
                                                                        52.0004
        42.5004
   3967076.75447   3094024.38345
                  23769913.9224                                   23769910.5864
                                                                        46.5004
        31.7504
  -2696035.54748  -2051961.78145
                  22320631.7814                                   22320627.8324
                                                                        49.0004
        32.5004
   3205096.91447   2501817.29344
                  23858318.9844                                   23858315.2814
                                                                        44.0004
        27.5004
   5324020.89146   4142703.68043
                  24161782.9064                                   24161779.8524
                                                                        39.5004
        22.5004
    544458.40648    453451.04746
                  21918157.9774                                   21918152.0164
                                                                        49.7504
        36.2504
   1808480.07847   1428145.53545
                  22769182.7504                                   22769180.5274
                                                                        46.5004
        31.0004
 09 10  8 23 30 30.0000000  0  8G02G04G12G13G31G20G23G30
  -1902617.73848  -1441663.54747
                  21093612.3754                                   21093607.6524
                                                                        52.5004
        42.7504
   1570346.88348   1244547.98047
                  20735773.0864                                   20735770.6174
                                                                        53.2504
        42.0004
   3954529.02047   3084246.97345
                  23767526.4844                                   23767523.0474
                                                                        47.0004
        32.2504
  -2867980.68748  -2185944.89145
                  22287911.8524                                   22287908.0664
                                                                        49.5004
        32.2504
   3139846.57047   2450972.87544
                  23845902.6804                                   23845898.4844
                                                                        44.5004
        27.7504
   5339368.95346   4154663.20343
                  24164703.2584                                   24164700.2664
                                                                        39.5004
        21.5004
    454155.05148    383084.78145
                  21900973.5704                                   21900967.7774
                                                                        50.7504
        35.5004
   1748993.80947   1381792.58645
                  22757862.9384                                   22757860.7894
                                                                        45.7504
        31.5004
 09 10  8 23 31  0.0000000  0  8G02G04G12G13G31G20G23G30
  -2051684.40648  -1557819.36347
                  21065246.2734                                   21065241.5704
                                                                        52.5004
        42.2504
   1505113.90248   1193717.07047
                  20723359.7034                                   20723357.1884
                                                                        52.5004
        43.0004
   3942337.62147   3074747.27045
                  23765205.9224                                   23765202.9184
                                                                        46.0004
        31.0004
  -3039464.72348  -2319568.66045
                  22255279.2974                                   22255275.4964
                                                                        50.0004
        33.2504
   3075135.76247   2400548.87144
                  23833589.2114                                   23833584.6134
                                                                        43.7504
        26.7504
   5354855.71546   4166730.79343
                  24167650.7194                                   24167647.0864
                                                                        41.5004
        22.0004
    364452.39848    313186.60545
                  21883903.4534                                   21883898.0354
                                                                        49.5004
        35.7504
   1690113.95747   1335912.18445
                  22746658.2344                                   22746656.2974
                                                                        45.2504
        31.2504
 09 10  8 23 31 30.0000000  0  8G02G04G12G13G31G20G23G30
  -2200314.63748  -1673635.11747
                  21036962.8754                                   21036957.9774
                                                                        52.7504
        42.5004
   1440388.64848   1143281.81347
                  20711042.8524                                   20711040.2734
                                                                        53.0004
        42.7504
   3930494.84447   3065519.00445
                  23762952.0634                                   23762949.0744
                                                                        45.2504
        31.2504
  -3210489.61348  -2452834.86745
                  22222734.2504                                   22222730.3014
                                                                        49.5004
        33.0004
   3010959.28147   2350541.23844
                  23821376.2974                                   23821372.2114
                                                                        44.2504
        27.5004
   5370474.97347   4178901.66443
                  24170622.7034                                   24170619.6294
                                                                        42.0004
        22.5004
    275345.81648    243752.91045
                  21866947.5004                                   21866941.7424
                                                                        51.0004
        35.5004
   1631834.46547   1290499.57045
                  22735568.0864                                   22735565.9574
                                                                        45.2504
        31.0004
 09 10  8 23 32  0.0000000  0  8G02G04G12G13G31G20G23G30
  -2348501.30948  -1789105.21947
                  21008764.0314                                   21008758.8014
                                                                        52.5004
        42.2504
   1376175.65248   1093245.71547
                  20698823.8754                                   20698820.7274
                                                                        53.7504
        42.0004
   3919003.66047   3056564.84045
                  23760765.3054                                   23760762.7114
                                                                        46.5004
        32.0004
  -3381046.93448  -2585736.69145
                  22190278.1174                                   22190275.2034
                                                                        49.2504
        32.7504
   2947321.26647   2300953.18844
                  23809266.6884                                   23809262.2114
                                                                        44.7504
        28.2504
   5386230.01246   4191178.35243
                  24173620.6174                                   24173617.5234
                                                                        40.5004
        19.7504
    186840.60948    174787.81345
                  21850105.0864                                   21850099.7194
                                                                        49.7504
        35.5004
   1574158.96947   1245557.61745
                  22724592.7274                                   22724590.5864
                                                                        46.2504
        31.2504
 09 10  8 23 32 30.0000000  0  8G02G04G12G13G31G20G23G30
  -2496239.70748  -1904226.04347
                  20980649.9144                                   20980644.9534
                                                                        52.7504
        42.2504
   1312477.32448   1043610.69947
                  20686702.2814                                   20686699.3754
                                                                        53.5004
        42.0004
   3907864.39847   3047884.78945
                  23758646.5004                                   23758642.4964
                                                                        47.2504
        31.7504
  -3551130.60948  -2718269.39845
                  22157912.0474                                   22157908.5594
                                                                        48.5004
        33.2504
   2884223.68847   2251786.27744
                  23797259.5004                                   23797255.4654
                                                                        44.5004
        27.5004
   5402121.88746   4203561.70343
                  24176644.2814                                   24176641.6454
                                                                        39.2504
        19.2504
     98939.95348    106293.78545
                  21833378.1804                                   21833372.5944
                                                                        51.0004
        35.7504
   1517089.42647   1201087.82845
                  22713733.2424                                   22713730.7074
                                                                        46.2504
        31.0004
 09 10  8 23 33  0.0000000  0  8G02G04G12G13G31G20G23G30
  -2643525.72348  -2018994.33647
                  20952622.5784                                   20952617.4844
                                                                        52.5004
        43.0004
   1249294.63348    994377.45747
                  20674678.9224                                   20674675.7624
                                                                        53.0004
        42.0004
   3897076.96147   3039478.99645
                  23756593.1484                                   23756589.0984
                                                                        46.2504
        31.0004
  -3720736.78548  -2850430.12145
                  22125637.4694                                   22125633.6994
                                                                        49.0004
        33.0004
   2821667.90247   2203041.53144
                  23785355.2424                                   23785351.1254
                                                                        44.0004
        27.2504
   5418149.98046   4216051.15643
                  24179694.9454                                   24179691.7234
                                                                        40.0004
        21.0004
     11645.37548     38272.03946
                  21816766.6094                                   21816760.9184
                                                                        50.0004
        36.2504
   1460626.73047   1157090.93045
                  22702988.6724                                   22702985.8484
                                                                        46.5004
        30.7504
 09 10  8 23 33 30.0000000  0  8G02G04G12G13G31G20G23G30
  -2790359.68448  -2133410.38747
                  20924680.7194                                   20924675.6214
                                                                        52.0004
        42.5004
   1186624.71548    945543.75047
                  20662753.4534                                   20662750.7194
                                                                        53.2504
        42.5004
   3886636.07847   3031343.22745
                  23754606.4384                                   23754602.5904
                                                                        45.7504
        30.7504
  -3889864.34448  -2982217.81245
                  22093453.4144                                   22093450.1684
                                                                        48.7504
        33.2504
   2759650.16047   2154716.03944
                  23773554.2194                                   23773549.2624
                                                                        43.7504
        27.0004
   5434310.26246   4228643.55943
                  24182769.7424                                   24182767.2704
                                                                        40.0004
        22.0004
    -75045.32848    -29279.14845
                  21800270.0234                                   21800264.1764
                                                                        50.2504
        35.7504
   1404766.20347   1113563.23845
                  22692358.6884                                   22692356.2544
                                                                        44.7504
        30.7504
 09 10  8 23 34  0.0000000  0  8G02G04G12G13G31G20G23G30
  -2936734.22748  -2247468.39847
                  20896826.8524                                   20896821.7234
                                                                        52.0004
        42.5004
   1124472.51648    897113.48047
                  20650926.0944                                   20650923.1884
                                                                        53.7504
        42.2504
   3876544.72747   3023479.71144
                  23752685.8834                                   23752682.6294
                                                                        46.0004
        29.7504
  -4058504.72348  -3113625.82445
                  22061362.1334                                   22061358.7704
                                                                        50.0004
        34.0004
   2698175.54347   2106813.75844
                  23761855.9384                                   23761851.3404
                                                                        44.2504
        27.0004
   5450606.72346   4241342.04743
                  24185870.9384                                   24185868.5164
                                                                        38.7504
        20.0004
   -161126.35548    -96355.27746
                  21783889.2734                                   21783883.6414
                                                                        50.5004
        36.0004
   1349512.66447   1070508.53145
                  22681844.4844                                   22681841.5824
                                                                        45.7504
        32.2504
 09 10  8 23 34 30.0000000  0  8G02G04G12G13G31G20G23G30
  -3082648.25848  -2361167.62547
                  20869060.1804                                   20869055.1764
                                                                        52.7504
        42.5004
   1062836.76248    849085.62547
                  20639197.4304                                   20639194.5824
                                                                        53.5004
        42.2504
   3866800.04347   3015886.41445
                  23750831.4454                                   23750828.7074
                                                                        45.2504
        31.5004
  -4226656.33648  -3244653.10545
                  22029364.2504                                   22029360.7304
                                                                        50.0004
        34.0004
   2637241.85547   2059332.97744
                  23750259.8914                                   23750255.8714
                                                                        44.2504
        26.0004
   5467036.18046   4254144.25043
                  24188998.1484                                   24188995.1914
                                                                        41.5004
        21.5004
   -246598.74648   -162957.14146
                  21767624.4304                                   21767618.7734
                                                                        50.2504
        36.7504
   1294863.80147   1027924.98845
                  22671444.8204                                   22671442.3714
                                                                        45.0004
        30.7504
 09 10  8 23 35  0.0000000  0  8G02G04G12G13G31G20G23G30
  -3228099.86748  -2474506.52047
                  20841381.5554                                   20841376.5784
                                                                        52.2504
        42.7504
   1001716.73048    801459.64547
                  20627566.5164                                   20627563.7584
                                                                        53.0004
        42.7504
   3857399.41447   3008561.25445
                  23749043.0394                                   23749040.1454
                                                                        46.5004
        31.2504
  -4394316.11348  -3375297.09445
                  21997459.7344                                   21997455.9384
                                                                        49.7504
        34.2504
   2576848.37547   2012273.12544
                  23738766.7194                                   23738763.3484
                                                                        42.7504
        24.7504
   5483597.09847   4267048.86743
                  24192149.9144                                   24192145.7114
                                                                        42.0004
        21.7504
   -331462.38348   -229084.65646
                  21751475.2584                                   21751469.5394
                                                                        50.5004
        36.0004
   1240818.60247    985811.84045
                  22661160.2734                                   22661158.0314
                                                                        44.5004
        31.0004
 09 10  8 23 35 30.0000000  0  8G02G04G12G13G31G20G23G30
  -3373086.50448  -2587483.09847
                  20813791.5004                                   20813786.0704
                                                                        52.5004
        42.5004
    941112.32448    754235.38747
                  20616033.8984                                   20616031.3524
                                                                        53.5004
        42.2504
   3848340.94947   3001502.66445
                  23747319.1884                                   23747316.2894
                                                                        45.5004
        31.5004
  -4561481.09448  -3505555.54745
                  21965649.6334                                   21965645.4694
                                                                        49.5004
        33.5004
   2516994.88746   1965634.02344
                  23727377.8594                                   23727373.8554
                                                                        40.5004
        26.0004
   5500287.83646   4280054.72343
                  24195325.3834                                   24195321.1994
                                                                        40.0004
        19.7504
   -415717.05548   -294737.65646
                  21735442.1484                                   21735436.3524
                                                                        49.7504
        36.0004
   1187376.35947    944168.52345
                  22650990.4304                                   22650988.5514
                                                                        45.5004
        31.0004
 09 10  8 23 36  0.0000000  0  8G02G04G12G13G31G20G23G30
  -3517598.80148  -2700090.09047
                  20786291.6954                                   20786286.7344
                                                                        52.2504
        42.7504
    881030.21948    707418.13347
                  20604600.6334                                   20604597.7194
                                                                        53.0004
        42.0004
   3839629.17247   2994714.26245
                  23745661.9694                                   23745657.6684
                                                                        46.2504
        30.7504
  -4728140.59848  -3635420.10945
                  21933935.0314                                   21933931.1524
                                                                        48.2504
        33.5004
   2457687.70747   1919420.62144
                  23716091.9384                                   23716088.8984
                                                                        42.5004
        27.2504
   5517114.26246   4293166.22343
                  24198526.9064                                   24198523.8014
                                                                        40.0004
        20.0004
   -499355.12548   -359910.17645
                  21719526.3284                                   21719520.8324
                                                                        50.0004
        35.5004
   1134542.25447    902999.08645
                  22640936.8364                                   22640934.1054
                                                                        45.0004
        30.7504
 09 10  8 23 36 30.0000000  0  8G02G04G12G13G31G20G23G30
  -3661635.50048  -2812326.54347
                  20758882.6804                                   20758877.6454
                                                                        52.0004
        42.5004
    821469.63348    661007.30147
                  20593266.6414                                   20593263.7384
                                                                        53.5004
        42.2504
   3831261.62947   2988194.07044
                  23744068.9304                                   23744065.8364
                                                                        44.5004
        29.2504
  -4894292.30148  -3764888.96945
                  21902317.2344                                   21902313.8834
                                                                        49.0004
        33.2504
   2398925.14847   1873631.60944
                  23704909.0554                                   23704906.3164
                                                                        42.5004
        27.5004
   5534073.61746   4306381.25843
                  24201754.9144                                   24201750.8404
                                                                        39.7504
        18.2504
   -582377.26248   -424602.72745
                  21703727.6564                                   21703721.7854
                                                                        49.5004
        35.5004
   1082314.89147    862302.45345
                  22630998.1954                                   22630995.3914
                                                                        44.2504
        30.2504
 09 10  8 23 37  0.0000000  0  8G02G04G12G13G31G20G23G30
  -3805201.83248  -2924196.39547
                  20731562.7194                                   20731557.5864
                                                                        52.5004
        42.5004
    762422.32448    614996.50047
                  20582030.0864                                   20582027.3524
                                                                        53.5004
        42.0004
   3823228.39547   2981934.37145
                  23742540.6564                                   23742537.3164
                                                                        45.0004
        30.2504
  -5059940.84048  -3893965.66845
                  21870795.1484                                   21870791.7384
                                                                        48.7504
        32.5004
   2340699.22347   1828260.74244
                  23693829.9224                                   23693826.5434
                                                                        42.0004
        28.0004
   5551157.19546   4319693.08243
                  24205004.7734                                   24205002.0824
                                                                        39.7504
        20.2504
   -664790.86348   -488821.09446
                  21688044.9694                                   21688039.2974
                                                                        49.5004
        36.0004
   1030685.43447    822071.68845
                  22621173.5004                                   22621170.4924
                                                                        45.5004
        30.5004
 09 10  8 23 37 30.0000000  0  7G02G04G12G13G31G23G30
  -3948289.47748  -3035693.26247
                  20704334.3444                                   20704328.9924
                                                                        52.5004
        42.7504
    703893.93448    569389.99647
                  20570892.8054                                   20570889.9064
                                                                        53.0004
        42.2504
   3815533.33247   2975938.13745
                  23741076.3674                                   23741073.2544
                                                                        45.0004
        30.7504
  -5225077.31248  -4022643.41445
                  21839370.8834                                   21839367.4734
                                                                        49.2504
        32.7504
   2283015.22347   1783312.18444
                  23682853.1954                                   23682849.2034
                                                                        42.7504
        26.7504
   -746589.92648   -552560.60245
                  21672478.5704                                   21672473.4064
                                                                        49.5004
        34.5004
    979658.86747    782310.72745
                  22611463.6884                                   22611460.4454
                                                                        45.7504
        30.0004
 09 10  8 23 38  0.0000000  0  7G02G04G12G13G31G23G30
  -2515469.79748  -1919210.37147
                  20976990.4694                                   20976985.6804
                                                                        51.7504
        42.2504
   2221307.73849   1751790.40647
                  20859646.9534                                   20859644.2074
                                                                        54.0004
        43.0004
   5383596.36747   4197805.36345
                  24039469.1884                                   24039466.2274
                                                                        43.7504
        31.5004
  -3814271.30948  -2923313.99245
                  22107838.5004                                   22107834.7464
                                                                        49.5004
        34.0004
   3801295.82847   2966387.98044
                  23971772.2894                                   23971768.9024
                                                                        44.0004
        28.2504
    747650.02748    611782.23445
                  21956823.2584                                   21956817.4494
                                                                        49.0004
        35.5004
   2504657.41047   1970621.32044
                  22901660.7974                                   22901657.7114
                                                                        45.7504
        29.7504
 09 10  8 23 38 30.0000000  0  7G02G04G12G13G31G23G30
  -2657580.67648  -2029946.10947
                  20949947.5784                                   20949942.4494
                                                                        52.5004
        43.2504
   2163828.76248   1707001.61347
                  20848708.7734                                   20848706.0864
                                                                        53.7504
        42.2504
   5376583.51647   4192340.82445
                  24038134.3594                                   24038131.1804
                                                                        44.2504
        30.0004
  -3978361.40648  -3051176.43045
                  22076612.9304                                   22076609.1954
                                                                        49.5004
        33.7504
   3744705.76647   2922291.84044
                  23961003.4694                                   23960999.8404
                                                                        45.0004
        28.5004
    667093.60548    549011.03145
                  21941494.3054                                   21941488.4924
                                                                        48.5004
        35.5004
   2454845.29747   1931806.71545
                  22892181.5474                                   22892178.7504
                                                                        45.0004
        30.0004
 09 10  8 23 39  0.0000000  0  7G02G04G12G13G31G23G30
  -2799191.67248  -2140292.33647
                  20923000.0634                                   20922994.9534
                                                                        52.2504
        42.5004
   2106882.07448   1662627.58247
                  20837872.2894                                   20837869.1524
                                                                        52.7504
        42.2504
   5369917.14147   4187146.14844
                  24036865.6644                                   24036862.7894
                                                                        44.5004
        29.7504
  -4141915.71948  -3178621.32845
                  22045489.4694                                   22045486.2304
                                                                        50.0004
        34.0004
   3688670.32047   2878627.85944
                  23950340.2034                                   23950336.7274
                                                                        42.0004
        28.2504
    587166.91448    486730.55545
                  21926284.5554                                   21926279.2194
                                                                        48.5004
        35.7504
   2405647.44547   1893470.73044
                  22882819.9844                                   22882817.0314
                                                                        45.5004
        29.5004
 09 10  8 23 39 30.0000000  0  8G02G04G12G13G31G29G23G30
  -2940301.30148  -2250247.92247
                  20896147.8134                                   20896143.0354
                                                                        51.0004
        42.7504
   2050466.75848   1618667.64847
                  20827137.0084                                   20827133.9884
                                                                        53.2504
        42.0004
   5363594.60247   4182219.48845
                  24035662.8984                                   24035659.4534
                                                                        45.0004
        30.0004
  -4304931.72748  -3305646.78545
                  22014468.6484                                   22014465.0474
                                                                        49.2504
        34.5004
   3633187.83647   2835394.74245
                  23939782.8054                                   23939778.6884
                                                                        43.7504
        30.0004
   6017668.78557   4728067.78554
                  24485649.4694                                   24485646.6914
                                                                        42.0004
        25.2504
    507869.33648    424940.25045
                  21911194.4694                                   21911189.3244
                                                                        48.5004
        35.7504
   2357061.44547   1855611.53945
                  22873574.1334                                   22873571.6604
                                                                        44.5004
        30.0004
 09 10  8 23 40  0.0000000  0  8G02G04G12G13G31G29G23G30
  -3080918.82848  -2359819.98447
                  20869389.1884                                   20869384.1684
                                                                        52.0004
        42.5004
   1994570.91448   1575112.44546
                  20816499.8834                                   20816497.2734
                                                                        53.5004
        41.7504
   5357601.95747   4177549.92644
                  24034522.1804                                   24034518.9734
                                                                        45.2504
        28.7504
  -4467417.97348  -3432259.45745
                  21983548.4924                                   21983545.0904
                                                                        50.0004
        34.0004
   3578245.84847   2792582.80144
                  23929327.3594                                   23929323.7074
                                                                        45.0004
        29.2504
   5820630.42647   4574531.37944
                  24448154.8054                                   24448152.0124
                                                                        43.5004
        26.7504
    429189.44948    363631.25845
                  21896222.2734                                   21896217.0864
                                                                        49.7504
        35.5004
   2309074.80547   1818219.36344
                  22864442.8364                                   22864440.1994
                                                                        45.5004
        29.0004
 09 10  8 23 40 30.0000000  0  8G02G04G12G13G31G29G23G30
  -3221055.66048  -2469017.49647
                  20842721.9384                                   20842716.8874
                                                                        51.2504
        42.5004
   1939180.64548   1531951.15246
                  20805959.7814                                   20805956.7584
                                                                        53.2504
        41.7504
   5351922.59847   4173124.42245
                  24033441.7424                                   24033438.0594
                                                                        44.5004
        30.5004
  -4629384.23448  -3558466.98445
                  21952727.7664                                   21952723.9964
                                                                        50.5004
        34.5004
   3523829.89547   2750180.76645
                  23918972.6414                                   23918968.3954
                                                                        44.5004
        30.0004
   5623798.93047   4421156.24244
                  24410698.4064                                   24410695.3914
                                                                        42.0004
        26.0004
    351114.10248    302793.33245
                  21881364.7114                                   21881359.1644
                                                                        48.5004
        35.0004
   2261672.09447   1781282.18044
                  22855422.4774                                   22855419.0634
                                                                        44.0004
        29.2504
 09 10  8 23 41  0.0000000  0  8G02G04G12G13G31G29G23G30
  -3360709.23448  -2577838.41847
                  20816146.7504                                   20816141.9734
                                                                        51.2504
        42.7504
   1884295.30948   1489183.39146
                  20795515.7894                                   20795512.8284
                                                                        53.7504
        41.7504
   5346555.48447   4168942.15244
                  24032420.4064                                   24032417.2464
                                                                        44.5004
        29.5004
  -4790828.32848  -3684267.53145
                  21922005.8914                                   21922001.7624
                                                                        50.2504
        34.5004
   3469939.51647   2708188.24245
                  23908717.6094                                   23908713.6844
                                                                        45.2504
        30.0004
   5427178.23046   4267945.37144
                  24373281.9304                                   24373281.1564
                                                                        39.5004
        26.2504
    273642.82848    242426.12145
                  21866623.1254                                   21866616.8914
                                                                        48.2504
        34.7504
   2214852.54347   1744799.41044
                  22846512.9144                                   22846509.5554
                                                                        45.5004
        28.2504
 09 10  8 23 41 30.0000000  0  8G02G04G12G13G31G29G23G30
  -3499873.17648  -2686277.85247
                  20789664.9534                                   20789659.8794
                                                                        51.2504
        42.7504
   1829919.18448   1446812.41047
                  20785168.0474                                   20785165.4344
                                                                        53.5004
        42.0004
   5341502.58647   4165004.78945
                  24031458.9304                                   24031455.5944
                                                                        44.5004
        30.0004
  -4951742.27748  -3809655.00445
                  21891384.4774                                   21891381.1334
                                                                        49.5004
        35.0004
   3416577.85247   2666607.73045
                  23898563.1564                                   23898559.0354
                                                                        45.5004
        30.0004
   5230775.44946   4114904.37544
                  24335907.7894                                   24335906.7234
                                                                        38.0004
        26.0004
    196780.39148    182533.34845
                  21851995.9924                                   21851990.5594
                                                                        48.7504
        34.5004
   2168619.23847   1708773.45744
                  22837714.6564                                   22837712.1804
                                                                        46.0004
        29.5004
 09 10  8 23 42  0.0000000  0  8G02G04G12G13G31G29G23G30
  -3638542.59848  -2794331.89847
                  20763276.7194                                   20763271.7854
                                                                        52.0004
        42.5004
   1776054.66048   1404840.06647
                  20774918.1024                                   20774914.9884
                                                                        53.7504
        42.2504
   5336764.67647   4161312.82045
                  24030556.9924                                   24030554.3754
                                                                        45.2504
        30.0004
  -5112120.81648  -3934625.25845
                  21860865.8284                                   21860861.9924
                                                                        49.7504
        34.2504
   3363747.61347   2625441.28944
                  23888509.5784                                   23888505.9344
                                                                        44.2504
        28.5004
   5034597.52046   3962038.55944
                  24298576.3204                                   24298574.7074
                                                                        40.0004
        26.7504
    120529.62548    123117.18845
                  21837486.4304                                   21837480.8794
                                                                        48.7504
        34.5004
   2122973.95747   1673205.67245
                  22829028.8754                                   22829026.1914
                                                                        43.5004
        30.2504
 09 10  8 23 42 30.0000000  0  8G02G04G12G13G31G29G23G30
  -3776714.06648  -2901997.97747
                  20736983.4224                                   20736978.2504
                                                                        52.0004
        42.7504
   1722702.38748   1363266.89147
                  20764765.2894                                   20764762.4844
                                                                        53.7504
        42.0004
   5332340.46147   4157865.31344
                  24029715.4614                                   24029712.2894
                                                                        45.0004
        29.2504
  -5271959.09048  -4059174.52745
                  21830449.2274                                   21830445.6564
                                                                        49.2504
        34.7504
   3311448.91047   2584689.04744
                  23878557.7034                                   23878554.1054
                                                                        44.2504
        28.2504
   4838647.98847   3809350.71544
                  24261289.7034                                   24261286.7894
                                                                        42.2504
        26.5004
     44891.72348     64178.58245
                  21823092.7664                                   21823086.7894
                                                                        48.7504
        34.7504
   2077916.14847   1638095.67245
                  22820454.4774                                   22820452.3244
                                                                        43.5004
        30.2504
 09 10  8 23 43  0.0000000  0  8G02G04G12G13G31G29G23G30
  -3914385.44948  -3009274.36747
                  20710785.4534                                   20710780.6054
                                                                        51.7504
        43.0004
   1669861.46148   1322092.15247
                  20754710.1024                                   20754707.3524
                                                                        53.2504
        42.2504
   5328227.57847   4154660.41045
                  24028933.1644                                   24028929.9734
                                                                        45.2504
        30.2504
  -5431255.03548  -4183301.19545
                  21800136.4774                                   21800132.8364
                                                                        50.0004
        34.5004
   3259680.50847   2544350.02744
                  23868706.4384                                   23868702.5904
                                                                        44.5004
        28.0004
   4642930.12546   3656843.32044
                  24224044.7734                                   24224042.4924
                                                                        41.2504
        25.2504
    -30133.83648      5717.13345
                  21808815.9774                                   21808810.3914
                                                                        48.5004
        35.5004
   2033444.34347   1603442.29044
                  22811991.7274                                   22811989.3674
                                                                        43.7504
        29.0004
 09 10  8 23 43 30.0000000  0  8G02G04G12G13G31G29G23G30
  -4051551.11748  -3116156.70747
                  20684683.9774                                   20684678.9924
                                                                        51.5004
        42.7504
   1617535.23448   1281318.44547
                  20744752.7584                                   20744749.8834
                                                                        53.2504
        42.0004
   5324427.79747   4151699.46544
                  24028210.2814                                   24028206.5784
                                                                        44.7504
        29.0004
  -5590002.24248  -4307000.32045
                  21769927.9844                                   21769924.0824
                                                                        49.7504
        34.5004
   3208445.59847   2504426.71944
                  23858957.1884                                   23858952.5234
                                                                        44.7504
        25.5004
   4447451.04747   3504522.00044
                  24186846.5314                                   24186844.0314
                                                                        42.5004
        26.7504
   -104542.95748    -52263.98445
                  21794656.1414                                   21794650.3054
                                                                        48.0004
        35.5004
   1989560.78947   1569247.29745
                  22803641.5394                                   22803639.0594
                                                                        44.5004
        30.0004
 09 10  8 23 44  0.0000000  0  8G02G04G12G13G31G29G23G30
  -4188208.52748  -3222642.99247
                  20658678.8134                                   20658674.1214
                                                                        51.2504
        42.7504
   1565723.73449   1240945.85547
                  20734893.2034                                   20734890.2854
                                                                        54.5004
        42.5004
   5320939.07047   4148980.94545
                  24027545.7034                                   24027542.5634
                                                                        45.5004
        30.2504
  -5748196.53548  -4430268.57845
                  21739824.6564                                   21739821.1454
                                                                        49.7504
        34.0004
   3157742.85947   2464918.10944
                  23849307.9224                                   23849303.6374
                                                                        44.0004
        27.0004
   4252214.06646   3352389.33644
                  24149693.8594                                   24149691.8284
                                                                        41.5004
        25.7504
   -178335.64148   -109764.75846
                  21780614.2584                                   21780608.4774
                                                                        48.0004
        36.2504
   1946264.25847   1535509.72345
                  22795402.1174                                   22795399.7274
                                                                        45.0004
        30.0004
 09 10  8 23 44 30.0000000  0  9G02G04G12G13G31G29G23G30G10
  -4324356.32448  -3328732.14147
                  20632771.0164                                   20632765.9574
                                                                        52.0004
        43.0004
   1514425.35949   1200973.11747
                  20725131.5084                                   20725128.8284
                                                                        54.0004
        42.2504
   5317758.71947   4146502.67644
                  24026940.8834                                   24026937.9574
                                                                        45.0004
        29.2504
  -5905836.59848  -4553104.95345
                  21709826.8444                                   21709823.0234
                                                                        49.7504
        35.2504
   3107571.12947   2425823.26644
                  23839760.9694                                   23839755.8834
                                                                        44.0004
        27.0004
   4057221.95746   3200447.46144
                  24112588.1954                                   24112586.1454
                                                                        40.0004
        26.7504
   -251513.03948   -166786.08245
                  21766689.0554                                   21766683.3594
                                                                        49.7504
        35.7504
   1903553.16447   1502228.33245
                  22787274.6644                                   22787271.9414
                                                                        45.7504
        31.2504
   5993592.33657   4686985.25854
                  24034403.5004                                   24034401.7974
                                                                        43.2504
        24.5004
 09 10  8 23 45  0.0000000  0  9G02G04G12G13G31G29G23G30G10
  -4460002.34848  -3434430.31247
                  20606958.1334                                   20606953.4344
                                                                        52.0004
        43.5004
   1463629.87548   1161392.21946
                  20715465.3984                                   20715462.8244
                                                                        53.0004
        41.7504
   5314874.55547   4144255.28144
                  24026391.8594                                   24026388.6564
                                                                        44.7504
        29.5004
  -6062929.03548  -4675514.63745
                  21679932.7584                                   21679929.0164
                                                                        49.7504
        35.2504
   3057919.28547   2387133.51644
                  23830312.6094                                   23830307.7774
                                                                        42.7504
        24.5004
   3862467.55146   3048690.81644
                  24075527.7274                                   24075525.4884
                                                                        40.5004
        26.5004
   -324084.96548   -223335.62545
                  21752879.2194                                   21752873.4184
                                                                        48.7504
        35.0004
   1861415.86347   1469394.07445
                  22779255.9924                                   22779253.5044
                                                                        46.0004
        31.7504
   5780154.12547   4520669.85544
                  23993787.6174                                   23993785.5864
                                                                        43.0004
        26.7504
 09 10  8 23 45 30.0000000  0  9G02G04G12G13G31G29G23G30G10
  -4595153.35548  -3539742.75447
                  20581239.6724                                   20581234.8714
                                                                        52.5004
        42.7504
   1413327.96948   1122195.91846
                  20705893.1024                                   20705890.2974
                                                                        53.5004
        41.7504
   5312275.46547   4142229.98844
                  24025898.0234                                   24025894.3094
                                                                        45.5004
        28.5004
  -6219479.76648  -4797502.18445
                  21650142.3364                                   21650138.6764
                                                                        49.7504
        35.0004
   3008777.64547   2348841.32044
                  23820960.5784                                   23820956.9844
                                                                        43.0004
        25.0004
   3667945.23446   2897115.02744
                  24038510.6024                                   24038509.3164
                                                                        40.5004
        26.7504
   -396060.11348   -279420.12145
                  21739182.6564                                   21739177.1054
                                                                        48.7504
        35.0004
   1819841.69547   1436998.61745
                  22771344.9614                                   22771342.6484
                                                                        46.0004
        31.7504
   5566832.87547   4354445.58644
                  23953195.0084                                   23953192.2154
                                                                        44.2504
        27.5004
 09 10  8 23 46  0.0000000  0  9G02G04G12G13G31G29G23G30G10
  -3154377.53148  -2417060.22747
                  20855410.5234                                   20855405.2114
                                                                        51.2504
        43.2504
   2938946.02748   2310989.19547
                  20996208.5084                                   20996205.6454
                                                                        53.5004
        42.0004
   6885384.74247   5368029.48844
                  24325249.4534                                   24325246.8094
                                                                        45.2504
        28.0004
  -4800055.52048  -3691457.29345
                  21920249.7664                                   21920246.0044
                                                                        49.7504
        35.0004
   4535572.50847   3538551.59044
                  24111500.0004                                   24111496.3364
                                                                        42.2504
        26.2504
   5049090.33246   3973332.02744
                  24301335.0704                                   24301332.1524
                                                                        41.2504
        25.7504
   1107988.84048    892566.10245
                  22025393.7504                                   22025387.9264
                                                                        48.7504
        35.5004
   3354256.41847   2632646.45345
                  23063334.4454                                   23063331.5704
                                                                        47.0004
        30.0004
   6929064.21547   5415924.52044
                  24212418.5554                                   24212415.5204
                                                                        44.0004
        25.2504
 09 10  8 23 46 30.0000000  0  9G02G04G12G13G31G29G23G30G10
  -3288519.83648  -2521586.64147
                  20829883.7894                                   20829878.6254
                                                                        51.7504
        43.2504
   2889641.50048   2272570.09447
                  20986826.2274                                   20986823.3284
                                                                        53.0004
        42.0004
   6883361.63347   5366453.07844
                  24324865.4304                                   24324861.4734
                                                                        43.7504
        27.7504
  -4955502.54748  -3812584.84445
                  21890669.5864                                   21890665.4774
                                                                        49.5004
        35.0004
   4487460.50847   3501061.73044
                  24102345.1334                                   24102340.6764
                                                                        43.0004
        25.7504
   4855054.67247   3822135.43044
                  24264410.8674                                   24264408.6484
                                                                        42.5004
        26.0004
   1037218.12548    837420.11745
                  22011926.0784                                   22011920.8364
                                                                        49.0004
        35.5004
   3313817.21147   2601135.39844
                  23055639.4454                                   23055636.0904
                                                                        46.5004
        29.5004
   6715998.31347   5249899.17644
                  24171873.3754                                   24171870.2074
                                                                        43.2504
        25.7504
 09 10  8 23 47  0.0000000  0  9G02G04G12G13G31G29G23G30G10
  -3422152.34848  -2625715.83647
                  20804454.1804                                   20804448.8634
                                                                        52.5004
        43.2504
   2840837.45348   2234540.98446
                  20977539.3054                                   20977536.5554
                                                                        53.2504
        41.7504
   6881625.05547   5365099.97344
                  24324534.4534                                   24324531.2894
                                                                        43.0004
        27.0004
  -5110390.95748  -3933277.11745
                  21861194.8054                                   21861191.2664
                                                                        49.5004
        35.2504
   4439864.48847   3463973.91444
                  24093287.5164                                   24093284.1884
                                                                        43.0004
        25.5004
   4661269.47747   3671133.98844
                  24227534.4384                                   24227531.9184
                                                                        43.0004
        27.0004
    967052.18048    782745.37545
                  21998574.4844                                   21998568.3984
                                                                        48.7504
        34.7504
   3273945.45747   2570066.50845
                  23048052.0864                                   23048048.7504
                                                                        45.7504
        30.0004
   6503066.60247   5083978.40644
                  24131352.8524                                   24131351.0394
                                                                        42.2504
        26.7504
 09 10  8 23 47 30.0000000  0  9G02G04G12G13G31G29G23G30G10
  -3555269.62948  -2729443.53947
                  20779122.8524                                   20779117.4964
                                                                        52.0004
        43.2504
   2792536.89848   2196904.20746
                  20968347.9144                                   20968345.3484
                                                                        52.7504
        41.5004
   6880176.72347   5363971.40244
                  24324258.6804                                   24324256.0904
                                                                        42.7504
        28.7504
  -5264714.44148  -4053529.19946
                  21831827.9384                                   21831824.3874
                                                                        49.5004
        36.5004
   4392786.66847   3427289.90244
                  24084329.7344                                   24084324.9614
                                                                        43.2504
        27.5004
   4467741.68847   3520333.14144
                  24190707.1564                                   24190704.8554
                                                                        42.7504
        27.7504
    897493.86348    728544.11345
                  21985337.4064                                   21985332.1094
                                                                        48.2504
        35.5004
   3234643.02347   2539441.25044
                  23040572.7194                                   23040569.7774
                                                                        46.7504
        29.7504
   6290275.69146   4918167.41044
                  24090860.6254                                   24090858.4454
                                                                        41.7504
        27.0004
 09 10  8 23 48  0.0000000  0  9G02G04G12G13G31G29G23G30G10
  -3687868.22748  -2832767.12147
                  20753890.1024                                   20753885.2704
                                                                        52.0004
        43.2504
   2744740.43448   2159660.23846
                  20959252.6174                                   20959249.9024
                                                                        52.2504
        41.7504
   6879016.01647   5363067.03144
                  24324037.9304                                   24324035.2544
                                                                        44.5004
        29.5004
  -5418469.01248  -4173337.96946
                  21802569.6724                                   21802565.9534
                                                                        49.7504
        36.0004
   4346227.56646   3391010.11344
                  24075469.5864                                   24075465.5394
                                                                        41.2504
        28.2504
   4274475.79747   3369736.34444
                  24153930.1254                                   24153927.7664
                                                                        42.0004
        26.7504
    828544.37148    674817.25445
                  21972216.8984                                   21972211.0944
                                                                        49.2504
        34.7504
   3195910.16047   2509259.83644
                  23033202.2664                                   23033199.2464
                                                                        45.5004
        28.7504
   6077629.60546   4752469.21144
                  24050395.4384                                   24050392.8524
                                                                        41.7504
        27.0004
 09 10  8 23 48 30.0000000  0  9G02G04G12G13G31G29G23G30G10
  -3819945.40648  -2935684.35547
                  20728756.7814                                   20728751.4924
                                                                        52.5004
        43.5004
   2697447.90648   2122808.92647
                  20950253.1334                                   20950250.0164
                                                                        53.0004
        42.0004
   6878141.20747   5362385.44145
                  24323872.1564                                   24323868.8054
                                                                        45.0004
        31.5004
  -5571651.23848  -4292700.69145
                  21773419.7194                                   21773416.1684
                                                                        48.7504
        35.0004
   4300186.52346   3355133.96144
                  24066707.8444                                   24066704.5274
                                                                        41.2504
        28.5004
   4081475.73047   3219346.68844
                  24117203.3054                                   24117201.1564
                                                                        43.0004
        28.5004
    760204.40648    621565.35245
                  21959212.8834                                   21959206.5474
                                                                        49.0004
        34.7504
   3157745.45747   2479521.10944
                  23025939.3914                                   23025936.4654
                                                                        44.0004
        29.0004
   5865131.80947   4586886.54344
                  24009958.0164                                   24009956.3634
                                                                        42.5004
        28.5004
 09 10  8 23 49  0.0000000  0  9G02G04G12G13G31G29G23G30G10
  -3951497.51648  -3038192.47747
                  20703723.1884                                   20703717.8754
                                                                        52.2504
        43.0004
   2650660.12948   2086350.91446
                  20941349.7274                                   20941346.9804
                                                                        53.2504
        41.7504
   6877551.67647   5361926.14544
                  24323759.3834                                   24323756.5164
                                                                        43.0004
        29.2504
  -5724256.89848  -4411614.16045
                  21744379.8204                                   21744376.2584
                                                                        49.7504
        35.5004
   4254663.91847   3319661.81344
                  24058045.1804                                   24058042.0004
                                                                        43.2504
        28.0004
   3888746.07846   3069167.75844
                  24080527.9694                                   24080526.0084
                                                                        41.0004
        28.2504
    692474.41848    568788.76245
                  21946323.8284                                   21946317.9024
                                                                        49.5004
        34.5004
   3120148.96147   2450225.12544
                  23018785.1024                                   23018781.8134
                                                                        45.7504
        28.0004
   5652786.86347   4421423.02044
                  23969550.9064                                   23969548.3404
                                                                        44.7504
        29.2504
 09 10  8 23 49 30.0000000  0  9G02G04G12G13G31G29G23G30G10
  -4082523.98848  -3140291.02347
                  20678790.0004                                   20678784.4924
                                                                        52.2504
        43.0004
   2604375.78148   2050285.22747
                  20932541.8524                                   20932539.4454
                                                                        53.5004
        42.0004
   6877243.00047   5361685.58644
                  24323700.8984                                   24323697.3324
                                                                        43.5004
        27.0004
  -5876284.32448  -4530077.09445
                  21715450.0004                                   21715446.5044
                                                                        50.2504
        35.5004
   4209657.48447   3284591.87144
                  24049480.8674                                   24049477.5164
                                                                        43.5004
        28.5004
   3696288.31646   2919200.72744
                  24043904.4694                                   24043902.6644
                                                                        40.5004
        29.0004
    625353.19948    516486.51245
                  21933550.9844                                   21933545.3324
                                                                        49.5004
        34.7504
   3083117.36347   2421369.34844
                  23011738.1174                                   23011735.5004
                                                                        44.7504
        29.2504
   5440596.18847   4256079.62944
                  23929171.6724                                   23929169.3834
                                                                        44.0004
        26.5004
 09 10  8 23 50  0.0000000  0  9G02G04G12G13G31G29G23G30G10
  -4213018.28548  -3241974.87947
                  20653957.5864                                   20653952.3794
                                                                        52.5004
        43.0004
   2558598.40248   2014614.55546
                  20923830.9064                                   20923827.9534
                                                                        53.0004
        41.5004
   6877218.61347   5361666.59044
                  24323695.7504                                   24323692.3324
                                                                        42.5004
        27.7504
  -6027726.25448  -4648083.75446
                  21686631.6954                                   21686627.3834
                                                                        50.0004
        36.0004
   4165170.96947   3249927.03944
                  24041015.6334                                   24041011.8634
                                                                        43.5004
        28.7504
   3504111.14546   2769452.33244
                  24007334.5864                                   24007331.6454
                                                                        41.2504
        27.5004
    558845.00448    464661.93845
                  21920894.6334                                   21920888.9844
                                                                        49.2504
        34.5004
   3046654.06647   2392956.38344
                  23004799.0004                                   23004796.8364
                                                                        45.5004
        29.2504
   5228567.08647   4090862.07444
                  23888824.0234                                   23888821.2894
                                                                        43.7504
        26.5004
 09 10  8 23 50 30.0000000  0  9G02G04G12G13G31G29G23G30G10
  -4342980.10248  -3343243.80947
                  20629226.4454                                   20629220.9104
                                                                        52.5004
        43.5004
   2513325.34448   1979336.84446
                  20915215.8984                                   20915212.8874
                                                                        53.0004
        41.5004
   6877474.28147   5361865.77744
                  24323744.1954                                   24323741.0554
                                                                        42.7504
        27.0004
  -6178582.07048  -4765633.71945
                  21657924.5864                                   21657920.5634
                                                                        50.5004
        35.5004
   4121201.18447   3215664.87944
                  24032648.2344                                   24032644.6414
                                                                        43.7504
        28.2504
   3312215.70346   2619923.43444
                  23970817.9224                                   23970815.5944
                                                                        41.5004
        27.7504
    492947.87148    413313.49645
                  21908354.8594                                   21908349.2384
                                                                        49.7504
        34.2504
   3010755.91447   2364983.78545
                  22997968.2894                                   22997965.8524
                                                                        45.0004
        30.0004
   5016701.75447   3925772.41444
                  23848507.5554                                   23848504.3524
                                                                        42.7504
        26.5004
 09 10  8 23 51  0.0000000  0  9G02G04G12G13G31G29G23G30G10
  -4472412.76248  -3444100.40647
                  20604596.3834                                   20604591.1094
                                                                        52.0004
        43.5004
   2468551.09448   1944447.84446
                  20906695.5314                                   20906692.4574
                                                                        53.0004
        41.5004
   6878002.16047   5362277.10544
                  24323845.1484                                   24323842.5044
                                                                        43.5004
        29.0004
  -6328854.13348  -4882728.81646
                  21629328.9534                                   21629324.9494
                                                                        49.7504
        36.0004
   4077741.66847   3181800.32844
                  24024378.4614                                   24024374.8204
                                                                        42.7504
        27.7504
   3120599.86346   2470612.43844
                  23934354.5474                                   23934351.6914
                                                                        40.5004
        26.2504
    427656.06348    362436.75045
                  21895930.0004                                   21895924.6684
                                                                        48.5004
        34.5004
   2975415.21547   2337445.57045
                  22991243.4384                                   22991240.7934
                                                                        45.5004
        30.0004
   4804996.54746   3760807.43844
                  23808219.8524                                   23808218.3364
                                                                        40.0004
        25.7504
 09 10  8 23 51 30.0000000  0  9G02G04G12G13G31G29G23G30G10
  -4601313.29348  -3544542.37947
                  20580067.3754                                   20580062.0784
                                                                        52.7504
        43.2504
   2424275.97748   1909947.77346
                  20898270.2894                                   20898267.0824
                                                                        52.7504
        41.2504
   6878801.61747   5362900.09044
                  24323997.5864                                   24323994.1134
                                                                        44.7504
        27.2504
  -6478538.85248  -4999366.23845
                  21600844.5474                                   21600841.0044
                                                                        49.0004
        35.7504
   4034792.64847   3148333.54344
                  24016205.1564                                   24016201.7234
                                                                        42.2504
        28.2504
   2929268.15246   2321522.79344
                  23897945.3834                                   23897942.8524
                                                                        40.7504
        27.0004
    362970.05947    312032.05945
                  21883620.5394                                   21883615.0124
                                                                        47.2504
        34.2504
   2940631.83647   2310341.62945
                  22984624.6334                                   22984622.2154
                                                                        45.7504
        30.2504
   4593456.10947   3595970.88344
                  23767966.4454                                   23767964.1524
                                                                        42.2504
        29.2504
 09 10  8 23 52  0.0000000  0  9G02G04G12G13G31G29G23G30G10
  -4729680.02748  -3644568.39547
                  20555639.9304                                   20555634.7464
                                                                        52.7504
        43.5004
   2380498.93848   1875835.81646
                  20889939.6564                                   20889936.8984
                                                                        52.5004
        41.7504
   6879869.61347   5363732.30544
                  24324200.3134                                   24324196.9104
                                                                        44.5004
        27.7504
  -6627634.09848  -5115544.33246
                  21572473.2344                                   21572469.1644
                                                                        50.2504
        36.2504
   3992352.28147   3115263.13344
                  24008129.5394                                   24008125.6884
                                                                        42.2504
        27.2504
   2738222.93046   2172656.45744
                  23861590.2894                                   23861588.3594
                                                                        40.7504
        27.5004
    298889.23848    262098.94945
                  21871426.5784                                   21871421.1134
                                                                        48.7504
        34.5004
   2906403.44547   2283670.15645
                  22978111.0234                                   22978108.1484
                                                                        46.2504
        31.5004
   4382082.77747   3431264.45345
                  23727743.7664                                   23727740.9344
                                                                        44.5004
        30.2504
 09 10  8 23 52 30.0000000  0  9G02G04G12G13G31G29G23G30G10
  -4857511.03148  -3744176.95747
                  20531314.6564                                   20531309.4494
                                                                        52.5004
        43.5004
   2337219.23048   1842111.37946
                  20881703.8524                                   20881700.9304
                                                                        53.2504
        41.0004
   6881204.64847   5364772.62544
                  24324454.1414                                   24324451.4734
                                                                        43.7504
        28.0004
  -6776137.10948  -5231260.94545
                  21544214.0234                                   21544209.9344
                                                                        50.0004
        35.5004
   3950419.30947   3082588.12144
                  24000149.4304                                   24000145.8364
                                                                        43.0004
        26.0004
   2547467.96546   2024016.30544
                  23825291.2894                                   23825288.4024
                                                                        41.0004
        28.0004
    235412.69948    212636.71945
                  21859347.7734                                   21859342.1564
                                                                        49.0004
        34.5004
   2872728.78547   2257430.19145
                  22971702.9384                                   22971700.0864
                                                                        45.7504
        30.2504
   4170879.55547   3266690.61744
                  23687552.2974                                   23687550.1724
                                                                        42.0004
        27.7504
 09 10  8 23 53  0.0000000  0  9G02G04G12G13G31G29G23G30G10
  -4984803.35248  -3843365.77047
                  20507091.5554                                   20507086.4344
                                                                        52.5004
        43.2504
   2294437.30948   1808774.83646
                  20873562.3524                                   20873559.8874
                                                                        53.0004
        41.5004
   6882804.75847   5366019.50444
                  24324758.7344                                   24324755.1254
                                                                        42.5004
        26.2504
  -6924043.88748  -5346512.97345
                  21516068.0164                                   21516064.5744
                                                                        50.0004
        35.5004
   3908993.93046   3050308.58644
                  23992265.8834                                   23992262.4414
                                                                        41.0004
        25.2504
   2357007.61346   1875605.70744
                  23789048.0084                                   23789045.0274
                                                                        41.5004
        29.5004
    172541.82848    163646.43845
                  21847383.6024                                   21847377.6054
                                                                        49.2504
        34.7504
   2839607.03547   2231621.05145
                  22965400.3524                                   22965397.1994
                                                                        46.5004
        30.0004
   3959850.34446   3102252.36744
                  23647394.7974                                   23647391.9804
                                                                        41.7504
        28.0004
 09 10  8 23 53 30.0000000  0  9G02G04G12G13G31G29G23G30G10
  -5111555.95748  -3942134.00447
                  20482971.2504                                   20482966.1454
                                                                        52.0004
        43.2504
   2252151.77348   1775825.06646
                  20865516.1174                                   20865513.2114
                                                                        51.5004
        41.5004
   6884667.46147   5367470.94144
                  24325113.4384                                   24325110.0634
                                                                        42.5004
        26.2504
  -7071353.09048  -5461299.35546
                  21488035.8364                                   21488032.2974
                                                                        49.7504
        36.0004
   3868074.14846   3018423.05144
                  23984479.6804                                   23984475.6484
                                                                        39.5004
        24.0004
   2166844.07446   1727426.40244
                  23752860.4774                                   23752858.2774
                                                                        41.7504
        28.5004
    110275.02348    115126.87145
                  21835534.6254                                   21835528.8164
                                                                        49.0004
        34.5004
   2807035.60247   2206240.71144
                  22959201.4924                                   22959199.1054
                                                                        44.7504
        29.5004
   3748997.38347   2937951.42644
                  23607271.0234                                   23607267.8324
                                                                        42.2504
        25.7504
 09 10  8 23 54  0.0000000  0  9G02G04G12G13G31G29G23G30G10
  -5237766.47748  -4040479.84447
                  20458954.2344                                   20458949.1174
                                                                        52.2504
        43.2504
   2210361.76248   1743261.43446
                  20857563.4454                                   20857560.9344
                                                                        52.0004
        41.5004
   6886790.51647   5369125.28944
                  24325517.8284                                   24325513.9384
                                                                        42.0004
        26.5004
  -7218061.64148  -5575617.64145
                  21460118.2114                                   21460114.6214
                                                                        50.0004
        35.7504
   3827658.83646   2986930.58244
                  23976788.8284                                   23976784.8914
                                                                        40.0004
        26.5004
   1976981.11746   1579481.33244
                  23716730.9304                                   23716728.6884
                                                                        41.5004
        28.0004
     48611.64848     67077.48845
                  21823800.8364                                   21823794.6334
                                                                        49.5004
        34.5004
   2775012.93447   2181287.98444
                  22953107.6954                                   22953104.7894
                                                                        44.5004
        29.0004
   3538323.53147   2773790.01244
                  23567180.9614                                   23567178.1294
                                                                        43.7504
        26.7504
 09 10  8 23 54 30.0000000  0  9G02G04G12G13G31G29G23G30G10
  -3788010.98048  -2910800.22747
                  20734833.5704                                   20734828.3484
                                                                        52.7504
        43.5004
   3744486.15248   2938683.03546
                  21149497.5944                                   21149494.9384
                                                                        52.0004
        41.2504
   8464589.39146   6598578.93044
                  24625762.5084                                   24625759.2234
                                                                        41.2504
        27.5004
  -5788744.37148  -4461863.86746
                  21732107.9614                                   21732104.6954
                                                                        50.0004
        36.0004
   5363165.87947   4183429.57444
                  24268986.5784                                   24268982.6174
                                                                        42.7504
        27.7504
   3362845.69546   2659375.92244
                  23980452.1724                                   23980449.8914
                                                                        41.5004
        29.0004
   1562971.63348   1247098.26645
                  22111973.7734                                   22111968.0594
                                                                        48.7504
        34.0004
   4318955.77047   3384360.33644
                  23246909.8204                                   23246907.9344
                                                                        43.7504
        29.5004
   4903257.28547   3837374.82444
                  23826919.0704                                   23826915.6134
                                                                        42.2504
        26.5004
 09 10  8 23 55  0.0000000  0  9G02G04G12G13G31G29G23G30G10
  -3913134.12948  -3008298.78147
                  20711023.4924                                   20711018.1294
                                                                        52.5004
        43.2504
   3703683.34848   2906888.65246
                  21141732.9614                                   21141730.5434
                                                                        52.0004
        41.5004
   8467224.16446   6600631.97744
                  24626263.6954                                   24626261.0474
                                                                        41.0004
        27.0004
  -5934246.40648  -4575242.04346
                  21704419.8914                                   21704416.2664
                                                                        51.0004
        36.5004
   5323753.80546   4152718.86344
                  24261486.7424                                   24261483.1374
                                                                        41.0004
        27.7504
   3173591.05947   2511904.86344
                  23944438.1804                                   23944435.5274
                                                                        42.0004
        28.2504
   1502512.18848   1199987.00445
                  22100468.5164                                   22100463.3054
                                                                        49.5004
        34.5004
   4288022.96547   3360256.83644
                  23241023.5084                                   23241021.2774
                                                                        44.0004
        27.7504
   4692948.75047   3673498.09044
                  23786898.9774                                   23786896.2154
                                                                        44.5004
        29.0004
 09 10  8 23 55 30.0000000  0  9G02G04G12G13G31G29G23G30G10
  -4037712.35948  -3105372.73047
                  20687316.6954                                   20687311.5274
                                                                        53.0004
        43.2504
   3663371.38348   2875476.73047
                  21134062.0234                                   21134059.4064
                                                                        52.5004
        42.0004
   8470109.77346   6602880.46944
                  24626813.2194                                   24626810.1484
                                                                        41.2504
        29.0004
  -6079143.06648  -4688148.50445
                  21676847.0234                                   21676843.2074
                                                                        51.0004
        35.7504
   5284839.35546   4122395.92244
                  24254081.2114                                   24254077.8324
                                                                        41.5004
        27.0004
   2984643.55947   2364673.10944
                  23908482.6564                                   23908479.5514
                                                                        43.0004
        28.7504
   1442652.27048   1153342.91445
                  22089077.6484                                   22089072.2034
                                                                        49.2504
        34.2504
   4257630.65247   3336574.50444
                  23235240.2734                                   23235237.6994
                                                                        44.5004
        28.0004
   4482825.30147   3509765.55545
                  23746913.8834                                   23746910.8834
                                                                        44.5004
        31.0004
 09 10  8 23 56  0.0000000  0  9G02G04G12G13G31G29G23G30G10
  -4161743.55548  -3202020.41047
                  20663714.6094                                   20663709.2114
                                                                        52.7504
        43.5004
   3623549.84448   2844446.97346
                  21126484.2344                                   21126481.6884
                                                                        52.5004
        41.0004
   8473244.88347   6605323.36744
                  24627409.1174                                   24627406.7934
                                                                        42.0004
        29.0004
  -6223431.71548  -4800581.19946
                  21649390.0004                                   21649386.1334
                                                                        50.5004
        36.7504
   5246422.30147   4092460.55144
                  24246770.8984                                   24246766.8164
                                                                        43.7504
        26.2504
   2796007.43447   2217683.96944
                  23872586.0634                                   23872583.6454
                                                                        43.2504
        29.2504
   1383391.30148   1107165.54345
                  22077800.5394                                   22077795.0514
                                                                        49.2504
        34.5004
   4227777.59047   3313312.38744
                  23229559.4384                                   23229556.5744
                                                                        43.5004
        28.5004
   4272890.53547   3346180.09444
                  23706964.1414                                   23706961.8914
                                                                        44.0004
        29.5004
 09 10  8 23 56 30.0000000  0  8G02G04G13G31G29G23G30G10
  -4285223.53948  -3298238.57847
                  20640217.4454                                   20640211.5204
                                                                        52.5004
        43.5004
   3584220.31648   2813800.59446
                  21119000.1024                                   21118997.3444
                                                                        53.2504
        41.5004
  -6367107.57448  -4912536.42246
                  21622049.2424                                   21622045.5084
                                                                        50.7504
        36.5004
   5208503.09047   4062913.10944
                  24239555.0004                                   24239550.9024
                                                                        43.0004
        24.5004
   2607687.63347   2070941.34844
                  23836750.1024                                   23836747.7074
                                                                        42.5004
        28.0004
   1324731.26648   1061456.44545
                  22066638.3674                                   22066632.4384
                                                                        49.0004
        34.5004
   4198464.18447   3290470.77344
                  23223981.1954                                   23223979.0704
                                                                        44.0004
        28.0004
   4063149.91047   3182745.88744
                  23667051.7734                                   23667048.8524
                                                                        42.5004
        27.5004
 09 10  8 23 57  0.0000000  0  8G02G04G13G31G29G23G30G10
  -4408154.02748  -3394028.56647
                  20616824.2664                                   20616818.9264
                                                                        52.2504
        43.5004
   3545378.67248   2783534.39546
                  21111608.8364                                   21111605.6334
                                                                        53.0004
        41.2504
  -6510171.45748  -5024014.79346
                  21594825.1804                                   21594821.2114
                                                                        50.2504
        36.2504
   5171077.11747   4033750.04343
                  24232433.0704                                   24232428.4144
                                                                        42.5004
        22.5004
   2419683.94547   1924445.04344
                  23800973.8204                                   23800971.3244
                                                                        43.0004
        26.7504
   1266668.17648   1016212.49245
                  22055588.6414                                   22055582.8594
                                                                        48.0004
        34.5004
   4169684.77747   3268045.27744
                  23218504.6414                                   23218502.3954
                                                                        44.2504
        27.7504
   3853602.43846   3019462.13744
                  23627175.8754                                   23627173.0594
                                                                        41.5004
        28.0004
 09 10  8 23 57 30.0000000  0  8G02G04G13G31G29G23G30G10
  -4530522.28548  -3489380.46147
                  20593538.2424                                   20593533.2664
                                                                        52.0004
        43.5004
   3507034.74248   2753656.00046
                  21104312.1804                                   21104309.4804
                                                                        52.7504
        41.0004
  -6652610.23048  -5135006.06646
                  21567719.9844                                   21567716.1214
                                                                        50.7504
        36.5004
   5134154.13347   4004978.89143
                  24225406.8054                                   24225403.0314
                                                                        43.2504
        23.7504
   2232011.10247   1778206.51244
                  23765261.5084                                   23765258.5164
                                                                        45.2504
        28.7504
   1209211.86348    971441.37545
                  22044655.2274                                   22044649.5864
                                                                        49.2504
        34.5004
   4141449.03147   3246043.41444
                  23213131.8054                                   23213129.0904
                                                                        44.7504
        29.0004
   3644262.33246   2856340.02044
                  23587340.1254                                   23587337.4224
                                                                        41.7504
        28.5004
 09 10  8 23 58  0.0000000  0  8G02G04G13G31G29G23G30G10
  -4652317.35948  -3584285.71947
                  20570361.2974                                   20570356.1294
                                                                        52.5004
        43.2504
   3469197.07048   2724172.09846
                  21097111.8674                                   21097109.0514
                                                                        53.2504
        41.2504
  -6794412.28948  -5245501.19946
                  21540735.9224                                   21540732.2274
                                                                        51.0004
        36.2504
   5097742.00047   3976605.80144
                  24218477.9924                                   24218473.9184
                                                                        44.0004
        27.2504
   2044681.00047   1632235.03145
                  23729613.6644                                   23729611.0984
                                                                        47.0004
        31.0004
   1152371.25048    927150.00845
                  22033838.9144                                   22033833.3554
                                                                        49.5004
        34.2504
   4113763.57847   3224470.34845
                  23207863.8674                                   23207861.5554
                                                                        46.0004
        30.0004
   3435141.45347   2693388.62144
                  23547546.0864                                   23547542.5204
                                                                        44.2504
        29.0004
 09 10  8 23 58 30.0000000  0  8G02G04G13G31G29G23G30G10
  -4773543.82848  -3678747.90647
                  20547292.8364                                   20547288.0474
                                                                        52.5004
        43.5004
   3431858.49248   2695077.09046
                  21090006.7274                                   21090004.2034
                                                                        53.0004
        41.0004
  -6935581.21948  -5355502.96546
                  21513872.6724                                   21513868.8364
                                                                        50.7504
        36.5004
   5061832.84847   3948624.65644
                  24211644.9534                                   24211640.3404
                                                                        43.5004
        25.7504
   1857690.64547   1486528.30144
                  23694030.8054                                   23694027.6024
                                                                        46.0004
        29.7504
   1096139.60248    883333.17645
                  22023138.2344                                   22023132.5904
                                                                        49.5004
        34.2504
   4086620.35947   3203319.78945
                  23202698.2114                                   23202696.0234
                                                                        45.5004
        30.2504
   3226236.15647   2530605.19544
                  23507792.3524                                   23507789.5944
                                                                        43.5004
        29.2504
 09 10  8 23 59  0.0000000  0  9G02G04G05G13G31G29G23G30G10
  -4894207.36748  -3772771.43447
                  20524331.6024                                   20524326.1954
                                                                        52.7504
        43.7504
   3395010.10248   2666364.05946
                  21082994.5554                                   21082991.5234
                                                                        53.2504
        41.2504
   9150204.99257   7174767.08254
                  24303151.8594                                   24303149.7234
                                                                        42.0004
        26.5004
  -7076123.47748  -5465016.43746
                  21487128.0864                                   21487124.3484
                                                                        51.0004
        36.5004
   5026417.49247   3921028.28544
                  24204905.2734                                   24204901.5044
                                                                        43.2504
        28.0004
   1671036.05547   1341083.21544
                  23658511.3754                                   23658508.1024
                                                                        45.0004
        28.5004
   1040507.38348    839983.41845
                  22012551.7664                                   22012545.9494
                                                                        49.5004
        33.5004
   4060010.29347   3182584.68444
                  23197635.2344                                   23197632.3954
                                                                        45.0004
        29.7504
   3017542.13347   2367986.44144
                  23468078.8594                                   23468076.5904
                                                                        42.5004
        28.5004
 09 10  8 23 59 30.0000000  0  9G02G04G05G13G31G29G23G30G10
  -5014318.54748  -3866364.55147
                  20501474.9224                                   20501469.8364
                                                                        53.0004
        43.5004
   3358639.74248   2638023.52346
                  21076073.4454                                   21076070.2114
                                                                        53.2504
        41.0004
   8940400.59447   7011283.22744
                  24263227.8284                                   24263224.7624
                                                                        43.5004
        27.7504
  -7216047.35248  -5574048.03146
                  21460501.3284                                   21460497.7814
                                                                        50.7504
        36.7504
   4991482.67647   3893806.32444
                  24198257.5474                                   24198254.2114
                                                                        42.5004
        28.5004
   1484707.71547   1195892.33644
                  23623053.5864                                   23623051.0984
                                                                        44.2504
        28.5004
    985462.89848    797091.63345
                  22002077.2274                                   22002071.6094
                                                                        49.5004
        34.2504
   4033918.68847   3162253.56344
                  23192669.5704                                   23192667.0634
                                                                        44.5004
        29.2504
   2809049.78147   2205524.81644
                  23428403.9384                                   23428402.4184
                                                                        42.5004
        29.5004
