     2.11           OBSERVATION DATA    G (GPS)             RINEX VERSION / TYPE
teqc  2019Feb25                         20221121 12:28:22UTCPGM / RUN BY / DATE
OSX ker:10.11.6|Core i5|gcc 4.3 -m64|OSX ker:10.10+|=+      COMMENT
BIT 2 OF LLI FLAGS DATA COLLECTED UNDER A/S CONDITION       COMMENT
04712880                                                    MARKER NAME
2880                                                        MARKER NUMBER
-Unknown-           -Unknown-                               OBSERVER / AGENCY
0220400471          TRIMBLE R7          2.30                REC # / TYPE / VERS
-Unknown-           TRM39105.00     NONE                    ANT # / TYPE
  1449460.0386 -1709241.5186  5952440.5158                  APPROX POSITION XYZ
        0.0000        0.0000        0.0000                  ANTENNA: DELTA H/E/N
     1     1                                                WAVELENGTH FACT L1/2
    20    L1    L2    L5    L6    L7    L8    C1    P1    C2# / TYPES OF OBSERV
          P2    C5    C6    C7    C8    S1    S2    S5    S6# / TYPES OF OBSERV
          S7    S8                                          # / TYPES OF OBSERV
    30.0000                                                 INTERVAL
    15                                                      LEAP SECONDS
Forced Modulo Decimation to 30 seconds                      COMMENT
 SNR is mapped to RINEX snr flag value [0-9]                COMMENT
  L1 & L2: min(max(int(snr_dBHz/6), 0), 9)                  COMMENT
teqc edited: Beidou # 1 - 37 excluded                       COMMENT
  2009    10    15     0     0    0.0000000     GPS         TIME OF FIRST OBS
                                                            END OF HEADER
 09 10 15  0  0  0.0000000  0  9G02G04G05G13G29G23G10G30G25
 -11422807.34848  -8859691.74647
                  20424093.4694                                   20424088.2154
                                                                        52.2504
        43.2504
  -2988506.17648  -2313524.05146
                  21794043.6174                                   21794040.8204
                                                                        50.2504
        38.0004
 -10495396.61347  -8165612.18445
                  23204691.6644                                   23204687.5044
                                                                        46.5004
        33.7504
 -13356423.55948 -10361994.68446
                  21212847.0474                                   21212843.2894
                                                                        49.5004
        37.2504
 -16307556.20747 -12665876.85545
                  22851880.4614                                   22851878.0664
                                                                        44.0004
        32.5004
  -4998772.62547  -3870345.43745
                  22527987.7194                                   22527982.3984
                                                                        46.2504
        31.5004
 -16665577.07847 -12974052.72745
                  22364305.6254                                   22364302.2034
                                                                        47.2504
        34.5004
  -2068524.46146  -1596487.27743
                  23988715.6954                                   23988714.1844
                                                                        40.0004
        22.5004
  -4018764.04346  -3095102.83243
                  23824024.5864                                   23824022.1684
                                                                        40.5004
        23.0004
 09 10 15  0  0 30.0000000  0  9G02G04G05G13G29G23G10G30G25
 -11502922.74648  -8922119.35547
                  20408848.2894                                   20408842.9844
                                                                        51.7504
        43.2504
  -2991088.27048  -2315536.07446
                  21793552.4844                                   21793549.8284
                                                                        50.0004
        38.0004
 -10685096.28947  -8313430.08645
                  23168592.5944                                   23168589.1564
                                                                        47.5004
        33.5004
 -13452038.30948 -10436499.75046
                  21194652.1174                                   21194648.2934
                                                                        49.2504
        36.5004
 -16462534.77047 -12786639.15245
                  22822388.5164                                   22822386.1764
                                                                        44.0004
        32.5004
  -5015598.92247  -3883456.80545
                  22524786.1644                                   22524780.4264
                                                                        46.7504
        30.7504
 -16848713.15247 -13116756.16845
                  22329455.9144                                   22329453.0004
                                                                        46.2504
        34.5004
  -2060864.28146  -1590518.29744
                  23990174.4144                                   23990171.8524
                                                                        40.2504
        25.2504
  -4185475.89546  -3225008.08644
                  23792300.2814                                   23792297.8014
                                                                        40.0004
        24.2504
 09 10 15  0  1  0.0000000  0  9G02G04G05G13G29G23G10G30G25
 -11582426.14548  -8984069.98847
                  20393718.7664                                   20393713.7664
                                                                        51.7504
        43.5004
  -2993259.07048  -2317227.61746
                  21793139.7814                                   21793136.3834
                                                                        49.0004
        38.0004
 -10874540.31247  -8461048.76245
                  23132542.2734                                   23132539.1214
                                                                        46.5004
        33.5004
 -13546956.42248 -10510462.05946
                  21176590.1804                                   21176586.2424
                                                                        48.7504
        36.7504
 -16617029.89547 -12907024.80145
                  22792989.6024                                   22792986.8914
                                                                        44.5004
        33.0004
  -5031905.34047  -3896163.06245
                  22521683.0394                                   22521677.7074
                                                                        46.0004
        31.5004
 -17031495.87547 -13259184.23845
                  22294673.2734                                   22294670.4384
                                                                        45.7504
        34.7504
  -2052811.04746  -1584243.05143
                  23991707.0944                                   23991704.5664
                                                                        41.5004
        22.7504
  -4351812.83246  -3354621.25444
                  23760647.3594                                   23760644.9024
                                                                        41.0004
        25.2504
 09 10 15  0  1 30.0000000  0  9G02G04G05G13G29G23G10G30G25
 -11661314.60948  -9045541.50047
                  20378706.9144                                   20378701.6844
                                                                        52.0004
        43.2504
  -2995017.93048  -2318598.16846
                  21792805.0944                                   21792801.5704
                                                                        48.7504
        37.2504
 -11063724.00847  -8608464.56645
                  23096541.7034                                   23096538.7664
                                                                        46.5004
        33.2504
 -13641174.63348 -10583878.82846
                  21158660.9454                                   21158657.1454
                                                                        48.5004
        37.2504
 -16771036.81647 -13027030.21945
                  22763682.8984                                   22763680.3554
                                                                        45.0004
        32.5004
  -5047691.61347  -3908464.06245
                  22518678.8594                                   22518672.7584
                                                                        47.0004
        31.5004
 -17213920.03947 -13401332.93045
                  22259959.4614                                   22259956.6844
                                                                        47.0004
        35.5004
  -2044365.14547  -1577661.79743
                  23993314.0234                                   23993311.4064
                                                                        43.5004
        23.0004
  -4517769.53146  -3483938.09844
                  23729067.2344                                   23729064.4804
                                                                        41.5004
        25.0004
 09 10 15  0  2  0.0000000  0  9G02G04G05G13G29G23G10G30G25
 -11739588.16048  -9106533.75447
                  20363811.7274                                   20363806.5824
                                                                        51.5004
        43.0004
  -2996367.10248  -2319649.50046
                  21792547.9064                                   21792545.2894
                                                                        50.5004
        38.0004
 -11252645.57447  -8755676.11345
                  23060590.8364                                   23060588.0274
                                                                        47.0004
        33.5004
 -13734693.49648 -10656750.68746
                  21140864.8134                                   21140861.6884
                                                                        49.5004
        37.5004
 -16924553.30947 -13146653.41845
                  22734469.4774                                   22734467.2154
                                                                        44.5004
        33.2504
  -5062960.00447  -3920361.52045
                  22515773.4534                                   22515768.2304
                                                                        46.2504
        31.5004
 -17395984.02347 -13543200.96545
                  22225313.6564                                   22225310.5744
                                                                        47.5004
        35.7504
  -2035530.29347  -1570777.49643
                  23994995.5474                                   23994992.5944
                                                                        43.2504
        22.5004
  -4683343.61746  -3612956.80943
                  23697559.4844                                   23697556.6724
                                                                        41.0004
        22.7504
 09 10 15  0  2 30.0000000  0  9G02G04G05G13G29G23G10G30G25
 -11817246.98848  -9167047.04747
                  20349033.5864                                   20349028.5824
                                                                        51.7504
        42.7504
  -2997308.63348  -2320383.19546
                  21792368.8754                                   21792366.1024
                                                                        49.7504
        37.2504
 -11441302.91848  -8902681.81245
                  23024691.1724                                   23024687.3284
                                                                        48.5004
        34.0004
 -13827512.64148 -10729077.29346
                  21123202.0784                                   21123198.4774
                                                                        49.2504
        37.2504
 -17077577.19147 -13265892.78545
                  22705349.9614                                   22705347.3134
                                                                        44.5004
        33.5004
  -5077713.00447  -3931857.36745
                  22512965.8204                                   22512960.8874
                                                                        46.2504
        31.0004
 -17577685.83247 -13684786.77745
                  22190736.8754                                   22190733.7544
                                                                        47.2504
        35.0004
  -2026309.59047  -1563592.52043
                  23996749.8674                                   23996746.9694
                                                                        42.7504
        22.2504
  -4848532.62146  -3741675.50444
                  23666125.1414                                   23666121.7154
                                                                        41.5004
        24.5004
 09 10 15  0  3  0.0000000  0  9G02G04G05G13G29G23G10G30G25
 -11894292.03548  -9227082.16847
                  20334372.4614                                   20334367.2384
                                                                        52.0004
        42.7504
  -2997845.32448  -2320801.43746
                  21792266.5474                                   21792264.1524
                                                                        50.0004
        37.0004
 -11629695.36348  -9049481.10945
                  22988841.4534                                   22988837.0904
                                                                        48.2504
        34.5004
 -13919632.88348 -10800859.28946
                  21105672.0474                                   21105668.5744
                                                                        50.2504
        37.2504
 -17230107.03947 -13384747.18045
                  22676324.6254                                   22676322.0864
                                                                        44.7504
        33.5004
  -5091953.69147  -3942954.02745
                  22510255.8524                                   22510250.6294
                                                                        45.2504
        30.0004
 -17759024.43447 -13826089.57845
                  22156229.0314                                   22156225.9694
                                                                        47.0004
        35.2504
  -2016707.57047  -1556110.43443
                  23998577.4694                                   23998574.4064
                                                                        42.0004
        22.0004
  -5013335.03147  -3870093.18043
                  23634764.1414                                   23634760.8054
                                                                        42.5004
        23.0004
 09 10 15  0  3 30.0000000  0  9G02G04G05G13G29G23G10G30G25
 -11970721.93048  -9286637.87547
                  20319828.5164                                   20319822.9454
                                                                        51.5004
        42.7504
  -2997977.68048  -2320904.55946
                  21792241.7814                                   21792238.9454
                                                                        49.5004
        36.5004
 -11817819.85547  -9196071.60545
                  22953042.2194                                   22953038.6214
                                                                        47.5004
        33.5004
 -14011052.93448 -10872095.72346
                  21088275.4454                                   21088271.9454
                                                                        49.5004
        36.5004
 -17382139.72347 -13503214.14545
                  22647393.1564                                   22647391.1454
                                                                        44.2504
        33.2504
  -5105683.25047  -3953652.42644
                  22507643.0234                                   22507638.0274
                                                                        45.7504
        29.5004
 -17939996.19947 -13967106.52745
                  22121791.3594                                   22121788.3204
                                                                        47.2504
        35.0004
  -2006725.93046  -1548332.57443
                  24000476.4924                                   24000473.8754
                                                                        41.0004
        22.5004
  -5177746.46546  -3998206.07443
                  23603478.0394                                   23603474.8714
                                                                        40.7504
        23.0004
 09 10 15  0  4  0.0000000  0  9G02G04G05G13G29G23G10G30G25
 -12046537.32048  -9345714.76647
                  20305401.0474                                   20305395.7814
                                                                        51.7504
        43.2504
  -2997708.93448  -2320695.15646
                  21792292.5944                                   21792289.8244
                                                                        49.5004
        37.2504
 -12005674.80947  -9342452.05545
                  22917294.4224                                   22917290.9804
                                                                        46.7504
        33.5004
 -14101773.00848 -10942786.69146
                  21071012.0554                                   21071008.7814
                                                                        49.5004
        37.0004
 -17533673.66447 -13621292.52045
                  22618557.8674                                   22618555.3594
                                                                        44.7504
        34.5004
  -5118904.84047  -3963955.04344
                  22505127.1954                                   22505122.3054
                                                                        46.0004
        29.0004
 -18120599.62147 -14107836.45345
                  22087423.7974                                   22087420.2074
                                                                        47.5004
        34.7504
  -1996368.38746  -1540261.77043
                  24002447.4844                                   24002445.3204
                                                                        41.2504
        23.5004
  -5341765.50446  -4126013.24243
                  23572265.7344                                   23572263.2464
                                                                        41.2504
        23.5004
 09 10 15  0  4 30.0000000  0  9G02G04G05G13G29G23G10G30G25
 -10546314.15248  -8176709.68747
                  20590884.1174                                   20590879.0434
                                                                        52.0004
        42.7504
  -1421619.24248  -1092573.34046
                  22092212.6884                                   22092209.6764
                                                                        50.5004
        37.0004
 -10617830.29347  -8261014.74645
                  23181391.8914                                   23181388.8404
                                                                        47.2504
        34.5004
 -12616368.98848  -9785329.03146
                  21353674.9924                                   21353671.4924
                                                                        49.2504
        37.0004
 -16109279.70747 -12511375.15245
                  22889610.7814                                   22889608.5784
                                                                        45.7504
        33.7504
  -3556198.43447  -2746261.73445
                  22802500.4304                                   22802494.7234
                                                                        46.2504
        30.5004
 -16725405.18047 -13020671.96545
                  22352920.4694                                   22352917.5594
                                                                        47.5004
        35.5004
   -410217.36747   -304299.98444
                  24304282.1884                                   24304279.6524
                                                                        42.5004
        24.2504
  -3929961.70346  -3025906.25844
                  23840923.2424                                   23840920.3364
                                                                        39.7504
        25.5004
 09 10 15  0  5  0.0000000  0  9G02G04G05G13G29G23G10G30G25
 -10620897.41448  -8234826.55947
                  20576691.4454                                   20576686.2424
                                                                        51.5004
        43.5004
  -1420550.69548  -1091740.72346
                  22092416.0634                                   22092413.3134
                                                                        50.0004
        37.2504
 -10805137.18047  -8406968.14545
                  23145749.0784                                   23145745.6454
                                                                        47.7504
        34.0004
 -12705686.09848  -9854926.73446
                  21336678.4454                                   21336674.8094
                                                                        49.5004
        36.0004
 -16259806.36347 -12628668.66045
                  22860966.2424                                   22860963.9574
                                                                        45.0004
        34.2504
  -3568407.64147  -2755775.37544
                  22800177.4144                                   22800171.8014
                                                                        45.5004
        29.7504
 -16905262.68047 -13160820.65245
                  22318694.5704                                   22318691.3094
                                                                        47.5004
        35.0004
   -399114.95347   -295648.81643
                  24306394.7894                                   24306392.2704
                                                                        43.5004
        23.5004
  -4093183.91846  -3153092.30144
                  23809863.5474                                   23809860.6054
                                                                        41.2504
        25.5004
 09 10 15  0  5 30.0000000  0  8G02G04G05G13G29G23G10G25
 -10694867.37548  -8292465.48447
                  20562615.5314                                   20562610.3014
                                                                        52.0004
        43.0004
  -1419087.71548  -1090600.75046
                  22092694.3284                                   22092691.5274
                                                                        48.7504
        36.2504
 -10992169.50048  -8552707.57845
                  23110158.3674                                   23110155.1994
                                                                        48.2504
        35.0004
 -12794304.39148  -9923979.98446
                  21319814.7114                                   21319811.2854
                                                                        50.2504
        37.0004
 -16409829.03147 -12745569.52345
                  22832417.7114                                   22832415.7544
                                                                        46.0004
        34.0004
  -3580116.48047  -2764899.16444
                  22797949.2194                                   22797942.9614
                                                                        47.0004
        29.7504
 -17084746.60547 -13300678.25445
                  22284540.2194                                   22284536.9064
                                                                        47.5004
        34.7504
  -4256006.61747  -3279967.01244
                  23778879.0314                                   23778876.3444
                                                                        42.5004
        25.5004
 09 10 15  0  6  0.0000000  0  8G02G04G05G13G29G23G10G25
 -10768223.52748  -8349626.18447
                  20548656.2194                                   20548651.0594
                                                                        51.2504
        42.7504
  -1417231.95748  -1089154.69946
                  22093047.7424                                   22093044.4844
                                                                        49.0004
        36.7504
 -11178924.95748  -8698231.28945
                  23074619.9144                                   23074616.3134
                                                                        48.0004
        34.2504
 -12882223.41848  -9992488.37946
                  21303084.5314                                   21303081.0004
                                                                        49.0004
        36.7504
 -16559344.78147 -12862075.36345
                  22803966.8364                                   22803964.1684
                                                                        45.7504
        33.5004
  -3591327.05547  -2773634.63345
                  22795815.9064                                   22795809.7974
                                                                        46.2504
        31.2504
 -17263854.64847 -13440242.94545
                  22250457.0004                                   22250454.1684
                                                                        46.7504
        35.0004
  -4418426.81247  -3406528.05944
                  23747971.4144                                   23747968.2074
                                                                        43.0004
        26.0004
 09 10 15  0  6 30.0000000  0  8G02G04G05G13G29G23G10G25
 -10840959.98448  -8406303.94947
                  20534814.7034                                   20534810.0474
                                                                        52.0004
        43.0004
  -1414979.87548  -1087399.84446
                  22093475.9924                                   22093473.1564
                                                                        49.5004
        36.2504
 -11365395.76647  -8843533.21145
                  23039135.2974                                   23039132.2704
                                                                        47.7504
        33.5004
 -12969436.89848 -10060446.92646
                  21286488.4844                                   21286484.8714
                                                                        49.0004
        37.0004
 -16708345.78947 -12978180.11745
                  22775612.7664                                   22775609.8284
                                                                        45.2504
        33.0004
  -3602036.20747  -2781979.43044
                  22793777.9224                                   22793772.7664
                                                                        45.5004
        29.7504
 -17442578.38747 -13579508.17246
                  22216447.1174                                   22216444.5704
                                                                        47.5004
        36.2504
  -4580436.17247  -3532769.01644
                  23717142.0084                                   23717139.1024
                                                                        43.2504
        26.5004
 09 10 15  0  7  0.0000000  0  8G02G04G05G13G29G23G10G25
 -10913073.43048  -8462496.20747
                  20521092.2424                                   20521086.9804
                                                                        52.7504
        43.0004
  -1412329.66048  -1085334.74646
                  22093980.5394                                   22093977.8364
                                                                        49.7504
        36.7504
 -11551576.38747  -8988609.00445
                  23003705.8134                                   23003702.6914
                                                                        47.5004
        34.0004
 -13055941.75048 -10127853.28146
                  21270026.9534                                   21270023.4884
                                                                        49.0004
        36.7504
 -16856826.41447 -13093879.36345
                  22747357.6954                                   22747355.0314
                                                                        45.5004
        34.0004
  -3612242.61347  -2789932.47345
                  22791835.5944                                   22791830.2194
                                                                        45.2504
        30.5004
 -17620912.34848 -13718469.69946
                  22182511.5474                                   22182508.6954
                                                                        48.0004
        36.7504
  -4742028.53947  -3658685.05944
                  23686392.6484                                   23686388.3914
                                                                        43.7504
        25.5004
 09 10 15  0  7 30.0000000  0  8G02G04G05G13G29G23G10G25
 -10984575.87548  -8518212.41447
                  20507486.1804                                   20507480.8134
                                                                        51.7504
        43.5004
  -1409295.18448  -1082970.24246
                  22094558.0474                                   22094555.3714
                                                                        49.2504
        36.5004
 -11737476.83248  -9133466.47745
                  22968330.8984                                   22968327.4574
                                                                        48.0004
        34.7504
 -13141749.77348 -10194716.70346
                  21253698.4454                                   21253694.5084
                                                                        49.2504
        37.0004
 -17004796.26247 -13209180.62945
                  22719200.5394                                   22719197.3674
                                                                        45.7504
        34.0004
  -3621960.24647  -2797504.69144
                  22789986.1644                                   22789981.3094
                                                                        44.2504
        29.5004
 -17798866.27347 -13857135.07446
                  22148647.7114                                   22148644.4304
                                                                        47.0004
        36.2504
  -4903213.23047  -3784283.48444
                  23655719.2894                                   23655715.8874
                                                                        44.0004
        26.0004
 09 10 15  0  8  0.0000000  0  8G02G04G05G13G29G23G10G25
 -11055468.62148  -8573453.67647
                  20493995.6804                                   20493990.1174
                                                                        52.5004
        43.0004
  -1405879.42648  -1080308.65646
                  22095208.2424                                   22095205.1844
                                                                        48.5004
        37.2504
 -11923095.79747  -9278104.60945
                  22933008.6094                                   22933005.6024
                                                                        47.7504
        35.5004
 -13226861.91448 -10261037.83646
                  21237502.0704                                   21237498.2974
                                                                        49.0004
        36.5004
 -17152254.38347 -13324083.11745
                  22691139.7114                                   22691137.0514
                                                                        46.0004
        33.5004
  -3631192.42247  -2804698.58645
                  22788229.7114                                   22788224.4024
                                                                        45.0004
        30.0004
 -17976439.05547 -13995503.45746
                  22114856.6094                                   22114853.2774
                                                                        47.2504
        36.0004
  -5063988.61747  -3909562.99644
                  23625125.0944                                   23625121.6884
                                                                        43.0004
        24.2504
 09 10 15  0  8 30.0000000  0  8G02G04G05G13G29G23G10G25
 -11125752.51648  -8628220.48447
                  20480621.1884                                   20480615.8404
                                                                        52.5004
        42.7504
  -1402085.79748  -1077352.58246
                  22095930.1564                                   22095926.7464
                                                                        48.5004
        36.0004
 -12108432.67648  -9422522.94145
                  22897740.3444                                   22897737.4614
                                                                        48.0004
        35.5004
 -13311279.85948 -10326818.05546
                  21221437.5784                                   21221434.2274
                                                                        48.5004
        36.5004
 -17299199.60947 -13438585.92645
                  22663176.8134                                   22663174.6604
                                                                        46.2504
        34.5004
  -3639943.30547  -2811517.47745
                  22786564.3444                                   22786559.4344
                                                                        45.0004
        30.2504
 -18153629.65647 -14133574.05945
                  22081138.3984                                   22081134.8524
                                                                        47.5004
        35.5004
  -5224353.50047  -4034522.60243
                  23594607.8674                                   23594605.4344
                                                                        42.2504
        22.7504
 09 10 15  0  9  0.0000000  0  8G02G04G05G13G29G23G10G25
 -11195430.89848  -8682515.37147
                  20467361.9224                                   20467356.6764
                                                                        52.5004
        43.2504
  -1397919.36348  -1074106.02046
                  22096722.4694                                   22096719.6294
                                                                        49.5004
        36.0004
 -12293489.05147  -9566722.69545
                  22862525.0004                                   22862521.8054
                                                                        47.7504
        35.0004
 -13395006.81648 -10392059.85946
                  21205505.0314                                   21205501.6414
                                                                        49.2504
        37.2504
 -17445633.43447 -13552690.22745
                  22635311.5554                                   22635309.3444
                                                                        46.7504
        34.7504
  -3648218.25847  -2817965.47745
                  22784989.9064                                   22784984.3834
                                                                        45.7504
        30.0004
 -18330439.84447 -14271348.23045
                  22047492.3754                                   22047489.2974
                                                                        47.5004
        35.7504
  -5384308.48046  -4159162.81243
                  23564169.6254                                   23564166.9304
                                                                        41.7504
        23.0004
 09 10 15  0  9 30.0000000  0  8G02G04G05G13G29G23G10G25
 -11264506.59448  -8736340.57447
                  20454217.2584                                   20454212.0084
                                                                        52.5004
        43.0004
  -1393384.64848  -1070572.44146
                  22097585.8054                                   22097582.9574
                                                                        48.7504
        36.7504
 -12478264.94147  -9710703.89145
                  22827363.0474                                   22827359.7894
                                                                        46.2504
        35.0004
 -13478045.27048 -10456765.16846
                  21189703.3984                                   21189700.0904
                                                                        49.2504
        37.0004
 -17591555.89547 -13666396.03145
                  22607543.6094                                   22607540.8914
                                                                        46.5004
        34.5004
  -3656022.16047  -2824046.35545
                  22783504.8834                                   22783499.2304
                                                                        45.0004
        30.0004
 -18506869.85948 -14408826.15245
                  22013918.7114                                   22013915.8874
                                                                        48.0004
        35.7504
  -5543853.39147  -4283483.46144
                  23533809.1564                                   23533806.2624
                                                                        42.5004
        25.2504
 09 10 15  0 10  0.0000000  0  8G02G04G05G13G29G23G10G25
 -11332980.39548  -8789696.73447
                  20441186.9774                                   20441181.9454
                                                                        52.0004
        42.7504
  -1388484.52348  -1066754.17646
                  22098518.1174                                   22098515.2074
                                                                        49.2504
        36.7504
 -12662759.23047  -9854465.64545
                  22792255.2584                                   22792251.9344
                                                                        46.5004
        35.5004
 -13560396.18048 -10520934.68746
                  21174032.7274                                   21174029.2194
                                                                        49.5004
        37.5004
 -17736965.84447 -13779702.48445
                  22579872.9694                                   22579870.2664
                                                                        46.5004
        35.0004
  -3663357.68747  -2829762.28544
                  22782108.8134                                   22782103.4024
                                                                        45.0004
        29.5004
 -18682917.78548 -14546006.34845
                  21980418.0164                                   21980414.8794
                                                                        48.2504
        35.7504
  -5702986.33247  -4407483.08244
                  23503527.5704                                   23503524.1684
                                                                        42.7504
        25.2504
 09 10 15  0 10 30.0000000  0  8G02G04G05G13G29G23G10G25
 -11400850.61748  -8842582.58647
                  20428271.6414                                   20428266.3284
                                                                        52.0004
        42.7504
  -1383218.97348  -1062651.17246
                  22099520.4694                                   22099517.3364
                                                                        49.0004
        36.7504
 -12846967.78547  -9998004.76645
                  22757201.5164                                   22757198.5514
                                                                        46.0004
        35.7504
 -13642057.56248 -10584566.92646
                  21158493.0084                                   21158489.2774
                                                                        50.0004
        36.7504
 -17881859.27747 -13892606.42245
                  22552300.1564                                   22552297.9964
                                                                        46.7504
        34.5004
  -3670225.96147  -2835114.18444
                  22780801.7424                                   22780796.0704
                                                                        45.7504
        28.0004
 -18858579.61348 -14682885.67246
                  21946991.0234                                   21946987.8094
                                                                        48.5004
        36.7504
  -5861702.96947  -4531158.35944
                  23473324.5704                                   23473321.6884
                                                                        43.0004
        26.7504
 09 10 15  0 11  0.0000000  0  8G02G04G05G13G29G23G10G25
 -11468119.53948  -8895000.06247
                  20415470.4774                                   20415465.5864
                                                                        51.5004
        42.7504
  -1377591.59848  -1058266.22746
                  22100590.9924                                   22100588.2194
                                                                        49.0004
        36.0004
 -13030890.64547 -10141321.27345
                  22722202.2114                                   22722198.8364
                                                                        46.7504
        35.2504
 -13723031.50848 -10647663.52346
                  21143084.2424                                   21143080.7584
                                                                        50.5004
        36.7504
 -18026235.73047 -14005107.59445
                  22524826.5864                                   22524824.1334
                                                                        46.5004
        34.7504
  -3676630.60547  -2840104.84044
                  22779582.9694                                   22779576.8444
                                                                        45.5004
        28.5004
 -19033854.92648 -14819463.82446
                  21913636.9844                                   21913633.9734
                                                                        48.7504
        36.5004
  -6020002.37147  -4654508.52044
                  23443201.8444                                   23443198.2974
                                                                        43.2504
        27.5004
 09 10 15  0 11 30.0000000  0  8G02G04G05G13G29G23G10G25
 -11534788.37548  -8946949.86747
                  20402784.2504                                   20402779.2734
                                                                        51.5004
        42.7504
  -1371605.92648  -1053602.07846
                  22101729.8204                                   22101727.6374
                                                                        49.0004
        36.0004
 -13214527.05547 -10284414.57445
                  22687257.1174                                   22687254.2304
                                                                        45.5004
        35.7504
 -13803319.84048 -10710225.87146
                  21127805.8204                                   21127802.2934
                                                                        50.5004
        37.0004
 -18170094.61347 -14117205.38745
                  22497451.1094                                   22497448.8714
                                                                        47.0004
        34.7504
  -3682575.81647  -2844737.48844
                  22778451.6024                                   22778445.9104
                                                                        44.5004
        27.5004
 -19208743.29348 -14955740.45746
                  21880356.5164                                   21880353.5354
                                                                        48.7504
        36.5004
  -6177883.59447  -4777532.84044
                  23413157.8984                                   23413154.0474
                                                                        42.0004
        27.7504
 09 10 15  0 12  0.0000000  0  8G02G04G05G13G29G23G10G25
 -11600856.67248  -8998431.69547
                  20390211.8284                                   20390206.5864
                                                                        51.5004
        42.7504
  -1365263.25448  -1048659.76246
                  22102937.0234                                   22102934.2154
                                                                        48.7504
        36.0004
 -13397874.26247 -10427282.50845
                  22652367.3134                                   22652364.1604
                                                                        47.0004
        35.7504
 -13882922.02048 -10772253.61346
                  21112658.1254                                   21112654.5634
                                                                        51.0004
        37.2504
 -18313433.01247 -14228897.63745
                  22470174.3914                                   22470172.1684
                                                                        46.0004
        34.0004
  -3688062.93047  -2849013.17244
                  22777407.4454                                   22777402.0084
                                                                        45.5004
        28.0004
 -19383242.13348 -15091713.56646
                  21847150.6024                                   21847147.8164
                                                                        48.2504
        36.0004
  -6335343.22346  -4900228.62544
                  23383193.8524                                   23383190.7814
                                                                        41.2504
        26.2504
 09 10 15  0 12 30.0000000  0  8G02G04G05G13G29G23G10G25
 -11666324.24248  -9049445.41847
                  20377753.6644                                   20377748.9024
                                                                        51.7504
        42.2504
  -1358565.19948  -1043440.51646
                  22104211.7034                                   22104209.1214
                                                                        49.0004
        36.0004
 -13580929.94547 -10569923.29346
                  22617533.1804                                   22617530.1414
                                                                        46.5004
        36.5004
 -13961837.58248 -10833746.19546
                  21097640.7974                                   21097637.3984
                                                                        51.0004
        36.5004
 -18456248.69147 -14340182.57045
                  22442997.8984                                   22442995.2114
                                                                        46.2504
        34.2504
  -3693094.24647  -2852933.64144
                  22776450.1724                                   22776444.8954
                                                                        45.2504
        28.5004
 -19557348.65248 -15227380.96946
                  21814019.2034                                   21814016.1804
                                                                        49.0004
        36.2504
  -6492378.49246  -5022593.73844
                  23353310.4924                                   23353308.4384
                                                                        40.0004
        26.0004
 09 10 15  0 13  0.0000000  0  8G02G04G05G13G29G23G10G25
 -11731191.85248  -9099991.66847
                  20365409.8054                                   20365404.8954
                                                                        52.2504
        42.5004
  -1351514.34848  -1037946.35946
                  22105553.3984                                   22105550.8404
                                                                        50.0004
        36.0004
 -13763692.36347 -10712335.53145
                  22582754.7664                                   22582751.0744
                                                                        47.2504
        35.7504
 -14040067.51248 -10894704.51246
                  21082754.4064                                   21082750.6724
                                                                        51.0004
        36.5004
 -18598540.27347 -14451059.15245
                  22415920.7734                                   22415918.0354
                                                                        47.0004
        34.5004
  -3697672.57447  -2856501.18744
                  22775578.8674                                   22775573.8204
                                                                        45.7504
        29.5004
 -19731061.16448 -15362741.36746
                  21780962.8834                                   21780960.2114
                                                                        48.5004
        36.5004
  -6648987.29346  -5144626.53944
                  23323509.0234                                   23323506.3444
                                                                        39.7504
        25.5004
 09 10 15  0 13 30.0000000  0  8G02G04G05G13G29G23G10G25
 -10220037.14848  -7922468.55947
                  20652973.3054                                   20652967.8594
                                                                        52.2504
        42.7504
    231307.53148    195421.33645
                  22406754.3204                                   22406751.6094
                                                                        49.0004
        35.2504
 -12370733.05147  -9626912.68446
                  22847825.8914                                   22847822.5744
                                                                        47.2504
        36.2504
 -12542189.10948  -9727526.50846
                  21367791.0394                                   21367787.2344
                                                                        51.2504
        36.5004
 -17164880.00047 -13333921.24245
                  22688736.7974                                   22688734.2234
                                                                        47.7504
        34.5004
  -2126379.80947  -1632117.21544
                  23074586.1724                                   23074581.3634
                                                                        46.0004
        29.7504
 -18328951.39848 -14270188.30546
                  22047775.4694                                   22047772.6484
                                                                        49.7504
        37.2504
  -5229741.39547  -4038720.61744
                  23593582.7194                                   23593578.8674
                                                                        42.5004
        25.0004
 09 10 15  0 14  0.0000000  0  8G02G04G05G13G29G23G10G25
 -10283703.99248  -7972079.08247
                  20640857.9774                                   20640852.9224
                                                                        52.0004
        42.7504
    239059.91048    201462.13745
                  22408229.9384                                   22408227.1174
                                                                        49.5004
        35.5004
 -12552901.37547  -9768861.99646
                  22813160.6484                                   22813157.4654
                                                                        47.0004
        36.2504
 -12619047.49648  -9787416.23046
                  21353165.2664                                   21353161.7774
                                                                        51.5004
        37.0004
 -17306114.92247 -13443974.34045
                  22661861.0394                                   22661858.4344
                                                                        47.0004
        34.7504
  -2130057.68747  -1634983.08645
                  23073886.3594                                   23073880.3984
                                                                        45.5004
        30.0004
 -18501867.96148 -14404928.48846
                  22014870.7424                                   22014867.9304
                                                                        50.0004
        37.5004
  -5385488.27346  -4160081.90644
                  23563944.8914                                   23563941.5554
                                                                        41.5004
        26.2504
 09 10 15  0 14 30.0000000  0  8G02G04G05G13G29G23G10G25
 -10346769.99648  -8021221.36747
                  20628856.6174                                   20628851.6214
                                                                        52.0004
        42.5004
    247160.39148    207774.17645
                  22409771.0554                                   22409768.5944
                                                                        48.5004
        35.5004
 -12734769.14847  -9910577.12546
                  22778551.8914                                   22778549.1484
                                                                        47.0004
        36.2504
 -12695219.98848  -9846771.46146
                  21338670.3364                                   21338666.6524
                                                                        51.0004
        36.5004
 -17446817.98847 -13553613.06245
                  22635085.9304                                   22635082.7934
                                                                        46.5004
        34.0004
  -2133288.69147  -1637500.73044
                  23073271.3834                                   23073265.5824
                                                                        46.2504
        28.5004
 -18674382.93048 -14539355.71946
                  21982042.3524                                   21982039.5704
                                                                        49.0004
        37.0004
  -5540799.70347  -4281103.83644
                  23534390.6484                                   23534387.2384
                                                                        42.7504
        26.5004
 09 10 15  0 15  0.0000000  0  8G02G04G05G13G29G23G10G25
 -10409238.05148  -8069897.75047
                  20616969.4614                                   20616964.1174
                                                                        52.5004
        43.2504
    255605.11348    214354.46545
                  22411378.1254                                   22411375.1724
                                                                        49.5004
        35.0004
 -12916336.68748 -10052058.32446
                  22744000.6804                                   22743997.4844
                                                                        48.0004
        36.5004
 -12770708.77048  -9905593.89546
                  21324305.3524                                   21324301.8404
                                                                        51.7504
        36.7504
 -17586989.46547 -13662837.59445
                  22608411.8984                                   22608409.3984
                                                                        46.7504
        35.0004
  -2136076.94947  -1639673.35944
                  23072740.8134                                   23072734.7814
                                                                        44.7504
        26.5004
 -18846496.10948 -14673469.88746
                  21949289.7584                                   21949287.1374
                                                                        49.2504
        37.0004
  -5695675.23847  -4401786.03944
                  23504918.7194                                   23504915.6254
                                                                        43.0004
        27.0004
 09 10 15  0 15 30.0000000  0  8G02G04G05G13G29G23G10G25
 -10471109.06248  -8118109.05547
                  20605195.8204                                   20605190.9184
                                                                        51.7504
        43.0004
    264391.66848    221201.12945
                  22413050.2194                                   22413047.1024
                                                                        48.5004
        35.5004
 -13097602.08248 -10193304.08246
                  22709507.6884                                   22709504.2934
                                                                        48.2504
        36.2504
 -12845514.74248  -9963884.26646
                  21310070.1564                                   21310066.1804
                                                                        52.0004
        37.0004
 -17726627.61747 -13771646.55145
                  22581840.0554                                   22581837.7034
                                                                        45.7504
        35.0004
  -2138425.46547  -1641503.35544
                  23072293.3284                                   23072287.5204
                                                                        45.0004
        26.2504
 -19018205.80948 -14807269.69946
                  21916614.9454                                   21916611.9924
                                                                        48.0004
        36.7504
  -5850113.15647  -4522127.33644
                  23475530.3284                                   23475527.1954
                                                                        42.0004
        26.7504
 09 10 15  0 16  0.0000000  0  8G02G04G05G13G29G23G10G25
 -10532382.16448  -8165854.32847
                  20593536.1804                                   20593530.7974
                                                                        52.0004
        42.7504
    273518.57848    228313.00045
                  22414787.2974                                   22414784.1884
                                                                        49.5004
        35.7504
 -13278562.67648 -10334312.32845
                  22675071.4844                                   22675067.8714
                                                                        48.5004
        35.2504
 -12919637.94948 -10021642.59446
                  21295965.0784                                   21295961.3054
                                                                        51.5004
        36.7504
 -17865729.94547 -13880037.94145
                  22555369.4224                                   22555367.1644
                                                                        46.7504
        34.7504
  -2140336.19947  -1642992.25044
                  23071929.6334                                   23071923.9414
                                                                        44.0004
        26.7504
 -19189509.27048 -14940753.01646
                  21884017.0864                                   21884013.8524
                                                                        48.7504
        37.5004
  -6004110.07846  -4642124.95744
                  23446225.6484                                   23446222.6174
                                                                        41.7504
        27.0004
 09 10 15  0 16 30.0000000  0  8G02G04G05G13G29G23G10G25
 -10593058.98048  -8213134.96147
                  20581989.7584                                   20581984.4064
                                                                        52.5004
        42.7504
    282982.87948    235687.76245
                  22416588.2274                                   22416585.3284
                                                                        49.0004
        35.5004
 -13459217.35248 -10475082.21546
                  22640694.5784                                   22640690.7344
                                                                        48.5004
        36.0004
 -12993079.70348 -10078869.89146
                  21281989.7114                                   21281985.9964
                                                                        51.5004
        37.0004
 -18004295.39147 -13988011.03545
                  22529001.6484                                   22528999.2624
                                                                        45.5004
        35.2504
  -2141812.50047  -1644142.63744
                  23071648.8364                                   23071643.3754
                                                                        45.0004
        28.5004
 -19360405.32048 -15073918.72346
                  21851496.6094                                   21851493.3404
                                                                        48.2504
        36.7504
  -6157664.62546  -4761777.84844
                  23417004.6804                                   23417002.0514
                                                                        41.0004
        27.5004
 09 10 15  0 17  0.0000000  0  8G02G04G05G13G29G23G10G25
 -10653139.31648  -8259950.77047
                  20570556.4534                                   20570551.4104
                                                                        52.2504
        43.0004
    292783.17248    243324.32845
                  22418452.7504                                   22418450.5084
                                                                        48.0004
        35.7504
 -13639563.61348 -10615611.75846
                  22606375.3524                                   22606371.9614
                                                                        49.0004
        36.7504
 -13065839.95748 -10135566.19146
                  21268143.5084                                   21268140.3444
                                                                        51.2504
        36.2504
 -18142321.56247 -14095563.92645
                  22502736.1484                                   22502733.3594
                                                                        45.5004
        34.7504
  -2142856.32447  -1644955.99644
                  23071450.4144                                   23071445.2384
                                                                        45.2504
        28.5004
 -19530891.60248 -15206765.11346
                  21819053.7424                                   21819050.9884
                                                                        49.2504
        37.0004
  -6310773.71546  -4881083.59444
                  23387869.3984                                   23387866.1454
                                                                        40.5004
        26.5004
 09 10 15  0 17 30.0000000  0  8G02G04G05G13G29G23G10G25
 -10712624.37948  -8306302.82847
                  20559236.8984                                   20559231.8914
                                                                        52.2504
        42.7504
    302916.80148    251220.63745
                  22420381.4454                                   22420378.7114
                                                                        48.0004
        34.2504
 -13819599.78548 -10755899.66846
                  22572115.4694                                   22572112.3134
                                                                        48.2504
        37.2504
 -13137919.78148 -10191732.25846
                  21254427.1724                                   21254423.6454
                                                                        50.7504
        36.2504
 -18279807.00847 -14202695.44145
                  22476573.4694                                   22476571.2544
                                                                        46.0004
        35.5004
  -2143470.34047  -1645434.41044
                  23071333.8364                                   23071328.7544
                                                                        46.2504
        29.0004
 -19700966.95748 -15339291.35546
                  21786689.4304                                   21786686.6254
                                                                        49.2504
        37.5004
  -6463435.57046  -5000040.84844
                  23358817.8444                                   23358815.4804
                                                                        40.7504
        25.2504
 09 10 15  0 18  0.0000000  0  8G02G04G05G13G29G23G10G25
 -10771513.90248  -8352190.75447
                  20548030.8444                                   20548025.8364
                                                                        52.0004
        43.0004
    313382.22348    259375.48445
                  22422372.6024                                   22422369.7154
                                                                        48.0004
        34.0004
 -13999323.75448 -10895944.29746
                  22537915.3054                                   22537912.0204
                                                                        48.0004
        36.7504
 -13209319.45348 -10247368.34446
                  21240840.1954                                   21240836.6414
                                                                        51.0004
        36.7504
 -18416749.47747 -14309403.85545
                  22450514.2274                                   22450511.8324
                                                                        46.0004
        35.2504
  -2143656.78147  -1645579.67244
                  23071297.9454                                   23071292.6374
                                                                        45.0004
        28.5004
 -19870628.65248 -15471495.35546
                  21754404.4144                                   21754401.3444
                                                                        49.0004
        38.0004
  -6615647.35247  -5118647.38344
                  23329853.1954                                   23329850.4264
                                                                        42.0004
        26.7504
 09 10 15  0 18 30.0000000  0  8G02G04G05G13G29G23G10G25
 -10829807.14848  -8397614.04747
                  20536937.6644                                   20536932.6564
                                                                        51.5004
        42.5004
    324178.41847    267788.10245
                  22424427.4454                                   22424424.5234
                                                                        47.2504
        35.2504
 -14178732.48448 -11035743.27346
                  22503774.9694                                   22503771.8794
                                                                        48.0004
        36.5004
 -13280038.36748 -10302474.00446
                  21227383.0164                                   21227379.3444
                                                                        50.7504
        36.5004
 -18553146.05547 -14415686.87145
                  22424559.0634                                   22424556.0274
                                                                        45.7504
        35.2504
  -2143417.35547  -1645393.07044
                  23071343.7664                                   23071338.2154
                                                                        44.0004
        27.7504
 -20039873.59448 -15603374.57446
                  21722198.0474                                   21722194.8444
                                                                        48.0004
        38.0004
  -6767405.56647  -5236900.49644
                  23300975.5314                                   23300972.2624
                                                                        42.2504
        28.2504
 09 10 15  0 19  0.0000000  0  8G02G04G05G13G29G23G10G25
 -10887506.18048  -8442574.30147
                  20525958.2034                                   20525953.0944
                                                                        50.7504
        42.2504
    335301.91448    276455.76245
                  22426544.2894                                   22426541.2034
                                                                        48.2504
        35.5004
 -14357825.34447 -11175296.17646
                  22469694.7974                                   22469691.0944
                                                                        46.5004
        36.5004
 -13350078.41848 -10357050.62546
                  21214054.8984                                   21214050.8914
                                                                        51.0004
        36.7504
 -18688996.05947 -14521543.98045
                  22398707.3134                                   22398704.8134
                                                                        46.5004
        35.0004
  -2142755.52047  -1644877.31644
                  23071469.2194                                   23071464.2154
                                                                        43.0004
        26.5004
 -20208700.87948 -15734928.34046
                  21690071.3284                                   21690068.2854
                                                                        48.7504
        37.7504
  -6918709.38747  -5354799.57844
                  23272182.9924                                   23272180.1804
                                                                        43.0004
        27.2504
 09 10 15  0 19 30.0000000  0  8G02G04G05G13G29G23G10G25
 -10944609.40248  -8487070.25447
                  20515091.6884                                   20515086.4534
                                                                        50.5004
        43.2504
    346752.63348    285378.36345
                  22428722.8204                                   22428719.8834
                                                                        48.5004
        34.5004
 -14536598.16447 -11314599.65646
                  22435675.3204                                   22435672.3364
                                                                        47.5004
        36.7504
 -13419438.52348 -10411097.45746
                  21200855.8674                                   21200852.5084
                                                                        50.5004
        37.0004
 -18824295.84847 -14626972.33645
                  22372960.5864                                   22372957.9144
                                                                        47.0004
        35.5004
  -2141672.30946  -1644033.24244
                  23071675.6334                                   23071670.1024
                                                                        41.7504
        27.7504
 -20377106.72348 -15866153.77346
                  21658025.1174                                   21658021.8284
                                                                        48.5004
        37.5004
  -7069554.41047  -5472341.15644
                  23243478.3364                                   23243475.0984
                                                                        43.2504
        28.7504
 09 10 15  0 20  0.0000000  0  8G02G04G05G13G29G23G10G25
 -11001122.25448  -8531106.19147
                  20504337.7814                                   20504332.4884
                                                                        51.2504
        42.5004
    358523.93048    294550.78945
                  22430963.0234                                   22430960.5594
                                                                        48.0004
        34.0004
 -14715053.84047 -11453656.06646
                  22401716.3594                                   22401712.7584
                                                                        47.5004
        36.5004
 -13488123.93048 -10464618.55546
                  21187785.4614                                   21187782.1604
                                                                        50.5004
        36.7504
 -18959048.50048 -14731974.41445
                  22347317.9614                                   22347315.0634
                                                                        48.0004
        35.2504
  -2140174.75447  -1642866.27044
                  23071960.5864                                   23071955.0664
                                                                        45.2504
        28.5004
 -20545093.07048 -15997052.04746
                  21626058.0634                                   21626054.8444
                                                                        49.5004
        37.2504
  -7219942.91047  -5589526.98444
                  23214859.9774                                   23214856.9064
                                                                        43.5004
        27.7504
 09 10 15  0 20 30.0000000  0  8G02G04G05G13G29G23G10G25
 -11057043.13348  -8574680.91847
                  20493696.4454                                   20493691.5744
                                                                        51.2504
        42.0004
    370615.60248    303972.81345
                  22433264.3134                                   22433261.3094
                                                                        49.0004
        34.5004
 -14893188.43747 -11592462.21946
                  22367818.3914                                   22367815.1684
                                                                        47.2504
        36.7504
 -13556133.23448 -10517612.79746
                  21174843.6174                                   21174840.4454
                                                                        50.5004
        36.7504
 -19093249.96548 -14836547.05945
                  22321780.4614                                   22321777.7034
                                                                        48.5004
        35.7504
  -2138263.42647  -1641376.91044
                  23072324.5944                                   23072318.7304
                                                                        44.0004
        27.7504
 -20712656.60548 -16127620.98846
                  21594171.6024                                   21594168.9144
                                                                        49.0004
        38.2504
  -7369870.57047  -5706353.72344
                  23186329.5864                                   23186326.4964
                                                                        42.7504
        25.5004
 09 10 15  0 21  0.0000000  0  8G02G04G05G13G29G23G10G25
 -11112372.55148  -8617794.75047
                  20483167.4224                                   20483162.1294
                                                                        51.5004
        42.5004
    383025.75848    313643.09045
                  22435625.8054                                   22435623.2234
                                                                        49.0004
        34.5004
 -15070999.55147 -11731016.32046
                  22333982.2584                                   22333978.7194
                                                                        47.2504
        37.0004
 -13623467.41048 -10570080.96946
                  21162030.6484                                   21162027.0864
                                                                        50.0004
        37.0004
 -19226898.28948 -14940688.62945
                  22296347.7894                                   22296345.6094
                                                                        48.5004
        35.7504
  -2135940.87547  -1639567.12544
                  23072766.2424                                   23072760.5204
                                                                        43.0004
        26.5004
 -20879795.57048 -16257859.17646
                  21562366.0944                                   21562363.4224
                                                                        49.7504
        38.0004
  -7519335.26647  -5822819.72744
                  23157887.0944                                   23157883.9534
                                                                        42.5004
        26.7504
 09 10 15  0 21 30.0000000  0  8G02G04G05G13G29G23G10G25
 -11167112.21548  -8660449.06247
                  20472750.7974                                   20472745.4534
                                                                        52.0004
        42.2504
    395751.34447    323559.10945
                  22438047.2114                                   22438044.7384
                                                                        47.7504
        34.5004
 -15248486.50448 -11869317.80946
                  22300207.4924                                   22300204.3014
                                                                        48.2504
        37.0004
 -13690127.95348 -10622024.22746
                  21149345.4844                                   21149341.7274
                                                                        51.0004
        36.2504
 -19359992.75448 -15044398.63345
                  22271021.2584                                   22271018.7234
                                                                        48.0004
        35.5004
  -2133210.17247  -1637439.28144
                  23073286.1024                                   23073280.1024
                                                                        42.5004
        27.2504
 -21046508.51648 -16387765.37146
                  21530641.8594                                   21530639.0634
                                                                        50.0004
        38.2504
  -7668335.56647  -5938923.85244
                  23129533.3914                                   23129530.6294
                                                                        43.0004
        27.7504
 09 10 15  0 22  0.0000000  0  8G02G04G05G13G29G23G10G25
 -11221262.48448  -8702644.06647
                  20462446.1884                                   20462440.9144
                                                                        51.5004
        42.7504
    408790.31648    333719.35245
                  22440528.8134                                   22440526.0474
                                                                        49.5004
        34.2504
 -15425647.48447 -12007365.32046
                  22266494.5704                                   22266490.9104
                                                                        47.7504
        37.5004
 -13756115.30948 -10673442.93746
                  21136788.4384                                   21136784.4494
                                                                        50.5004
        36.7504
 -19492531.31248 -15147675.39145
                  22245799.7814                                   22245797.4694
                                                                        48.0004
        35.2504
  -2130074.16447  -1634995.65244
                  23073882.8524                                   23073876.9414
                                                                        43.5004
        28.0004
 -21212793.37548 -16517337.97346
                  21498998.9614                                   21498995.7704
                                                                        49.5004
        38.0004
  -7816868.95747  -6054664.16444
                  23101268.2814                                   23101265.7344
                                                                        42.2504
        26.2504
 09 10 15  0 22 30.0000000  0  8G02G04G05G13G29G23G10G25
 -11274822.25048  -8744378.98847
                  20452254.2814                                   20452249.0204
                                                                        52.0004
        42.5004
    422142.60248    344123.71145
                  22443069.2814                                   22443066.1524
                                                                        48.2504
        34.0004
 -15602478.05948 -12145155.37546
                  22232845.4454                                   22232841.6454
                                                                        48.0004
        38.0004
 -13821428.84848 -10724336.59846
                  21124359.5004                                   21124355.6764
                                                                        50.5004
        37.0004
 -19624510.52748 -15250516.32445
                  22220684.4304                                   22220681.9184
                                                                        48.0004
        35.5004
  -2126533.36346  -1632236.61344
                  23074556.5234                                   23074551.2384
                                                                        41.5004
        26.2504
 -21378646.34448 -16646574.07446
                  21467437.8284                                   21467434.9574
                                                                        49.2504
        38.0004
  -7964931.16447  -6170037.30544
                  23073093.2734                                   23073090.1024
                                                                        43.5004
        26.7504
 09 10 15  0 23  0.0000000  0  8G02G04G05G13G29G23G10G25
  -9752372.46548  -7558054.50047
                  20741966.8444                                   20741961.6764
                                                                        52.0004
        42.5004
   2011223.35948   1582368.44945
                  22745461.0944                                   22745458.4104
                                                                        49.2504
        34.2504
 -14203553.17248 -11055084.00446
                  22499051.8674                                   22499048.5664
                                                                        48.0004
        38.0004
 -12310649.23048  -9547105.72746
                  21411851.4144                                   21411847.6414
                                                                        50.7504
        36.0004
 -18180507.12948 -14125318.99245
                  22495469.4694                                   22495467.0864
                                                                        48.0004
        35.5004
   -547172.79347   -401566.00444
                  23375099.0864                                   23375093.6644
                                                                        42.7504
        28.0004
 -19968642.19548 -15547869.58246
                  21735752.9774                                   21735749.7234
                                                                        50.0004
        38.0004
  -6537097.39547  -5057439.55544
                  23344801.1414                                   23344798.0744
                                                                        43.5004
        26.7504
 09 10 15  0 23 30.0000000  0  9G02G04G05G13G29G23G10G16G25
  -9804756.22748  -7598873.03947
                  20731998.8594                                   20731993.5514
                                                                        52.7504
        42.0004
   2025192.40248   1593253.41845
                  22748119.5084                                   22748116.5044
                                                                        48.7504
        33.2504
 -14379721.58648 -11192358.09046
                  22465528.2504                                   22465524.3244
                                                                        49.2504
        37.7504
 -12374620.68748  -9596953.61746
                  21399677.8914                                   21399673.9734
                                                                        50.5004
        36.2504
 -18311366.29748 -14227287.18445
                  22470567.8364                                   22470565.1644
                                                                        48.5004
        35.7504
   -542833.61747   -398184.83244
                  23375924.5004                                   23375919.3834
                                                                        43.5004
        29.0004
 -20133629.28148 -15676431.07846
                  21704357.0004                                   21704354.0394
                                                                        50.0004
        38.0004
   4501240.24256   3539261.78153
                  24472568.5634                                   24472565.5904
                                                                        40.5004
        22.7504
  -6684214.31247  -5172076.09044
                  23316805.5164                                   23316802.6524
                                                                        45.2504
        28.7504
 09 10 15  0 24  0.0000000  0  9G02G04G05G13G29G23G10G16G25
  -9856552.92648  -7639234.11747
                  20722141.8914                                   20722136.4104
                                                                        53.0004
        42.7504
   2039466.76648   1604376.27745
                  22750835.9534                                   22750832.3914
                                                                        48.7504
        33.7504
 -14555555.77748 -11329371.76646
                  22432067.9774                                   22432064.1604
                                                                        49.0004
        37.5004
 -12437922.25448  -9646279.54346
                  21387632.3204                                   21387628.4734
                                                                        51.0004
        36.0004
 -18441662.44548 -14328816.59845
                  22445773.2114                                   22445770.9734
                                                                        48.5004
        35.5004
   -538099.18047   -394495.68744
                  23376825.4454                                   23376820.3984
                                                                        44.7504
        27.7504
 -20298180.12148 -15804652.59846
                  21673043.9924                                   21673041.2894
                                                                        49.7504
        38.2504
   4349043.35546   3420666.83643
                  24443606.6644                                   24443603.2114
                                                                        41.2504
        22.0004
  -6830855.18747  -5286341.69144
                  23288900.7504                                   23288897.9694
                                                                        46.2504
        28.7504
 09 10 15  0 24 30.0000000  0  9G02G04G05G13G29G23G10G16G25
  -9907770.18748  -7679143.67647
                  20712395.7814                                   20712390.6174
                                                                        52.2504
        42.0004
   2054037.64848   1615730.19545
                  22753608.6254                                   22753605.3874
                                                                        48.5004
        34.0004
 -14731060.47748 -11466128.71946
                  22398670.4224                                   22398666.6994
                                                                        49.7504
        37.7504
 -12500561.93748  -9695089.67646
                  21375712.2974                                   21375708.5314
                                                                        51.0004
        36.5004
 -18571400.96148 -14429911.54745
                  22421084.8674                                   22421082.4144
                                                                        48.5004
        35.2504
   -532978.88747   -390505.85544
                  23377799.9614                                   23377794.6214
                                                                        44.5004
        26.5004
 -20462299.82448 -15932538.11346
                  21641813.3674                                   21641810.1994
                                                                        50.2504
        38.5004
   4197317.59846   3302438.98043
                  24414734.5234                                   24414730.5704
                                                                        40.0004
        21.7504
  -6977024.67647  -5400240.00044
                  23261085.9384                                   23261082.3714
                                                                        45.2504
        27.5004
 09 10 15  0 25  0.0000000  0  9G02G04G05G13G29G23G10G16G25
  -9958405.93748  -7718600.09847
                  20702760.2114                                   20702755.1484
                                                                        52.0004
        42.5004
   2068905.59447   1627315.58645
                  22756437.8054                                   22756435.1764
                                                                        47.0004
        33.0004
 -14906231.19548 -11602625.45746
                  22365336.6954                                   22365333.0434
                                                                        49.5004
        37.5004
 -12562537.81248  -9743382.53946
                  21363918.5864                                   21363914.8834
                                                                        51.0004
        36.5004
 -18700577.85248 -14530568.85545
                  22396503.2194                                   22396500.9104
                                                                        48.5004
        35.5004
   -527472.29347   -386214.97344
                  23378847.6484                                   23378842.4264
                                                                        44.2504
        25.7504
 -20625983.63748 -16060083.97346
                  21610665.3284                                   21610662.7114
                                                                        49.5004
        38.7504
   4046068.15646   3184582.27743
                  24385951.3674                                   24385948.1054
                                                                        38.5004
        19.7504
  -7122717.73447  -5513767.06244
                  23233361.1254                                   23233357.9774
                                                                        45.0004
        27.2504
 09 10 15  0 25 30.0000000  0  9G02G04G05G13G29G23G10G16G25
 -10008457.53548  -7757601.35247
                  20693235.6484                                   20693230.7034
                                                                        52.5004
        42.0004
   2084071.88747   1639133.46145
                  22759323.9924                                   22759321.7424
                                                                        47.5004
        34.2504
 -15081062.62148 -11738857.82046
                  22332067.2664                                   22332063.6954
                                                                        49.7504
        38.2504
 -12623847.36348  -9791156.19146
                  21352251.7894                                   21352248.4574
                                                                        51.0004
        36.0004
 -18829187.82847 -14630784.40245
                  22372029.7114                                   22372027.0514
                                                                        47.7504
        35.2504
   -521578.85547   -381622.60544
                  23379969.3524                                   23379963.4774
                                                                        44.5004
        26.5004
 -20789226.24648 -16187286.02046
                  21579601.1804                                   21579598.2704
                                                                        50.0004
        38.0004
   3895300.82346   3067101.27143
                  24357262.6024                                   24357258.1764
                                                                        38.5004
        19.0004
  -7267929.07047  -5626918.75444
                  23205728.6334                                   23205725.2814
                                                                        45.2504
        28.5004
 09 10 15  0 26  0.0000000  0  9G02G04G05G13G29G23G10G16G25
 -10057920.39148  -7796143.85547
                  20683823.1334                                   20683817.9264
                                                                        52.5004
        42.2504
   2099539.86747   1651186.40645
                  22762267.2274                                   22762264.8714
                                                                        47.2504
        33.2504
 -15255546.98848 -11874819.69146
                  22298863.8134                                   22298861.0514
                                                                        50.5004
        38.7504
 -12684485.93448  -9838407.03145
                  21340712.5314                                   21340709.0164
                                                                        51.0004
        35.7504
 -18957223.44548 -14730552.40645
                  22347665.1644                                   22347662.5554
                                                                        48.2504
        35.5004
   -515295.60247   -376726.53544
                  23381165.2344                                   23381158.8204
                                                                        44.5004
        25.5004
 -20952020.23448 -16314138.50046
                  21548622.5394                                   21548619.5314
                                                                        50.0004
        38.2504
   3745023.65646   2950002.22343
                  24328665.2274                                   24328661.4964
                                                                        39.7504
        18.5004
  -7412650.59847  -5739688.73844
                  23178188.9224                                   23178185.4144
                                                                        44.7504
        27.0004
 09 10 15  0 26 30.0000000  0  9G02G04G05G13G29G23G10G16G25
 -10106798.12948  -7834230.40246
                  20674522.1334                                   20674516.7194
                                                                        53.0004
        41.7504
   2115304.62547   1663470.60945
                  22765267.4064                                   22765264.6884
                                                                        46.2504
        33.2504
 -15429685.77348 -12010512.24246
                  22265726.8984                                   22265723.2384
                                                                        49.7504
        38.0004
 -12744457.58248  -9885138.18746
                  21329300.4224                                   21329297.0044
                                                                        51.0004
        36.0004
 -19084686.34848 -14829874.07846
                  22323409.8914                                   22323406.9574
                                                                        48.7504
        36.2504
   -508628.12947   -371531.08244
                  23382433.7664                                   23382428.1724
                                                                        44.2504
        26.7504
 -21114366.56648 -16440642.17246
                  21517728.9844                                   21517726.0394
                                                                        50.5004
        38.5004
   3595235.70746   2833284.33243
                  24300161.6804                                   24300157.3954
                                                                        41.5004
        20.0004
  -7556883.39147  -5852077.89844
                  23150741.3834                                   23150738.9264
                                                                        44.7504
        27.2504
 09 10 15  0 27  0.0000000  0  9G02G04G05G13G29G23G10G16G25
 -10155089.28548  -7871859.86347
                  20665332.2664                                   20665327.4964
                                                                        52.5004
        42.0004
   2131366.41447   1675986.27345
                  22768323.9774                                   22768321.1454
                                                                        47.5004
        33.0004
 -15603474.39548 -12145931.89846
                  22232655.4304                                   22232652.4574
                                                                        50.0004
        38.2504
 -12803761.37148  -9931348.93446
                  21318015.5784                                   21318011.6954
                                                                        50.0004
        36.2504
 -19211572.45348 -14928746.31246
                  22299264.5944                                   22299261.5664
                                                                        48.0004
        36.5004
   -501576.76247   -366036.49244
                  23383775.1564                                   23383769.5234
                                                                        43.7504
        27.2504
 -21276261.26648 -16566793.91446
                  21486921.5004                                   21486918.5664
                                                                        50.0004
        38.2504
   3445941.67246   2716951.29743
                  24271752.2344                                   24271748.1174
                                                                        41.7504
        18.2504
  -7700622.92647  -5964082.72344
                  23123388.6254                                   23123386.1094
                                                                        44.0004
        26.5004
 09 10 15  0 27 30.0000000  0  9G02G04G05G13G29G23G10G16G25
 -10202793.25848  -7909031.77746
                  20656254.8134                                   20656249.3594
                                                                        53.0004
        41.7504
   2147724.20747   1688732.60245
                  22771436.8204                                   22771433.9264
                                                                        47.0004
        33.0004
 -15776909.96148 -12281076.50446
                  22199652.0234                                   22199648.5514
                                                                        50.5004
        38.0004
 -12862396.71948  -9977038.81246
                  21306857.0554                                   21306853.5944
                                                                        50.7504
        36.5004
 -19337878.91848 -15027166.92246
                  22275229.3204                                   22275226.3984
                                                                        49.2504
        37.0004
   -494142.52747   -360243.55144
                  23385189.8594                                   23385184.7344
                                                                        44.0004
        26.0004
 -21437700.92648 -16692591.09046
                  21456200.4224                                   21456197.4924
                                                                        50.5004
        38.0004
   3297145.48847   2601006.17643
                  24243437.4844                                   24243433.0124
                                                                        42.0004
        19.2504
  -7843865.75847  -6075700.48044
                  23096131.0234                                   23096127.6914
                                                                        45.5004
        28.2504
 09 10 15  0 28  0.0000000  0  9G02G04G05G13G29G23G10G16G25
 -10249911.10248  -7945747.01646
                  20647288.4534                                   20647283.7774
                                                                        52.7504
        41.7504
   2164375.99247   1701708.01245
                  22774605.8364                                   22774602.9064
                                                                        46.5004
        32.5004
 -15949990.59048 -12415944.57446
                  22166715.7034                                   22166712.1884
                                                                        49.7504
        37.7504
 -12920365.13748 -10022209.00846
                  21295826.5004                                   21295822.5204
                                                                        50.5004
        36.2504
 -19463604.42248 -15125134.79746
                  22251304.3364                                   22251301.8244
                                                                        49.5004
        36.5004
   -486328.52047   -354154.69544
                  23386676.5004                                   23386671.8484
                                                                        44.0004
        27.0004
 -21598684.11748 -16818032.57446
                  21425566.5634                                   21425563.8054
                                                                        50.7504
        39.0004
   3148848.82047   2485450.33643
                  24215217.2504                                   24215213.3554
                                                                        43.0004
        20.2504
  -7986610.12947  -6186929.82044
                  23068967.8984                                   23068964.5984
                                                                        45.5004
        28.5004
 09 10 15  0 28 30.0000000  0 10G02G04G05G13G29G23G10G16G07G25
 -10296443.46548  -7982005.98047
                  20638433.5554                                   20638428.2114
                                                                        52.0004
        42.0004
   2181319.71147   1714910.88345
                  22777829.4304                                   22777826.8524
                                                                        45.0004
        32.7504
 -16122714.18748 -12550534.43046
                  22133847.6024                                   22133843.9494
                                                                        49.7504
        37.5004
 -12977667.53148 -10066860.21545
                  21284921.7584                                   21284918.4344
                                                                        50.5004
        35.5004
 -19588747.52348 -15222648.87946
                  22227490.4454                                   22227487.5234
                                                                        49.7504
        36.7504
   -478137.22747   -347771.88744
                  23388235.8594                                   23388230.5164
                                                                        45.5004
        28.5004
 -21759208.45748 -16943116.48846
                  21395019.7814                                   21395017.1214
                                                                        50.5004
        38.5004
   3001054.76247   2370286.12543
                  24187093.5004                                   24187088.8594
                                                                        43.0004
        21.2504
   4456146.71156   3510445.91453
                  24399697.4384                                   24399694.0124
                                                                        39.5004
        20.5004
  -8128853.71147  -6297768.93744
                  23041900.4224                                   23041896.3794
                                                                        45.5004
        28.5004
 09 10 15  0 29  0.0000000  0 10G02G04G05G13G29G23G10G16G07G25
 -10342392.25048  -8017810.20346
                  20629689.8524                                   20629684.5824
                                                                        53.2504
        41.7504
   2198552.14547   1728338.74645
                  22781108.5554                                   22781105.9534
                                                                        46.0004
        32.2504
 -16295079.94948 -12684845.45746
                  22101047.5784                                   22101044.1214
                                                                        48.7504
        38.2504
 -13034305.79748 -10110993.91446
                  21274143.8524                                   21274140.3204
                                                                        50.0004
        36.0004
 -19713307.70748 -15319708.75846
                  22203787.4454                                   22203784.5234
                                                                        49.0004
        36.2504
   -469572.18047   -341097.82444
                  23389866.3054                                   23389860.3014
                                                                        45.5004
        27.0004
 -21919273.21548 -17067842.28146
                  21364560.6254                                   21364557.6524
                                                                        51.0004
        38.2504
   2853764.27747   2255514.28543
                  24159064.6334                                   24159060.5204
                                                                        43.2504
        22.0004
   4273195.00447   3367886.14144
                  24364883.6254                                   24364879.9614
                                                                        42.5004
        25.7504
  -8270595.40247  -6408216.97344
                  23014927.7734                                   23014924.3634
                                                                        45.0004
        28.7504
 09 10 15  0 29 30.0000000  0 10G02G04G05G13G29G23G10G16G07G25
 -10387763.25048  -8053164.21947
                  20621055.8914                                   20621051.0234
                                                                        52.0004
        42.0004
   2216066.33247   1741986.13745
                  22784441.9224                                   22784439.1054
                                                                        45.2504
        33.0004
 -16467090.91848 -12818880.00846
                  22068314.9844                                   22068312.0704
                                                                        50.0004
        38.5004
 -13090286.09848 -10154614.91446
                  21263491.0634                                   21263487.9614
                                                                        50.0004
        36.0004
 -19837288.32848 -15416317.02346
                  22180194.2974                                   22180192.0434
                                                                        48.0004
        36.2504
   -460640.75447   -334138.25444
                  23391565.2424                                   23391559.6174
                                                                        45.0004
        26.0004
 -22078881.86748 -17192212.68446
                  21334188.3134                                   21334185.8014
                                                                        50.7504
        39.0004
   2706974.73447   2141132.79743
                  24131131.5784                                   24131127.1884
                                                                        42.2504
        22.5004
   4090510.03947   3225534.23444
                  24330119.3204                                   24330116.2934
                                                                        43.0004
        27.5004
  -8411838.09847  -6518276.17644
                  22988049.5944                                   22988046.4344
                                                                        45.0004
        28.5004
 09 10 15  0 30  0.0000000  0 10G02G04G05G13G29G23G10G16G07G25
 -10432556.84048  -8088068.33247
                  20612532.3834                                   20612526.9304
                                                                        52.5004
        42.0004
   2233860.76647   1755851.90245
                  22787827.8364                                   22787825.3014
                                                                        46.5004
        33.0004
 -16638744.27348 -12952635.91846
                  22035650.5394                                   22035647.3714
                                                                        49.5004
        38.7504
 -13145609.00448 -10197723.66046
                  21252963.6024                                   21252959.9734
                                                                        50.5004
        36.2504
 -19960687.05548 -15512471.85946
                  22156712.6644                                   22156710.0314
                                                                        48.0004
        36.5004
   -451345.13347   -326894.88344
                  23393333.9144                                   23393327.8444
                                                                        44.0004
        24.7504
 -22238031.49648 -17316225.38746
                  21303903.0394                                   21303900.1414
                                                                        50.5004
        39.0004
   2560689.01246   2027143.94143
                  24103294.6804                                   24103289.9344
                                                                        40.7504
        22.5004
   3908094.94947   3083392.66044
                  24295406.7894                                   24295404.0944
                                                                        43.2504
        28.5004
  -8552579.18747  -6627944.53944
                  22961267.4774                                   22961264.5274
                                                                        44.2504
        28.2504
 09 10 15  0 30 30.0000000  0 10G02G04G05G13G29G23G10G16G07G25
 -10476770.83248  -8122520.77347
                  20604118.4534                                   20604113.6954
                                                                        52.0004
        42.0004
   2251936.52747   1769936.87945
                  22791268.1644                                   22791264.8834
                                                                        45.5004
        33.0004
 -16810035.44948 -13086109.62946
                  22003054.9924                                   22003051.8324
                                                                        49.5004
        38.5004
 -13200272.40648 -10240318.50446
                  21242561.6724                                   21242558.5984
                                                                        49.5004
        36.0004
 -20083499.54748 -15608169.85246
                  22133341.7344                                   22133339.1174
                                                                        48.2504
        36.2504
   -441684.87947   -319367.34443
                  23395172.6414                                   23395166.0864
                                                                        43.0004
        22.5004
 -22396717.52348 -17439876.84846
                  21273706.0474                                   21273702.9574
                                                                        51.0004
        38.7504
   2414912.32846   1913551.73043
                  24075553.5474                                   24075549.7854
                                                                        39.2504
        21.5004
   3725955.95747   2941466.19944
                  24260746.9224                                   24260744.0554
                                                                        43.2504
        26.5004
  -8692813.56247  -6737218.03944
                  22934581.8834                                   22934578.6914
                                                                        44.5004
        28.0004
 09 10 15  0 31  0.0000000  0 10G02G04G05G13G29G23G10G16G07G25
 -10520402.98448  -8156519.86347
                  20595815.3284                                   20595810.5004
                                                                        51.0004
        42.0004
   2270294.72747   1784241.94945
                  22794761.4924                                   22794758.6764
                                                                        45.2504
        32.7504
 -16980959.08248 -13219296.91046
                  21970529.3444                                   21970526.1294
                                                                        49.5004
        39.0004
 -13254274.55548 -10282398.11346
                  21232285.4454                                   21232282.1524
                                                                        49.0004
        36.2504
 -20205720.94548 -15703407.28946
                  22110084.2424                                   22110081.6294
                                                                        48.0004
        36.7504
   -431659.27047   -311555.14543
                  23397079.5164                                   23397074.1684
                                                                        42.5004
        22.5004
 -22554934.54748 -17563162.85946
                  21243598.2194                                   21243595.2704
                                                                        50.7504
        38.7504
   2269650.30946   1800360.52743
                  24047911.0944                                   24047907.0594
                                                                        38.0004
        20.7504
   3544098.88747   2799759.44544
                  24226140.9614                                   24226137.4694
                                                                        42.2504
        25.0004
  -8832535.83647  -6846092.48844
                  22907993.2974                                   22907990.1844
                                                                        45.5004
        28.0004
 09 10 15  0 31 30.0000000  0 10G02G04G05G13G29G23G10G16G07G25
 -10563453.93748  -8190066.05147
                  20587623.3204                                   20587618.2504
                                                                        52.5004
        42.2504
   2288933.46547   1798765.61745
                  22798308.1954                                   22798305.6334
                                                                        45.7504
        32.2504
 -17151513.29748 -13352196.31646
                  21938073.8364                                   21938070.6764
                                                                        49.2504
        39.0004
 -13307616.81248 -10323963.49645
                  21222134.8754                                   21222131.0984
                                                                        50.0004
        35.7504
 -20327350.04348 -15798183.19546
                  22086938.4534                                   22086935.9774
                                                                        49.2504
        37.0004
   -421270.97347   -303460.32444
                  23399056.8524                                   23399051.2384
                                                                        43.2504
        25.7504
 -22712681.00448 -17686082.18046
                  21213580.2034                                   21213577.3164
                                                                        50.5004
        39.0004
   2124905.21546   1687572.14143
                  24020366.0944                                   24020363.8714
                                                                        38.2504
        20.7504
   3362527.41846   2658275.25043
                  24191588.7114                                   24191585.1844
                                                                        40.5004
        22.5004
  -8971743.94147  -6954566.30944
                  22881502.5864                                   22881500.0084
                                                                        44.5004
        28.5004
 09 10 15  0 32  0.0000000  0 10G02G04G05G13G29G23G10G16G07G25
 -10605924.18048  -8223159.72346
                  20579541.3914                                   20579536.2584
                                                                        52.0004
        41.7504
   2307851.21947   1813506.69545
                  22801908.0634                                   22801905.6914
                                                                        45.5004
        31.5004
 -17321695.33248 -13484805.70346
                  21905689.6094                                   21905686.1334
                                                                        48.5004
        38.7504
 -13360299.52748 -10365014.95746
                  21212109.1804                                   21212105.6604
                                                                        49.0004
        36.0004
 -20448384.40248 -15892495.60246
                  22063906.4614                                   22063903.8364
                                                                        49.0004
        36.7504
   -410521.67647   -295084.23844
                  23401102.6804                                   23401097.0164
                                                                        43.7504
        26.7504
 -22869953.87148 -17808632.44146
                  21183652.1334                                   21183649.0744
                                                                        51.0004
        38.7504
   1980680.03546   1575188.91443
                  23992920.8054                                   23992918.3794
                                                                        38.5004
        19.7504
   3181245.22346   2517016.44143
                  24157091.4454                                   24157087.8754
                                                                        41.2504
        22.7504
  -9110435.36747  -7062637.55544
                  22855110.6804                                   22855108.0664
                                                                        44.2504
        29.0004
 09 10 15  0 32 30.0000000  0 10G02G04G05G13G29G23G10G16G07G25
  -9072393.27748  -7028200.58247
                  20871362.5234                                   20871357.3484
                                                                        52.2504
        42.5004
   3902465.09847   3056062.94145
                  23105352.7664                                   23105350.6844
                                                                        46.7504
        31.5004
 -15916077.82448 -12389519.36746
                  22173169.3674                                   22173166.3874
                                                                        49.0004
        39.0004
 -11836902.45348  -9177952.31245
                  21502002.3754                                   21501998.4924
                                                                        49.7504
        35.7504
 -18993399.09048 -14758740.77346
                  22340780.9774                                   22340778.7624
                                                                        49.5004
        36.5004
   1176005.43847    941170.64544
                  23703008.4144                                   23703003.4534
                                                                        44.5004
        27.2504
 -21451326.57048 -16703208.54346
                  21453607.9144                                   21453604.4844
                                                                        51.5004
        39.5004
   3412401.65246   2690816.17643
                  24265369.7034                                   24265366.7154
                                                                        40.2504
        21.2504
   4575681.12547   3603589.90243
                  24422443.5944                                   24422440.1954
                                                                        42.2504
        22.5004
  -7673183.50047  -5942701.07844
                  23128610.7504                                   23128607.6414
                                                                        43.5004
        28.7504
 09 10 15  0 33  0.0000000  0 10G02G04G05G13G29G23G10G16G07G25
  -9113705.06648  -7060391.59447
                  20863501.2274                                   20863496.3634
                                                                        52.5004
        42.5004
   3921934.06347   3071233.55545
                  23109057.5164                                   23109055.0044
                                                                        47.5004
        31.2504
 -16085510.67248 -12521545.01246
                  22140927.6644                                   22140924.5394
                                                                        49.2504
        39.0004
 -11888270.14148  -9217979.07045
                  21492227.5864                                   21492223.7154
                                                                        48.5004
        35.5004
 -19113240.39148 -14852123.54346
                  22317976.0314                                   22317973.0944
                                                                        49.7504
        36.2504
   1187468.26647    950102.74644
                  23705189.8364                                   23705184.6524
                                                                        44.0004
        28.5004
 -21607647.78948 -16825017.26246
                  21423860.9454                                   21423857.6804
                                                                        51.5004
        39.5004
   3269222.39146   2579247.92643
                  24238124.2584                                   24238120.0944
                                                                        41.0004
        22.5004
   4394985.86747   3462788.39844
                  24388059.2734                                   24388055.0004
                                                                        44.5004
        24.5004
  -7810835.77047  -6049962.60244
                  23102416.7034                                   23102413.2194
                                                                        44.0004
        28.2504
 09 10 15  0 33 30.0000000  0 10G02G04G05G13G29G23G10G16G07G25
  -9154438.83248  -7092132.19147
                  20855749.7194                                   20855744.7704
                                                                        51.7504
        42.0004
   3941675.84847   3086616.74645
                  23112814.9304                                   23112811.6334
                                                                        47.2504
        32.0004
 -16254565.20348 -12653275.84446
                  22108757.4694                                   22108754.4064
                                                                        49.7504
        38.7504
 -11938982.09448  -9257494.88345
                  21482577.3674                                   21482573.9104
                                                                        49.5004
        35.5004
 -19232482.82848 -14945039.70746
                  22295284.8444                                   22295281.9614
                                                                        49.0004
        36.5004
   1199283.96947    959309.79344
                  23707438.4614                                   23707433.1174
                                                                        43.0004
        26.7504
 -21763490.01648 -16946452.78546
                  21394204.9774                                   21394202.2704
                                                                        51.0004
        39.2504
   3126569.78547   2468089.98843
                  24210978.1724                                   24210973.8594
                                                                        42.0004
        21.2504
   4214588.78147   3322219.24244
                  24353730.8364                                   24353727.3834
                                                                        43.7504
        27.2504
  -7947965.12547  -6156816.63744
                  23076321.9774                                   23076318.4534
                                                                        45.5004
        29.0004
 09 10 15  0 34  0.0000000  0 10G02G04G05G13G29G23G10G16G07G25
  -9194598.69948  -7123425.57846
                  20848107.5634                                   20848102.1764
                                                                        52.0004
        41.2504
   3961685.30948   3102208.51245
                  23116623.0164                                   23116619.5274
                                                                        48.7504
        32.5004
 -16423243.11348 -12784713.19146
                  22076659.1644                                   22076655.7734
                                                                        49.0004
        39.0004
 -11989042.63348  -9296503.09445
                  21473050.7664                                   21473047.2034
                                                                        49.0004
        35.5004
 -19351128.55948 -15037490.89846
                  22272707.4774                                   22272704.8524
                                                                        48.5004
        36.5004
   1211447.03946    968787.51643
                  23709752.5164                                   23709747.5594
                                                                        40.5004
        22.5004
 -21918854.89548 -17067516.35246
                  21364640.0784                                   21364636.9964
                                                                        50.5004
        39.0004
   2984442.64546   2357341.52743
                  24183932.8594                                   24183927.3054
                                                                        41.2504
        22.0004
   4034489.50447   3181882.14544
                  24319458.6724                                   24319455.4184
                                                                        42.5004
        26.2504
  -8084572.99647  -6263264.32844
                  23050326.1804                                   23050322.7624
                                                                        43.7504
        28.0004
 09 10 15  0 34 30.0000000  0 10G02G04G05G13G29G23G10G16G07G25
  -9234184.55148  -7154271.68446
                  20840574.6884                                   20840569.6764
                                                                        51.7504
        41.7504
   3981961.65247   3118008.24245
                  23120480.8524                                   23120478.3554
                                                                        47.0004
        32.2504
 -16591541.36748 -12915854.69146
                  22044633.2034                                   22044629.8134
                                                                        50.2504
        38.7504
 -12038451.94548  -9335003.85545
                  21463648.7734                                   21463645.0634
                                                                        50.0004
        35.0004
 -19469174.60948 -15129474.80546
                  22250243.8674                                   22250241.0164
                                                                        49.0004
        37.2504
   1223956.33246    978535.01243
                  23712132.9064                                   23712127.2774
                                                                        41.5004
        22.2504
 -22073739.14548 -17188205.39146
                  21335166.8054                                   21335164.1724
                                                                        50.5004
        39.2504
   2842844.71946   2247005.39843
                  24156987.0554                                   24156981.6844
                                                                        41.0004
        19.5004
   3854692.94146   3041781.00844
                  24285244.1174                                   24285241.6994
                                                                        41.2504
        26.0004
  -8220655.90247  -6369302.92244
                  23024430.0314                                   23024426.7154
                                                                        44.5004
        29.0004
 09 10 15  0 35  0.0000000  0 10G02G04G05G13G29G23G10G16G07G25
  -9273201.08648  -7184674.17247
                  20833150.0164                                   20833145.0354
                                                                        52.5004
        42.0004
   4002499.42647   3134011.66845
                  23124388.8054                                   23124386.7304
                                                                        47.0004
        31.5004
 -16759461.54348 -13046701.59446
                  22012679.1804                                   22012675.9454
                                                                        49.0004
        38.7504
 -12087214.81648  -9373000.88345
                  21454369.5554                                   21454365.6684
                                                                        49.2504
        35.5004
 -19586623.18748 -15220993.16846
                  22227894.0634                                   22227891.4224
                                                                        49.0004
        36.7504
   1236805.32847    988547.25043
                  23714577.8834                                   23714571.9184
                                                                        43.0004
        22.0004
 -22228144.49648 -17308521.24646
                  21305784.2114                                   21305781.1764
                                                                        51.0004
        39.5004
   2701774.44146   2137080.43443
                  24130142.0634                                   24130136.9694
                                                                        40.0004
        19.0004
   3675198.16846   2901915.01644
                  24251087.1254                                   24251084.7274
                                                                        39.5004
        24.5004
  -8356215.50447  -6474933.76244
                  22998634.4694                                   22998630.7894
                                                                        44.2504
        29.2504
 09 10 15  0 35 30.0000000  0 10G02G04G05G13G29G23G10G16G07G25
  -9311647.33648  -7214632.28547
                  20825834.2894                                   20825828.9144
                                                                        52.0004
        42.0004
   4023297.66447   3150218.05545
                  23128346.4534                                   23128344.0004
                                                                        47.0004
        30.7504
 -16927000.04348 -13177251.07446
                  21980797.5634                                   21980794.4774
                                                                        50.2504
        39.2504
 -12135331.35548  -9410494.28146
                  21445213.1254                                   21445209.5474
                                                                        49.0004
        36.0004
 -19703471.44148 -15312043.75046
                  22205658.8364                                   22205656.3404
                                                                        48.7504
        36.7504
   1249993.10247    998823.51644
                  23717087.7664                                   23717081.4614
                                                                        44.5004
        24.0004
 -22382067.80148 -17428461.43746
                  21276493.7584                                   21276490.3594
                                                                        51.0004
        39.2504
   2561235.38346   2027569.46143
                  24103398.3914                                   24103394.1134
                                                                        39.0004
        19.7504
   3496009.71946   2762287.75044
                  24216989.3134                                   24216986.3204
                                                                        40.0004
        25.2504
  -8491248.76247  -6580154.52344
                  22972938.2114                                   22972934.6414
                                                                        44.5004
        28.2504
 09 10 15  0 36  0.0000000  0 10G02G04G05G13G29G23G10G16G07G25
  -9349526.09848  -7244148.18447
                  20818626.0784                                   20818620.5784
                                                                        52.0004
        42.0004
   4044353.29347   3166625.03145
                  23132353.2734                                   23132350.9184
                                                                        46.5004
        31.5004
 -17094156.02748 -13307502.50446
                  21948988.7734                                   21948985.7424
                                                                        50.5004
        39.7504
 -12182804.11748  -9447486.03945
                  21436179.3984                                   21436175.8204
                                                                        49.2504
        35.0004
 -19819718.93748 -15402626.13346
                  22183537.5084                                   22183534.4024
                                                                        49.5004
        37.2504
   1263515.96547   1009360.84844
                  23719661.3054                                   23719655.2074
                                                                        44.2504
        25.2504
 -22535508.77348 -17548025.84046
                  21247294.8524                                   21247291.8444
                                                                        51.5004
        39.2504
   2421228.69946   1918473.30543
                  24076755.5314                                   24076751.9064
                                                                        39.0004
        19.5004
   3317129.50847   2622900.62544
                  24182949.7034                                   24182946.5664
                                                                        42.7504
        27.0004
  -8625754.53947  -6684964.16844
                  22947342.9064                                   22947339.1334
                                                                        43.2504
        29.0004
 09 10 15  0 36 30.0000000  0 10G02G04G05G13G29G23G10G16G07G25
  -9386839.71148  -7273223.71546
                  20811525.4614                                   20811520.2424
                                                                        52.0004
        41.7504
   4065662.87147   3183229.87145
                  23136408.3834                                   23136405.7154
                                                                        46.2504
        31.5004
 -17260929.44948 -13437455.80546
                  21917252.8284                                   21917249.8204
                                                                        49.5004
        39.0004
 -12229635.78148  -9483978.24245
                  21427267.5004                                   21427263.9574
                                                                        50.2504
        35.7504
 -19935366.21948 -15492740.82446
                  22161530.3364                                   22161527.7584
                                                                        48.5004
        37.2504
   1277369.89547   1020156.10544
                  23722297.4534                                   23722292.7114
                                                                        43.7504
        26.0004
 -22688466.47748 -17667213.68046
                  21218188.0784                                   21218185.0204
                                                                        51.0004
        39.7504
   2281754.90246   1809792.44143
                  24050214.5394                                   24050211.3134
                                                                        38.7504
        21.7504
   3138558.87947   2483754.72344
                  24148969.0554                                   24148964.9224
                                                                        43.0004
        26.2504
  -8759732.66847  -6789362.69544
                  22921847.4304                                   22921843.8914
                                                                        43.5004
        28.5004
 09 10 15  0 37  0.0000000  0 10G02G04G05G13G29G23G10G16G07G25
  -9423589.49248  -7301859.92646
                  20804532.2194                                   20804526.8204
                                                                        51.0004
        41.7504
   4087224.24247   3200030.92645
                  23140511.5554                                   23140509.2894
                                                                        45.0004
        31.0004
 -17427318.61748 -13567109.68046
                  21885589.9454                                   21885586.6604
                                                                        50.5004
        39.5004
 -12275827.64148  -9519971.88745
                  21418477.6724                                   21418474.0004
                                                                        50.0004
        35.5004
 -20050412.41048 -15582387.20746
                  22139637.5704                                   22139634.9614
                                                                        49.0004
        37.0004
   1291551.90247   1031207.02744
                  23724995.9694                                   23724990.9694
                                                                        42.5004
        25.5004
 -22840939.63348 -17786023.93746
                  21189173.3594                                   21189170.4964
                                                                        50.5004
        40.0004
   2142815.85546   1701528.18843
                  24023775.8444                                   24023772.8674
                                                                        38.5004
        22.0004
   2960300.99647   2344852.51244
                  24115047.3204                                   24115043.6484
                                                                        43.0004
        25.0004
  -8893181.32447  -6893348.69144
                  22896452.5634                                   22896449.0984
                                                                        43.5004
        28.0004
 09 10 15  0 37 30.0000000  0 10G02G04G05G13G29G23G10G16G07G25
  -9459776.14548  -7330057.30946
                  20797646.0704                                   20797640.8164
                                                                        52.0004
        41.7504
   4109035.50047   3217026.68845
                  23144662.2814                                   23144659.2274
                                                                        46.2504
        31.0004
 -17593320.87548 -13696462.07846
                  21854000.7424                                   21853997.7934
                                                                        50.7504
        39.7504
 -12321381.39148  -9555468.31245
                  21409808.9304                                   21409805.3714
                                                                        49.2504
        35.2504
 -20164855.84848 -15671563.91046
                  22117860.2504                                   22117857.3754
                                                                        49.0004
        37.5004
   1306060.07446   1042512.03143
                  23727756.3444                                   23727751.7034
                                                                        40.7504
        22.5004
 -22992925.77748 -17904454.69946
                  21160251.0704                                   21160248.3524
                                                                        50.5004
        39.2504
   2004414.13746   1593682.69943
                  23997438.2034                                   23997435.7734
                                                                        39.5004
        22.7504
   2782359.03547   2206196.43843
                  24081185.4924                                   24081181.7234
                                                                        42.5004
        23.0004
  -9026098.44147  -6996920.57444
                  22871159.2584                                   22871156.4964
                                                                        43.7504
        29.0004
 09 10 15  0 38  0.0000000  0 10G02G04G05G13G29G23G10G16G07G25
  -9495400.44148  -7357816.47347
                  20790866.8054                                   20790862.0394
                                                                        51.2504
        42.0004
   4131094.76647   3234215.71145
                  23148860.0314                                   23148857.5984
                                                                        43.5004
        30.0004
 -17758934.72748 -13825511.83646
                  21822485.7504                                   21822482.3054
                                                                        50.0004
        39.5004
 -12366298.43748  -9590468.60245
                  21401261.8594                                   21401258.4414
                                                                        49.2504
        35.5004
 -20278695.29748 -15760269.98046
                  22096197.3364                                   22096194.5204
                                                                        49.0004
        37.0004
   1320891.53546   1054068.98043
                  23730578.8054                                   23730574.2934
                                                                        40.7504
        22.7504
 -23144423.48048 -18022504.83246
                  21131422.2584                                   21131419.1684
                                                                        50.5004
        39.7504
   1866551.96946   1486257.63743
                  23971204.6804                                   23971200.8404
                                                                        38.5004
        22.0004
   2604736.03146   2067788.92244
                  24047385.3914                                   24047381.4844
                                                                        41.7504
        25.2504
  -9158481.96147  -7100076.60544
                  22845968.0004                                   22845965.1174
                                                                        42.5004
        28.7504
 09 10 15  0 38 30.0000000  0 10G02G04G05G13G29G23G10G16G07G25
  -9530464.01648  -7385138.73046
                  20784194.3054                                   20784189.6914
                                                                        52.0004
        41.5004
   4153399.72747   3251596.19145
                  23153104.0314                                   23153101.6524
                                                                        46.0004
        30.7504
 -17924158.09448 -13954257.29746
                  21791044.4844                                   21791040.9304
                                                                        50.0004
        39.0004
 -12410580.25448  -9624973.92645
                  21392835.4924                                   21392831.4454
                                                                        49.2504
        35.2504
 -20391929.55548 -15848504.44146
                  22074649.3834                                   22074647.1214
                                                                        49.7504
        37.0004
   1336043.37547   1065875.58643
                  23733462.0084                                   23733457.4264
                                                                        42.0004
        22.0004
 -23295431.00048 -18140173.00446
                  21102686.3524                                   21102683.2664
                                                                        50.5004
        39.5004
   1729231.09046   1379254.39143
                  23945073.5164                                   23945069.7934
                                                                        39.5004
        22.7504
   2427434.87547   1929632.23044
                  24013645.3984                                   24013642.6524
                                                                        42.2504
        25.7504
  -9290330.37947  -7202815.66844
                  22820877.4384                                   22820874.8324
                                                                        43.7504
        29.7504
 09 10 15  0 39  0.0000000  0 10G02G04G05G13G29G23G10G16G07G25
  -9564967.39148  -7412024.46147
                  20777628.6954                                   20777623.5474
                                                                        51.0004
        42.0004
   4175948.78547   3269166.84845
                  23157395.3364                                   23157393.0944
                                                                        46.5004
        31.0004
 -18088989.09448 -14082697.01246
                  21759678.3054                                   21759674.9884
                                                                        50.0004
        39.0004
 -12454227.50848  -9658984.77045
                  21384529.3524                                   21384525.4304
                                                                        49.0004
        35.5004
 -20504556.93048 -15936266.02346
                  22053216.7664                                   22053214.1174
                                                                        49.5004
        37.5004
   1351513.84447   1077930.53543
                  23736406.8984                                   23736400.7974
                                                                        44.2504
        23.5004
 -23445946.31248 -18257457.66846
                  21074044.4144                                   21074041.3364
                                                                        50.5004
        39.7504
   1592453.98446   1272674.80544
                  23919045.7114                                   23919042.2194
                                                                        40.2504
        25.5004
   2250458.88346   1791728.91844
                  23979968.1804                                   23979965.1914
                                                                        41.5004
        24.2504
  -9421641.25047  -7305135.80944
                  22795890.7504                                   22795887.1484
                                                                        44.2504
        29.5004
 09 10 15  0 39 30.0000000  0 10G02G04G05G13G29G23G10G16G07G25
  -9598915.31248  -7438477.37946
                  20771168.9144                                   20771163.4964
                                                                        51.0004
        41.7504
   4198736.44547   3286923.43845
                  23161731.5164                                   23161728.9144
                                                                        46.0004
        30.7504
 -18253429.04748 -14210832.02346
                  21728386.4304                                   21728383.2974
                                                                        50.5004
        39.2504
 -12497245.92248  -9692505.61745
                  21376343.2274                                   21376339.5904
                                                                        48.5004
        35.2504
 -20616579.73448 -16023556.53946
                  22031900.0784                                   22031897.5234
                                                                        49.5004
        37.2504
   1367296.83647   1090229.03143
                  23739410.4304                                   23739403.4884
                                                                        44.2504
        21.5004
 -23595971.25448 -18374360.23046
                  21045495.5704                                   21045492.3054
                                                                        50.7504
        39.7504
   1456218.96946   1166517.64843
                  23893121.5084                                   23893117.0084
                                                                        41.7504
        22.0004
   2073807.66446   1654078.70344
                  23946352.7974                                   23946350.1994
                                                                        41.2504
        27.0004
  -9552416.50047  -7407038.65244
                  22771004.6884                                   22771001.8444
                                                                        45.2504
        29.5004
 09 10 15  0 40  0.0000000  0 10G02G04G05G13G29G23G10G16G07G25
  -9632309.11348  -7464498.50046
                  20764813.9144                                   20764808.7194
                                                                        51.2504
        41.0004
   4221760.46547   3304864.20345
                  23166113.2584                                   23166110.4344
                                                                        46.0004
        31.0004
 -18417476.37548 -14338661.11746
                  21697168.9144                                   21697165.9384
                                                                        49.5004
        39.2504
 -12539637.17248  -9725537.78945
                  21368276.5394                                   21368272.3634
                                                                        48.7504
        35.0004
 -20727997.37548 -16110375.51246
                  22010697.8834                                   22010695.2704
                                                                        49.7504
        37.2504
   1383389.28547   1102768.60943
                  23742472.5704                                   23742466.3594
                                                                        42.7504
        22.2504
 -23745504.21148 -18490879.41446
                  21017040.0474                                   21017036.9804
                                                                        49.5004
        39.5004
   1320528.06647   1060784.44943
                  23867299.9694                                   23867295.6454
                                                                        42.5004
        22.7504
   1897484.37947   1516684.02044
                  23912799.9064                                   23912796.6524
                                                                        42.5004
        27.2504
  -9682654.34047  -7508522.68745
                  22746221.5234                                   22746218.3094
                                                                        45.0004
        30.0004
 09 10 15  0 40 30.0000000  0 10G02G04G05G13G29G23G10G16G07G25
  -9665152.62148  -7490090.84446
                  20758564.4304                                   20758558.7814
                                                                        52.5004
        41.0004
   4245016.31647   3322985.63345
                  23170538.4694                                   23170535.6294
                                                                        45.2504
        30.0004
 -18581131.59848 -14466184.67646
                  21666026.5474                                   21666023.6374
                                                                        49.7504
        40.0004
 -12581404.73048  -9758083.93045
                  21360328.2274                                   21360324.6454
                                                                        49.0004
        35.5004
 -20838810.57848 -16196723.48046
                  21989610.8284                                   21989608.2384
                                                                        50.0004
        37.2504
   1399786.55946   1115545.67643
                  23745591.9774                                   23745586.5124
                                                                        41.2504
        22.2504
 -23894545.81648 -18607015.73046
                  20988678.7504                                   20988675.6484
                                                                        49.7504
        39.7504
   1185381.06647    955475.11343
                  23841582.0164                                   23841577.8444
                                                                        42.0004
        22.0004
   1721489.07047   1379544.85244
                  23879309.2424                                   23879305.9454
                                                                        43.0004
        28.0004
  -9812355.55147  -7609588.55144
                  22721540.0864                                   22721536.7544
                                                                        45.7504
        29.5004
 09 10 15  0 41  0.0000000  0 10G02G04G05G13G29G23G10G16G07G25
  -9697446.57048  -7515254.96146
                  20752418.8834                                   20752413.4344
                                                                        51.7504
        41.5004
   4268502.44947   3341286.48845
                  23175007.8524                                   23175004.9414
                                                                        46.0004
        30.0004
 -18744392.30148 -14593400.81646
                  21634958.9144                                   21634956.1254
                                                                        50.0004
        40.5004
 -12622550.43748  -9790145.52745
                  21352498.2114                                   21352494.7464
                                                                        48.0004
        35.5004
 -20949018.25848 -16282599.61346
                  21968639.0474                                   21968636.4694
                                                                        49.5004
        37.2504
   1416486.23846   1128558.35543
                  23748770.6724                                   23748765.1374
                                                                        40.2504
        22.7504
 -24043093.80548 -18722767.39146
                  20960410.7504                                   20960407.9964
                                                                        49.5004
        39.7504
   1050779.95747    850591.10243
                  23815968.6884                                   23815964.1914
                                                                        42.2504
        22.5004
   1545825.32846   1242664.07044
                  23845881.4614                                   23845878.1454
                                                                        41.5004
        28.0004
  -9941518.26247  -7710234.89544
                  22696961.0314                                   22696958.4104
                                                                        45.2504
        28.5004
 09 10 15  0 41 30.0000000  0 10G02G04G05G13G29G23G10G16G07G25
  -9729191.20748  -7539991.02346
                  20746378.2974                                   20746372.9924
                                                                        52.0004
        41.2504
   4292217.62547   3359765.82844
                  23179520.7034                                   23179518.0784
                                                                        45.7504
        29.2504
 -18907256.02348 -14720307.62546
                  21603967.3674                                   21603964.0864
                                                                        49.7504
        40.0004
 -12663074.59448  -9821722.80145
                  21344787.2974                                   21344783.1994
                                                                        48.0004
        35.2504
 -21058618.42248 -16368002.33246
                  21947782.5784                                   21947780.0704
                                                                        49.5004
        37.2504
   1433486.59046   1141805.34443
                  23752005.2194                                   23752000.1484
                                                                        41.2504
        23.7504
 -24191146.00448 -18838132.73446
                  20932237.6414                                   20932234.7934
                                                                        50.2504
        39.7504
    916727.85246    746134.87543
                  23790459.3834                                   23790454.7544
                                                                        40.5004
        21.2504
   1370496.93447   1106044.58244
                  23812517.3914                                   23812514.1684
                                                                        44.5004
        25.5004
 -10070139.48047  -7810459.23844
                  22672485.6644                                   22672481.7464
                                                                        45.0004
        29.2504
 09 10 15  0 42  0.0000000  0 10G02G04G05G13G29G23G10G16G07G25
  -8184967.16848  -6336699.53146
                  21040234.0554                                   21040228.7894
                                                                        52.2504
        41.0004
   5891578.21547   4606020.79344
                  23483868.8444                                   23483866.2424
                                                                        45.5004
        29.7504
 -17494296.13348 -13619299.92246
                  21872844.4064                                   21872841.3914
                                                                        49.7504
        39.7504
 -11127558.07847  -8625216.44145
                  21636986.1174                                   21636982.4694
                                                                        47.2504
        34.2504
 -19592186.78948 -15225328.37146
                  22226835.1174                                   22226832.5124
                                                                        49.5004
        37.5004
   3026203.87546   2382883.73044
                  24055089.4614                                   24055084.4304
                                                                        41.7504
        24.2504
 -22763276.31248 -17725506.99246
                  21203951.9924                                   21203948.7424
                                                                        50.0004
        39.7504
   2358650.31646   1869710.78943
                  24064847.7814                                   24064843.8014
                                                                        41.2504
        21.2504
   2770932.37147   2197292.98844
                  24079011.0634                                   24079007.5944
                                                                        42.0004
        24.5004
  -8622793.98847  -6682657.52044
                  22947906.0634                                   22947902.8404
                                                                        44.2504
        28.7504
 09 10 15  0 42 30.0000000  0 10G02G04G05G13G29G23G10G16G07G25
  -8215618.14148  -6360583.40646
                  21034401.5004                                   21034396.0084
                                                                        52.0004
        41.2504
   5915743.91847   4624851.20344
                  23488467.4064                                   23488464.7584
                                                                        46.0004
        29.5004
 -17656361.53548 -13745584.65246
                  21842004.3834                                   21842001.1524
                                                                        50.5004
        40.2504
 -11166845.71148  -8655830.18745
                  21629510.1564                                   21629506.1994
                                                                        48.0004
        34.5004
 -19700570.02348 -15309782.92246
                  22206210.4924                                   22206207.9454
                                                                        49.7504
        37.2504
   3043796.42247   2396592.21143
                  24058437.5634                                   24058431.8754
                                                                        44.2504
        23.0004
 -22910333.00448 -17840096.60946
                  21175968.3984                                   21175965.0784
                                                                        50.7504
        40.2504
   2225700.32846   1766113.37943
                  24039548.4224                                   24039544.1024
                                                                        39.5004
        21.7504
   2596282.41047   2061202.14144
                  24045775.9224                                   24045772.2154
                                                                        42.5004
        24.5004
  -8750328.78547  -6782035.26644
                  22923637.1334                                   22923633.3674
                                                                        45.0004
        29.0004
 09 10 15  0 43  0.0000000  0 10G02G04G05G13G29G23G10G16G07G25
  -8245724.11348  -6384042.58646
                  21028672.1564                                   21028667.1724
                                                                        52.0004
        41.7504
   5940131.98847   4643854.87544
                  23493108.0944                                   23493105.8954
                                                                        45.5004
        29.0004
 -17818024.62148 -13871555.89546
                  21811240.9304                                   21811237.4184
                                                                        49.7504
        40.0004
 -11205517.42247  -8685963.97345
                  21622150.8594                                   21622147.2734
                                                                        47.5004
        34.7504
 -19808343.12948 -15393762.07846
                  22185702.3444                                   22185699.6134
                                                                        50.5004
        37.2504
   3061681.56647   2410528.69943
                  24061840.5474                                   24061834.6374
                                                                        43.7504
        22.7504
 -23056889.22348 -17954296.25446
                  21148079.2114                                   21148076.6134
                                                                        49.7504
        40.2504
   2093304.55946   1662947.86543
                  24014353.4454                                   24014350.5274
                                                                        39.5004
        20.5004
   2421976.33246   1925379.27044
                  24012607.0394                                   24012602.9184
                                                                        40.5004
        24.5004
  -8877317.61747  -6880987.59044
                  22899471.9774                                   22899468.1604
                                                                        45.5004
        29.2504
 09 10 15  0 43 30.0000000  0 10G02G04G05G13G29G23G10G16G07G25
  -8275285.19148  -6407077.18446
                  21023046.9384                                   21023041.8054
                                                                        52.2504
        41.2504
   5964741.83247   4663031.34444
                  23497791.8594                                   23497789.0474
                                                                        45.0004
        29.0004
 -17979282.53548 -13997211.41446
                  21780554.8284                                   21780551.2544
                                                                        50.7504
        40.0004
 -11243572.95348  -8715617.62945
                  21614909.3444                                   21614905.6094
                                                                        48.2504
        34.7504
 -19915503.48448 -15477263.70346
                  22165310.4614                                   22165307.8244
                                                                        49.7504
        37.7504
   3079857.78147   2424691.97743
                  24065300.0634                                   24065293.4264
                                                                        43.0004
        22.0004
 -23202942.01248 -18068103.60946
                  21120286.4064                                   21120283.5124
                                                                        50.0004
        40.0004
   1961466.30146   1560216.78143
                  23989265.6644                                   23989262.2384
                                                                        40.0004
        20.7504
   2248018.53547   1789827.75444
                  23979503.8834                                   23979500.6214
                                                                        42.0004
        27.0004
  -9003757.81647  -6979512.40244
                  22875410.6884                                   22875407.5904
                                                                        45.2504
        29.7504
 09 10 15  0 44  0.0000000  0 10G02G04G05G13G29G23G10G16G07G25
  -8304304.80948  -6429689.87546
                  21017524.5784                                   21017519.2504
                                                                        51.5004
        41.0004
   5989569.03547   4682377.17245
                  23502515.9304                                   23502513.9804
                                                                        46.0004
        30.5004
 -18140135.59048 -14122551.45746
                  21749945.3594                                   21749942.4224
                                                                        51.0004
        40.0004
 -11281016.34048  -8744794.31645
                  21607784.1564                                   21607780.4494
                                                                        49.0004
        34.7504
 -20022052.57848 -15560289.03146
                  22145034.6484                                   22145032.2114
                                                                        49.7504
        38.2504
   3098320.32446   2439078.37943
                  24068811.8754                                   24068807.3134
                                                                        41.5004
        20.0004
 -23348491.94548 -18181519.12946
                  21092589.1254                                   21092586.1844
                                                                        50.5004
        40.0004
   1830184.74246   1457919.48443
                  23964283.8834                                   23964279.8914
                                                                        41.2504
        20.7504
   2074409.58247   1654548.04744
                  23946467.1094                                   23946463.6254
                                                                        44.0004
        29.0004
  -9129649.77747  -7077610.02345
                  22851455.0084                                   22851451.8444
                                                                        45.0004
        30.5004
 09 10 15  0 44 30.0000000  0 10G02G04G05G13G29G23G10G16G07G25
  -8332786.13348  -6451883.09846
                  21012104.8674                                   21012099.7234
                                                                        51.7504
        41.0004
   6014609.47747   4701889.17245
                  23507281.0474                                   23507278.8364
                                                                        45.5004
        30.7504
 -18300584.14848 -14247576.30146
                  21719412.8444                                   21719409.5124
                                                                        50.7504
        40.0004
 -11317852.73048  -8773497.98845
                  21600774.3914                                   21600770.4614
                                                                        48.7504
        35.0004
 -20127991.69148 -15642839.03546
                  22124875.5634                                   22124872.8244
                                                                        49.7504
        37.0004
   3117064.63747   2453684.33643
                  24072379.4304                                   24072374.0594
                                                                        42.0004
        20.0004
 -23493539.81648 -18294543.43446
                  21064987.5394                                   21064984.6094
                                                                        49.2504
        40.2504
   1699459.70747   1356055.81343
                  23939408.4224                                   23939403.7114
                                                                        42.5004
        21.7504
   1901150.51247   1519541.00844
                  23913497.6804                                   23913494.4774
                                                                        42.0004
        29.5004
  -9254994.03147  -7175280.82444
                  22827602.8054                                   22827599.2934
                                                                        45.7504
        29.2504
 09 10 15  0 45  0.0000000  0 10G02G04G05G13G29G23G10G16G07G25
  -8360732.09848  -6473659.17246
                  21006787.3444                                   21006781.7774
                                                                        51.5004
        40.7504
   6039859.77347   4721564.69944
                  23512085.6564                                   23512083.9454
                                                                        45.7504
        29.7504
 -18460627.77748 -14372285.62146
                  21688957.7274                                   21688954.6844
                                                                        50.5004
        40.0004
 -11354083.87148  -8801730.02745
                  21593879.9694                                   21593875.8444
                                                                        49.5004
        34.2504
 -20233320.56648 -15724913.43446
                  22104832.1644                                   22104829.3594
                                                                        49.7504
        37.2504
   3136086.64847   2468506.69943
                  24075999.6564                                   24075994.4144
                                                                        42.5004
        22.5004
 -23638085.32848 -18407176.28146
                  21037481.3204                                   21037478.4024
                                                                        50.2504
        40.0004
   1569291.80947   1254626.23443
                  23914638.1174                                   23914633.9104
                                                                        42.5004
        22.0004
   1728242.90247   1384807.85944
                  23880593.8204                                   23880590.4734
                                                                        44.0004
        28.2504
  -9379790.29347  -7272524.63745
                  22803854.5084                                   22803851.1604
                                                                        45.7504
        30.0004
 09 10 15  0 45 30.0000000  0 10G02G04G05G13G29G23G10G16G07G25
  -8388143.01648  -6495018.30946
                  21001570.9144                                   21001565.4734
                                                                        51.0004
        40.7504
   6065318.82847   4741402.87944
                  23516930.7034                                   23516928.3054
                                                                        44.5004
        28.5004
 -18620263.41848 -14496677.03946
                  21658580.3054                                   21658577.1054
                                                                        51.0004
        40.7504
 -11389711.32848  -8829491.67645
                  21587100.0784                                   21587096.3954
                                                                        48.2504
        34.0004
 -20338037.69148 -15806511.11746
                  22084905.0474                                   22084902.2154
                                                                        50.0004
        37.7504
   3155384.90247   2483544.28143
                  24079671.8594                                   24079666.6454
                                                                        42.2504
        22.5004
 -23782125.77748 -18519415.59046
                  21010071.4534                                   21010068.3914
                                                                        49.7504
        40.5004
   1439684.21147   1153633.27043
                  23889974.5084                                   23889970.4574
                                                                        42.5004
        22.2504
   1555690.46547   1250351.46144
                  23847758.2734                                   23847755.1294
                                                                        42.7504
        28.0004
  -9504036.12547  -7369339.54745
                  22780211.2034                                   22780207.7344
                                                                        45.5004
        30.0004
 09 10 15  0 46  0.0000000  0 10G02G04G05G13G29G23G10G16G07G25
  -8415018.18048  -6515959.96946
                  20996456.7194                                   20996451.8164
                                                                        52.0004
        40.7504
   6090986.68447   4761403.77044
                  23521815.0704                                   23521812.8914
                                                                        45.5004
        27.5004
 -18779487.39548 -14620747.65246
                  21628280.6484                                   21628277.4844
                                                                        50.7504
        40.5004
 -11424734.19548  -8856782.22345
                  21580435.3444                                   21580431.9104
                                                                        49.0004
        34.7504
 -20442140.50848 -15887630.14846
                  22065094.7974                                   22065091.9774
                                                                        49.0004
        37.5004
   3174958.58646   2498796.46543
                  24083396.6254                                   24083391.4494
                                                                        40.5004
        22.7504
 -23925657.27348 -18631258.30546
                  20982758.1024                                   20982755.1764
                                                                        50.0004
        39.7504
   1310640.37947   1053079.64544
                  23865418.3134                                   23865414.5744
                                                                        42.7504
        25.0004
   1383498.41447   1116175.90244
                  23814990.9694                                   23814987.3364
                                                                        43.0004
        25.5004
  -9627727.85947  -7465722.71944
                  22756673.4224                                   22756670.3284
                                                                        45.0004
        29.7504
 09 10 15  0 46 30.0000000  0 10G02G04G05G13G29G23G10G16G07G25
  -8441360.97748  -6536486.79346
                  20991443.8984                                   20991438.7304
                                                                        50.0004
        41.2504
   6116859.34447   4781564.28544
                  23526738.8524                                   23526735.9734
                                                                        45.7504
        28.2504
 -18938299.77348 -14744497.52346
                  21598059.6334                                   21598056.4384
                                                                        51.2504
        40.0004
 -11459157.01648  -8883605.18745
                  21573885.1094                                   21573881.2974
                                                                        49.0004
        35.0004
 -20545629.76648 -15968271.11346
                  22045401.4614                                   22045398.7544
                                                                        49.7504
        37.5004
   3194803.37946   2514259.92643
                  24087172.9844                                   24087168.2544
                                                                        41.2504
        22.5004
 -24068680.30948 -18742704.81646
                  20955541.9454                                   20955538.6094
                                                                        49.5004
        40.0004
   1182159.89147    952964.97344
                  23840969.5784                                   23840965.6524
                                                                        42.7504
        24.5004
   1211667.43446    982281.66044
                  23782292.2194                                   23782288.8134
                                                                        40.7504
        24.7504
  -9750866.10247  -7561674.57445
                  22733241.0784                                   22733237.9144
                                                                        45.7504
        30.5004
 09 10 15  0 47  0.0000000  0 10G02G04G05G13G29G23G10G16G07G25
  -8467172.55948  -6556599.69546
                  20986532.0634                                   20986527.0314
                                                                        51.2504
        41.5004
   6142934.87147   4801882.82844
                  23531700.8444                                   23531697.9964
                                                                        45.2504
        28.0004
 -19096698.88748 -14867925.36346
                  21567917.2194                                   21567914.2544
                                                                        51.2504
        41.0004
 -11492980.71548  -8909961.30545
                  21567448.5234                                   21567444.9804
                                                                        49.7504
        34.7504
 -20648504.93448 -16048433.56646
                  22025824.8984                                   22025822.2424
                                                                        48.5004
        38.0004
   3214916.87946   2529932.74643
                  24091000.4064                                   24090995.4144
                                                                        40.7504
        23.7504
 -24211193.25448 -18853753.86746
                  20928422.3284                                   20928419.3324
                                                                        50.5004
        40.5004
   1054244.73447    853290.79744
                  23816627.7504                                   23816624.5634
                                                                        42.5004
        24.0004
   1040200.96547    848671.43444
                  23749663.5704                                   23749659.7114
                                                                        42.2504
        25.7504
  -9873448.83647  -7657193.59845
                  22709914.2274                                   22709911.3284
                                                                        45.5004
        30.0004
 09 10 15  0 47 30.0000000  0 10G02G04G05G13G29G23G10G16G07G25
  -8492454.73848  -6576300.05946
                  20981721.0164                                   20981715.7934
                                                                        51.5004
        41.2504
   6169210.93047   4822357.65244
                  23536700.8444                                   23536698.1954
                                                                        44.2504
        28.5004
 -19254682.98448 -14991029.83646
                  21537854.3054                                   21537850.8244
                                                                        51.0004
        40.7504
 -11526207.64548  -8935852.43745
                  21561125.8984                                   21561122.1524
                                                                        49.0004
        35.0004
 -20750764.92648 -16128116.67646
                  22006365.4614                                   22006362.9064
                                                                        49.0004
        37.2504
   3235295.89546   2545812.46943
                  24094878.6334                                   24094873.1414
                                                                        39.7504
        22.0004
 -24353194.78548 -18964404.39546
                  20901400.4614                                   20901397.4884
                                                                        50.5004
        40.7504
    926896.88746    754058.68044
                  23792394.4304                                   23792391.2584
                                                                        41.2504
        25.2504
    869101.21547    715346.91444
                  23717104.0394                                   23717100.4414
                                                                        43.0004
        26.0004
  -9995475.22347  -7752279.07044
                  22686693.1414                                   22686689.6804
                                                                        44.5004
        29.5004
 09 10 15  0 48  0.0000000  0 10G02G04G05G13G29G23G10G16G07G25
  -8517204.00448  -6595585.16846
                  20977011.2734                                   20977006.2814
                                                                        51.7504
        41.0004
   6195690.55947   4842991.09044
                  23541739.8134                                   23541737.6214
                                                                        44.5004
        29.7504
 -19412245.10948 -15113805.51646
                  21507870.9534                                   21507867.5234
                                                                        50.5004
        41.2504
 -11558834.92248  -8961276.29745
                  21554916.8364                                   21554913.1294
                                                                        48.7504
        33.7504
 -20852404.10548 -16207316.03546
                  21987024.3984                                   21987021.7304
                                                                        50.0004
        37.5004
   3255943.23446   2561901.31343
                  24098807.1724                                   24098801.9344
                                                                        40.2504
        21.5004
 -24494678.57048 -19074651.48846
                  20874476.9774                                   20874474.2034
                                                                        50.5004
        40.7504
    800122.44146    655273.41443
                  23768270.3054                                   23768266.6724
                                                                        41.0004
        22.5004
    698376.48047    582314.63344
                  23684616.6564                                   23684613.1094
                                                                        43.7504
        26.2504
 -10116938.57447  -7846925.80145
                  22663579.4224                                   22663576.9454
                                                                        44.7504
        30.0004
 09 10 15  0 48 30.0000000  0 10G02G04G05G13G29G23G10G16G07G25
  -8541427.65648  -6614460.73046
                  20972401.6174                                   20972396.4844
                                                                        50.5004
        41.0004
   6222365.53547   4863776.73044
                  23546816.2734                                   23546814.1804
                                                                        44.2504
        29.0004
 -19569390.17248 -15236256.20346
                  21477967.0234                                   21477963.6214
                                                                        51.2504
        40.5004
 -11590870.36748  -8986238.94145
                  21548820.5234                                   21548817.1134
                                                                        48.7504
        33.5004
 -20953427.73048 -16286035.71946
                  21967799.9064                                   21967797.3054
                                                                        49.0004
        38.0004
   3276850.16446   2578192.46543
                  24102786.5084                                   24102780.2584
                                                                        40.2504
        19.2504
 -24635649.20748 -19184498.73046
                  20847651.1094                                   20847647.9924
                                                                        50.7504
        40.7504
    673917.21146    556931.65243
                  23744253.9064                                   23744250.5664
                                                                        41.2504
        22.7504
    528023.35947    449571.94944
                  23652199.9614                                   23652195.9654
                                                                        43.5004
        29.7504
 -10237843.80947  -7941137.64845
                  22640572.4844                                   22640569.2934
                                                                        46.2504
        30.5004
 09 10 15  0 49  0.0000000  0  9G02G04G05G13G29G10G16G07G25
  -8565128.67248  -6632929.05546
                  20967891.3134                                   20967886.3134
                                                                        49.5004
        40.7504
   6249232.50447   4884711.92244
                  23551928.3284                                   23551926.4414
                                                                        42.7504
        28.5004
 -19726117.37548 -15358381.28946
                  21448143.0704                                   21448139.8914
                                                                        51.0004
        41.0004
 -11622316.07048  -9010742.08245
                  21542836.7194                                   21542833.3754
                                                                        49.0004
        33.7504
 -21053836.34048 -16364276.19146
                  21948692.9774                                   21948689.9304
                                                                        48.0004
        37.5004
 -24776106.39848 -19293945.87946
                  20820923.0314                                   20820919.7854
                                                                        50.0004
        40.7504
    548281.91446    459034.02743
                  23720345.7584                                   23720342.6994
                                                                        40.5004
        22.2504
    358043.89847    317120.44544
                  23619853.7344                                   23619850.3594
                                                                        43.7504
        29.0004
 -10358190.41847  -8034914.23845
                  22617671.1334                                   22617667.9774
                                                                        46.5004
        30.5004
 09 10 15  0 49 30.0000000  0  9G02G04G05G13G29G10G16G07G25
  -8588306.50048  -6650989.70746
                  20963480.8914                                   20963475.5274
                                                                        50.5004
        40.7504
   6276291.73047   4905797.05144
                  23557077.3754                                   23557075.6454
                                                                        42.7504
        27.7504
 -19882423.02748 -15480177.89546
                  21418399.0634                                   21418395.6994
                                                                        50.7504
        41.2504
 -11653173.78148  -9034787.04745
                  21536964.8204                                   21536960.8284
                                                                        49.2504
        34.0004
 -21153627.28548 -16442035.34046
                  21929703.2734                                   21929700.3594
                                                                        48.5004
        37.7504
 -24916046.49648 -19402990.10946
                  20794293.5784                                   20794290.3874
                                                                        50.7504
        41.0004
    423219.72346    361582.96543
                  23696547.6174                                   23696543.9694
                                                                        40.2504
        22.5004
    188442.90247    184963.85245
                  23587579.5084                                   23587576.4844
                                                                        43.0004
        30.0004
 -10477975.23447  -8128253.08645
                  22594876.8054                                   22594873.2854
                                                                        45.7504
        30.5004
 09 10 15  0 50  0.0000000  0  9G02G04G05G13G29G10G16G07G25
  -8610960.07448  -6668641.85946
                  20959170.3524                                   20959165.1994
                                                                        50.7504
        40.5004
   6303543.05147   4927031.75044
                  23562263.9224                                   23562261.2664
                                                                        43.2504
        28.5004
 -20038302.94948 -15601642.78546
                  21388735.9844                                   21388733.2624
                                                                        50.7504
        40.7504
 -11683442.36748  -9058372.98445
                  21531204.8524                                   21531201.3714
                                                                        48.7504
        34.5004
 -21252797.54748 -16519310.85246
                  21910831.8674                                   21910829.1454
                                                                        49.2504
        37.7504
 -25055465.85948 -19511628.55546
                  20767762.9304                                   20767759.6914
                                                                        50.5004
        40.2504
    298734.72746    264581.72343
                  23672859.0634                                   23672854.9774
                                                                        39.5004
        22.0004
     19225.07447     53105.80944
                  23555377.8914                                   23555375.4184
                                                                        42.0004
        28.5004
 -10597194.59047  -8221151.31645
                  22572190.4454                                   22572186.6054
                                                                        45.5004
        31.2504
 09 10 15  0 50 30.0000000  0  9G02G04G05G13G29G10G16G07G25
  -8633087.53548  -6685884.03546
                  20954959.5704                                   20954954.0554
                                                                        49.5004
        40.5004
   6330988.27747   4948417.59844
                  23567486.5554                                   23567483.5984
                                                                        42.7504
        28.0004
 -20193751.92648 -15722771.84846
                  21359155.0864                                   21359151.9924
                                                                        50.0004
        41.0004
 -11713119.76248  -9081498.20745
                  21525557.7114                                   21525553.6724
                                                                        49.5004
        34.2504
 -21351342.84848 -16596099.37546
                  21892078.7894                                   21892076.5314
                                                                        49.0004
        38.2504
 -25194359.63348 -19619857.45746
                  20741332.0314                                   20741328.9184
                                                                        49.5004
        40.7504
    174832.05946    168034.19543
                  23649281.1644                                   23649276.6994
                                                                        40.7504
        22.5004
   -149602.66047    -78448.25444
                  23523250.7894                                   23523248.2934
                                                                        42.0004
        27.7504
 -10715843.43047  -8313604.94545
                  22549612.0634                                   22549608.6684
                                                                        47.0004
        30.2504
 09 10 15  0 51  0.0000000  0  9G02G04G05G13G29G10G16G07G25
  -8654693.39848  -6702719.77346
                  20950847.8674                                   20950842.7034
                                                                        49.7504
        40.5004
   6358622.04747   4969950.32444
                  23572745.2894                                   23572742.5004
                                                                        43.5004
        28.0004
 -20348771.22348 -15843566.08646
                  21329655.6564                                   21329652.4184
                                                                        50.5004
        41.0004
 -11742211.72748  -9104167.26645
                  21520021.1884                                   21520018.0204
                                                                        48.5004
        34.0004
 -21449265.34448 -16672402.59046
                  21873444.9844                                   21873442.4494
                                                                        48.5004
        37.5004
 -25332729.08648 -19727677.81646
                  20715001.2974                                   20714998.2194
                                                                        51.5004
        40.2504
     51510.28146     71939.29343
                  23625814.2034                                   23625809.4654
                                                                        41.5004
        22.5004
   -318040.89147   -209698.81244
                  23491198.2814                                   23491195.2854
                                                                        42.5004
        27.0004
 -10833923.52747  -8405615.39545
                  22527142.2114                                   22527138.2504
                                                                        46.7504
        30.7504
 09 10 15  0 51 30.0000000  0  9G02G04G05G13G29G10G16G07G25
  -7100361.68048  -5491552.19946
                  21246627.6484                                   21246621.8914
                                                                        51.0004
        40.7504
   7961858.21547   6219225.15644
                  23877830.9144                                   23877828.0904
                                                                        44.0004
        27.5004
 -18927937.52748 -14736422.94546
                  21600031.4224                                   21600028.2424
                                                                        50.5004
        40.2504
 -10195302.62548  -7898783.59445
                  21814388.2974                                   21814384.4344
                                                                        49.0004
        33.5004
 -19971144.80548 -15520620.30946
                  22154722.0704                                   22154719.4384
                                                                        48.7504
        38.0004
 -23895151.70748 -18607487.65246
                  20988563.3834                                   20988560.5984
                                                                        50.2504
        40.7504
   1504191.71147   1203898.86743
                  23902249.9304                                   23902245.3014
                                                                        42.0004
        22.2504
   1089335.94547    886958.46944
                  23759013.6644                                   23759010.0004
                                                                        42.0004
        26.7504
  -9376013.01247  -7269581.22345
                  22804573.3054                                   22804569.2384
                                                                        46.2504
        30.0004
 09 10 15  0 52  0.0000000  0  9G02G04G05G13G29G10G16G07G25
  -7120936.07448  -5507584.18446
                  21242712.4694                                   21242706.9614
                                                                        50.0004
        41.2504
   7989856.30947   6241041.78544
                  23883158.8754                                   23883156.4224
                                                                        43.5004
        28.0004
 -19082099.58248 -14856549.21146
                  21570695.2894                                   21570692.4414
                                                                        50.5004
        40.7504
 -10223236.11748  -7920549.95345
                  21809073.1334                                   21809069.6484
                                                                        48.7504
        34.0004
 -20067827.50848 -15595957.44546
                  22136323.3834                                   22136321.2934
                                                                        49.2504
        38.0004
 -24032475.72748 -18714493.38346
                  20962431.5554                                   20962428.2854
                                                                        49.7504
        40.7504
   1382029.24246   1108707.35943
                  23879003.0084                                   23878998.7544
                                                                        41.2504
        22.7504
    921678.78147    756316.51244
                  23727109.7664                                   23727105.7624
                                                                        43.2504
        26.7504
  -9492958.94947  -7360707.94145
                  22782319.0234                                   22782315.3984
                                                                        45.5004
        30.0004
 09 10 15  0 52 30.0000000  0  9G02G04G05G13G29G10G16G07G25
  -7140999.22748  -5523217.77746
                  21238894.3984                                   21238889.0164
                                                                        49.5004
        40.2504
   8018031.19947   6262996.19944
                  23888520.4774                                   23888518.0274
                                                                        43.0004
        26.2504
 -19235832.87148 -14976341.37946
                  21541440.8754                                   21541437.6454
                                                                        50.5004
        40.7504
 -10250595.30548  -7941868.80545
                  21803866.5234                                   21803862.9694
                                                                        49.0004
        34.0004
 -20163891.62948 -15670812.58246
                  22118043.4844                                   22118040.7854
                                                                        49.2504
        38.0004
 -24169277.11348 -18821091.85246
                  20936398.8204                                   20936395.8914
                                                                        49.7504
        40.5004
   1260446.45746   1013967.55543
                  23855866.1484                                   23855862.1954
                                                                        41.2504
        22.0004
    754414.12947    625980.40244
                  23695280.4774                                   23695277.0824
                                                                        43.0004
        28.2504
  -9609337.96947  -7451392.89844
                  22760172.8984                                   22760169.8324
                                                                        45.7504
        29.7504
 09 10 15  0 53  0.0000000  0  9G02G04G05G13G29G10G16G07G25
  -7160553.33648  -5538454.72746
                  21235173.5234                                   21235168.0124
                                                                        50.0004
        40.2504
   8046380.35247   6285086.38744
                  23893914.2734                                   23893913.2154
                                                                        42.2504
        26.2504
 -19389136.04748 -15095798.39846
                  21512268.2664                                   21512265.2274
                                                                        49.2504
        40.5004
 -10277382.99248  -7962742.32445
                  21798768.9304                                   21798765.5474
                                                                        48.7504
        33.5004
 -20259337.17647 -15745185.71546
                  22099880.5084                                   22099878.0354
                                                                        47.5004
        38.2504
 -24305554.95348 -18927282.37546
                  20910465.9534                                   20910463.0434
                                                                        50.7504
        40.5004
   1139444.33646    919680.18843
                  23832841.2344                                   23832836.6214
                                                                        41.0004
        22.5004
    587543.61347    495951.42644
                  23663525.9534                                   23663522.0124
                                                                        44.0004
        29.0004
  -9725149.55147  -7541635.71145
                  22738134.6414                                   22738131.6454
                                                                        46.2504
        30.7504
 09 10 15  0 53 30.0000000  0  9G02G04G05G13G29G10G16G07G25
  -7179601.50048  -5553297.41446
                  21231548.6024                                   21231543.1724
                                                                        50.5004
        40.2504
   8074899.80147   6307309.19544
                  23899342.1724                                   23899340.2774
                                                                        42.2504
        27.2504
 -19542009.13748 -15214920.28546
                  21483177.4384                                   21483174.2814
                                                                        49.7504
        40.5004
 -10303603.67248  -7983173.98845
                  21793779.3524                                   21793775.4734
                                                                        48.5004
        33.5004
 -20354165.33247 -15819077.77046
                  22081835.2974                                   22081833.1644
                                                                        47.7504
        38.0004
 -24441309.43048 -19033065.09446
                  20884632.8754                                   20884629.9924
                                                                        50.5004
        40.7504
   1019022.62146    825845.12943
                  23809925.3984                                   23809921.2424
                                                                        41.5004
        22.5004
    421069.67247    366231.44944
                  23631846.8204                                   23631843.3284
                                                                        44.2504
        29.0004
  -9840394.00047  -7631436.56644
                  22716204.4224                                   22716201.5274
                                                                        45.5004
        29.7504
 09 10 15  0 54  0.0000000  0  9G02G04G05G13G29G10G16G07G25
  -7198145.98848  -5567747.65646
                  21228019.7344                                   21228014.3634
                                                                        50.2504
        40.5004
   8103587.54347   6329663.15244
                  23904801.4454                                   23904798.7704
                                                                        44.7504
        27.0004
 -19694450.65248 -15333705.89146
                  21454169.1024                                   21454165.8914
                                                                        50.0004
        41.0004
 -10329258.62948  -8003164.86745
                  21788897.1254                                   21788893.5124
                                                                        48.5004
        33.0004
 -20448375.40248 -15892488.20346
                  22063907.9534                                   22063905.4774
                                                                        48.0004
        38.0004
 -24576539.35248 -19138439.05946
                  20858899.5474                                   20858896.7344
                                                                        51.0004
        40.7504
    899182.53946    732463.25043
                  23787120.5554                                   23787116.2974
                                                                        41.5004
        22.7504
    254994.55547    236822.25844
                  23600243.9384                                   23600240.1604
                                                                        43.0004
        29.2504
  -9955070.23847  -7720794.66445
                  22694382.4304                                   22694378.9184
                                                                        46.2504
        30.2504
 09 10 15  0 54 30.0000000  0  9G02G04G05G13G29G10G16G07G25
  -7216186.85948  -5581805.47346
                  21224586.5234                                   21224581.1994
                                                                        50.2504
        39.7504
   8132442.75047   6352147.64144
                  23910293.0634                                   23910290.0084
                                                                        44.0004
        26.5004
 -19846457.68748 -15452152.93446
                  21425243.1884                                   21425239.8244
                                                                        50.7504
        41.2504
 -10354349.23048  -8022716.00445
                  21784122.9844                                   21784119.0204
                                                                        48.5004
        33.5004
 -20541965.89148 -15965415.86346
                  22046098.0554                                   22046095.9614
                                                                        48.2504
        38.7504
 -24711242.51648 -19243402.54746
                  20833266.1954                                   20833263.1054
                                                                        50.7504
        41.0004
    779926.63746    639536.59443
                  23764426.8524                                   23764422.4454
                                                                        41.2504
        22.5004
     89322.02347    107726.78544
                  23568717.0554                                   23568714.2544
                                                                        42.5004
        29.0004
 -10069176.09847  -7809708.34045
                  22672668.8134                                   22672664.9614
                                                                        46.5004
        30.2504
 09 10 15  0 55  0.0000000  0  9G02G04G05G13G29G10G16G07G25
  -7233725.68448  -5595472.09046
                  21221249.0944                                   21221244.0634
                                                                        50.5004
        40.2504
   8161463.24247   6374760.90244
                  23915815.3594                                   23915812.6644
                                                                        44.2504
        26.2504
 -19998028.38748 -15570259.95746
                  21396400.0164                                   21396396.6994
                                                                        51.0004
        41.0004
 -10378877.00848  -8041828.55545
                  21779455.4844                                   21779451.6954
                                                                        49.0004
        33.7504
 -20634936.12548 -16037860.18746
                  22028406.9534                                   22028404.2624
                                                                        48.2504
        38.2504
 -24845417.48848 -19347954.47346
                  20807733.2814                                   20807730.5354
                                                                        51.0004
        40.5004
    661256.49246    547066.33643
                  23741844.3984                                   23741840.1724
                                                                        41.5004
        22.7504
    -75944.87947    -21052.60244
                  23537268.1024                                   23537265.1374
                                                                        42.2504
        27.5004
 -10182710.21147  -7898176.46145
                  22651063.9774                                   22651060.7114
                                                                        46.0004
        30.5004
 09 10 15  0 55 30.0000000  0  9G02G04G05G13G29G10G16G07G25
  -7250764.23848  -5608748.89146
                  21218006.8134                                   21218001.8834
                                                                        49.7504
        40.7504
   8190647.10247   6397501.41444
                  23921367.6334                                   23921366.1564
                                                                        42.5004
        26.0004
 -20149161.45348 -15688025.98446
                  21367640.4924                                   21367637.1134
                                                                        50.7504
        41.5004
 -10402844.24648  -8060504.30945
                  21774894.3284                                   21774890.5274
                                                                        49.7504
        33.2504
 -20727286.30148 -16109821.35246
                  22010833.2734                                   22010830.7664
                                                                        48.5004
        38.5004
 -24979062.87548 -19452093.73046
                  20782301.8204                                   20782298.7774
                                                                        50.0004
        40.5004
    543173.12546    455053.33644
                  23719373.7664                                   23719369.9804
                                                                        40.7504
        24.0004
   -240803.75047   -149514.12544
                  23505896.1094                                   23505893.6294
                                                                        42.0004
        29.0004
 -10295671.49647  -7986198.21545
                  22629567.7664                                   22629564.7154
                                                                        46.0004
        30.0004
 09 10 15  0 56  0.0000000  0  9G02G04G05G13G29G10G16G07G25
  -7267301.09448  -5621634.77046
                  21214859.8054                                   21214854.6884
                                                                        50.5004
        40.7504
   8219995.62547   6420370.19144
                  23926953.3674                                   23926951.4964
                                                                        42.5004
        26.0004
 -20299851.60248 -15805446.86346
                  21338964.8754                                   21338961.8954
                                                                        51.0004
        41.5004
 -10426250.27748  -8078742.77045
                  21770440.6024                                   21770436.5124
                                                                        49.0004
        33.0004
 -20819012.14848 -16181296.00446
                  21993378.2814                                   21993375.9924
                                                                        49.0004
        38.7504
 -25112173.82048 -19555816.53946
                  20756971.4224                                   20756968.6094
                                                                        50.5004
        41.0004
    425681.68847    363501.53944
                  23697015.6564                                   23697012.0594
                                                                        42.5004
        24.0004
   -405248.28546   -277652.74644
                  23474603.8364                                   23474600.4224
                                                                        41.2504
        28.7504
 -10408055.57447  -8073770.24645
                  22608182.1024                                   22608178.6724
                                                                        46.2504
        30.2504
 09 10 15  0 56 30.0000000  0  9G02G04G05G13G29G10G16G07G25
  -7283338.70748  -5634131.64846
                  21211808.1564                                   21211802.8914
                                                                        50.0004
        40.0004
   8249505.30147   6443364.46944
                  23932568.6804                                   23932566.8164
                                                                        44.2504
        26.5004
 -20450098.52348 -15922522.37146
                  21310373.7034                                   21310370.7424
                                                                        51.2504
        41.7504
 -10449097.85548  -8096546.09045
                  21766092.7974                                   21766089.1134
                                                                        48.5004
        33.0004
 -20910114.68448 -16252284.96946
                  21976041.8204                                   21976039.2894
                                                                        49.7504
        38.5004
 -25244750.64548 -19659123.16846
                  20731742.9224                                   20731740.2074
                                                                        51.0004
        40.7504
    308781.93047    272410.83644
                  23674770.7344                                   23674766.9344
                                                                        42.5004
        24.5004
   -569277.15247   -405467.48044
                  23443390.4224                                   23443386.4184
                                                                        42.0004
        29.2504
 -10519862.65247  -8160892.60945
                  22586905.7974                                   22586902.7114
                                                                        46.2504
        31.0004
 09 10 15  0 57  0.0000000  0  9G02G04G05G13G29G10G16G07G25
  -7298880.48448  -5646242.18046
                  21208850.5554                                   21208845.2074
                                                                        50.5004
        40.0004
   8279172.93447   6466481.94544
                  23938215.0864                                   23938212.9844
                                                                        45.0004
        29.0004
 -20599902.52348 -16039252.75446
                  21281866.9224                                   21281863.9844
                                                                        51.5004
        41.2504
 -10471391.04348  -8113917.39545
                  21761850.6804                                   21761846.9304
                                                                        49.2504
        33.2504
 -21000594.88348 -16322789.00446
                  21958823.9694                                   21958821.1644
                                                                        50.0004
        38.0004
 -25376793.64848 -19762013.84846
                  20706615.8594                                   20706613.2074
                                                                        50.7504
        40.5004
    192474.01646    181781.30144
                  23652638.2664                                   23652634.4184
                                                                        41.7504
        25.2504
   -732888.49247   -532956.79744
                  23412255.7114                                   23412252.4534
                                                                        43.0004
        29.2504
 -10631092.92247  -8247565.53945
                  22565739.2894                                   22565736.2734
                                                                        46.0004
        31.2504
 09 10 15  0 57 30.0000000  0  9G02G04G05G13G29G10G16G07G25
  -7313928.66048  -5657968.07046
                  21205987.0704                                   21205981.7304
                                                                        50.0004
        40.0004
   8308996.06347   6489720.73044
                  23943890.8134                                   23943887.7114
                                                                        45.2504
        28.2504
 -20749261.89148 -16155636.69546
                  21253445.0634                                   21253441.7194
                                                                        51.0004
        41.5004
 -10493132.30948  -8130858.61345
                  21757713.3204                                   21757709.5824
                                                                        48.0004
        33.2504
 -21090452.78148 -16392808.15246
                  21941724.6024                                   21941721.9964
                                                                        50.0004
        38.2504
 -25508301.48048 -19864487.49646
                  20681591.1094                                   20681588.0434
                                                                        51.0004
        40.7504
     76758.81347     91613.59444
                  23630618.0784                                   23630614.7074
                                                                        42.5004
        24.0004
   -896080.52047   -660119.43044
                  23381202.1414                                   23381198.0004
                                                                        43.2504
        28.5004
 -10741745.91847  -8333788.62945
                  22544682.8834                                   22544679.7934
                                                                        47.0004
        30.5004
 09 10 15  0 58  0.0000000  0  9G02G04G05G13G29G10G16G07G25
  -7328484.30948  -5669310.21546
                  21203217.0314                                   21203212.2464
                                                                        50.0004
        40.0004
   8338973.00047   6513079.34844
                  23949594.6484                                   23949592.0784
                                                                        44.2504
        25.0004
 -20898174.78148 -16271672.72746
                  21225107.7664                                   21225104.4344
                                                                        51.2504
        41.5004
 -10514323.34848  -8147371.09445
                  21753680.6724                                   21753677.0044
                                                                        48.2504
        33.2504
 -21179687.76648 -16462341.87946
                  21924743.9454                                   21924741.2074
                                                                        49.7504
        37.5004
 -25639273.01648 -19966543.24646
                  20656668.1724                                   20656665.1684
                                                                        50.5004
        41.2504
    -38362.23846      1908.89544
                  23608711.2114                                   23608707.8484
                                                                        40.7504
        24.5004
  -1058849.96947   -786952.81644
                  23350227.6884                                   23350223.6724
                                                                        42.2504
        29.2504
 -10851820.06247  -8419560.61345
                  22523736.3834                                   22523733.3284
                                                                        45.5004
        30.5004
 09 10 15  0 58 30.0000000  0  9G02G04G05G13G29G10G16G07G25
  -7342548.98048  -5680269.75046
                  21200540.7814                                   21200535.7814
                                                                        50.0004
        40.0004
   8369102.00446   6536556.44143
                  23955327.2344                                   23955326.1724
                                                                        40.5004
        22.7504
 -21046639.48048 -16387359.50847
                  21196856.0394                                   21196852.8404
                                                                        51.5004
        42.2504
 -10534965.99248  -8163456.24645
                  21749752.5084                                   21749749.1994
                                                                        48.5004
        33.0004
 -21268299.20748 -16531389.76246
                  21907881.2974                                   21907879.2894
                                                                        49.7504
        38.0004
 -25769706.00448 -20068179.36346
                  20631847.3054                                   20631844.3204
                                                                        51.0004
        41.2504
   -152887.60947    -87331.64143
                  23586917.9064                                   23586914.6024
                                                                        42.0004
        23.5004
  -1221193.56647   -913454.37144
                  23319334.4924                                   23319330.5514
                                                                        43.0004
        28.5004
 -10961314.07847  -8504880.58645
                  22502900.2504                                   22502897.5274
                                                                        46.5004
        30.5004
 09 10 15  0 59  0.0000000  0  9G02G04G05G13G29G10G16G07G25
  -7356123.63748  -5690847.47346
                  21197957.7584                                   21197952.3364
                                                                        49.7504
        39.7504
   8399381.98846   6560151.17243
                  23961089.0084                                   23961087.8524
                                                                        39.5004
        22.5004
 -21194652.97348 -16502694.70347
                  21168690.0314                                   21168686.4304
                                                                        51.7504
        42.0004
 -10555062.15648  -8179115.59845
                  21745928.5474                                   21745924.9184
                                                                        48.0004
        32.0004
 -21356286.13748 -16599951.00446
                  21891137.9224                                   21891135.4774
                                                                        49.0004
        38.0004
 -25899598.73048 -20169394.49246
                  20607129.8834                                   20607126.7154
                                                                        51.0004
        41.0004
   -266815.34447   -176106.52743
                  23565238.1334                                   23565235.0004
                                                                        42.2504
        22.2504
  -1383107.69547  -1039621.17244
                  23288523.3984                                   23288519.5634
                                                                        42.5004
        28.5004
 -11070226.34047  -8589747.24245
                  22482175.0004                                   22482172.0164
                                                                        45.5004
        31.2504
 09 10 15  0 59 30.0000000  0  9G02G04G05G13G29G10G16G07G25
  -7369207.61748  -5701042.80146
                  21195467.7894                                   21195462.6214
                                                                        50.7504
        39.7504
   8429813.21946   6583863.92244
                  23966880.9304                                   23966878.6414
                                                                        41.2504
        24.5004
 -21342212.46148 -16617676.13346
                  21140610.2504                                   21140607.3714
                                                                        51.0004
        41.0004
 -10574611.34048  -8194348.69945
                  21742208.2424                                   21742204.7734
                                                                        48.2504
        32.5004
 -21443646.15248 -16668023.74246
                  21874514.2974                                   21874511.5554
                                                                        49.0004
        37.7504
 -26028948.18748 -20270186.27746
                  20582515.2734                                   20582512.1174
                                                                        51.2504
        41.5004
   -380141.82847   -264412.89143
                  23543673.1954                                   23543668.8714
                                                                        43.2504
        22.7504
  -1544587.49246  -1165449.54744
                  23257794.6724                                   23257790.8834
                                                                        41.7504
        29.5004
 -11178553.46147  -8674157.95345
                  22461560.9224                                   22461557.7274
                                                                        45.0004
        30.7504
 09 10 15  1  0  0.0000000  0  9G02G04G05G13G29G10G16G07G25
  -7381805.82448  -5710859.59046
                  21193070.8444                                   21193065.2774
                                                                        50.0004
        39.7504
   8460390.08647   6607690.14144
                  23972699.3834                                   23972696.9534
                                                                        43.0004
        25.7504
 -21489318.60548 -16732304.30146
                  21112617.1174                                   21112613.7974
                                                                        50.5004
        41.0004
 -10593618.98848  -8209159.82445
                  21738591.6564                                   21738587.6604
                                                                        48.5004
        32.7504
 -21530381.62148 -16735609.82046
                  21858008.7974                                   21858006.3714
                                                                        49.7504
        38.0004
 -26157755.73448 -20370555.78546
                  20558004.3984                                   20558001.0664
                                                                        51.0004
        41.0004
   -492868.66447   -352251.97343
                  23522221.6644                                   23522218.2234
                                                                        42.2504
        22.7504
  -1705633.55147  -1290939.88744
                  23227148.4224                                   23227145.3594
                                                                        42.2504
        29.5004
 -11286297.75047  -8758114.47345
                  22441057.6644                                   22441054.3324
                                                                        46.2504
        30.0004
 09 10 15  1  0 30.0000000  0  9G02G04G05G13G29G10G16G07G25
  -7393919.01648  -5720298.44546
                  21190765.7424                                   21190760.4144
                                                                        50.2504
        39.5004
   8491111.83647   6631629.21144
                  23978545.9304                                   23978543.6564
                                                                        42.7504
        26.7504
 -21635969.32048 -16846577.58246
                  21084710.2274                                   21084706.9304
                                                                        51.0004
        41.0004
 -10612086.49648  -8223550.05145
                  21735076.9224                                   21735072.9654
                                                                        48.5004
        32.0004
 -21616491.73048 -16802708.59846
                  21841622.6174                                   21841619.9654
                                                                        49.0004
        37.5004
 -26286019.65648 -20470501.69546
                  20533596.4454                                   20533593.1914
                                                                        50.7504
        41.5004
   -604994.46547   -439622.71944
                  23500884.8834                                   23500880.9924
                                                                        42.0004
        25.7504
  -1866242.08647  -1416089.32844
                  23196585.8364                                   23196582.7234
                                                                        42.0004
        29.5004
 -11393457.12947  -8841615.21545
                  22420665.9774                                   22420662.3674
                                                                        46.5004
        31.0004
 09 10 15  1  1  0.0000000  0  9G02G04G05G13G29G10G16G07G25
  -5830128.48448  -4501760.36346
                  21488344.9614                                   21488339.9494
                                                                        50.7504
        39.7504
  10097395.55147   7883278.89844
                  24284211.3054                                   24284209.7274
                                                                        42.5004
        27.0004
 -20206737.48048 -15732890.42646
                  21356684.0634                                   21356680.6764
                                                                        51.0004
        41.5004
  -9054595.15247  -7009920.40245
                  22031457.4844                                   22031454.1724
                                                                        47.7504
        31.7504
 -20126552.98448 -15641717.36346
                  22125148.4224                                   22125145.9804
                                                                        49.7504
        38.0004
 -24838313.81648 -19342419.23046
                  20809085.6174                                   20809082.4064
                                                                        51.7504
        41.2504
    858906.61747    701079.43043
                  23779455.5234                                   23779452.0434
                                                                        43.0004
        22.7504
   -450984.55547   -313291.18745
                  23465900.7894                                   23465896.9774
                                                                        43.5004
        30.7504
  -9924607.00047  -7697056.65245
                  22700179.3914                                   22700175.7774
                                                                        45.5004
        31.2504
 09 10 15  1  1 30.0000000  0  9G02G04G05G13G29G10G16G07G25
  -5841276.89148  -4510447.45346
                  21486223.4844                                   21486218.4414
                                                                        51.5004
        39.5004
  10128401.42246   7907439.35544
                  24290111.3524                                   24290109.3484
                                                                        41.5004
        25.2504
 -20352471.86348 -15846449.68447
                  21328951.4224                                   21328948.1254
                                                                        51.0004
        42.0004
  -9071988.37547  -7023473.53545
                  22028147.5944                                   22028144.1804
                                                                        47.7504
        32.5004
 -20211411.28948 -15707840.69946
                  22109000.7274                                   22108997.8134
                                                                        48.0004
        38.0004
 -24965486.10248 -19441514.50846
                  20784885.4924                                   20784882.3014
                                                                        52.0004
        41.0004
    747987.30146    614648.79343
                  23758348.3364                                   23758344.8014
                                                                        41.5004
        22.5004
   -610709.54347   -437752.19545
                  23435505.9304                                   23435501.9454
                                                                        42.5004
        30.0004
 -10030593.72747  -7779643.67245
                  22680010.2504                                   22680007.0634
                                                                        45.5004
        30.7504
 09 10 15  1  2  0.0000000  0  9G02G04G05G13G29G10G16G07G25
  -5851943.19548  -4518758.86346
                  21484194.0864                                   21484188.9924
                                                                        50.5004
        40.0004
  10159548.71547   7931710.00444
                  24296038.1414                                   24296036.3444
                                                                        42.0004
        25.7504
 -20497743.39148 -15959648.28146
                  21301307.4304                                   21301304.3204
                                                                        51.5004
        41.5004
  -9088845.58248  -7036609.00845
                  22024939.6414                                   22024936.4964
                                                                        48.2504
        31.7504
 -20295641.06648 -15773474.27746
                  22092972.2734                                   22092969.2974
                                                                        49.0004
        38.0004
 -25092108.60548 -19540181.40246
                  20760789.8754                                   20760787.2854
                                                                        51.7504
        41.5004
    637675.39547    528691.49643
                  23737356.2274                                   23737353.0124
                                                                        43.0004
        23.7504
   -769986.44547   -561864.09045
                  23405196.5474                                   23405192.5044
                                                                        44.0004
        30.0004
 -10135990.39147  -7861770.93445
                  22659954.0084                                   22659950.5234
                                                                        46.2504
        30.7504
 09 10 15  1  2 30.0000000  0  9G02G04G05G13G29G10G16G07G25
  -5862130.26248  -4526696.84046
                  21482255.2664                                   21482249.7344
                                                                        50.0004
        39.2504
  10190834.18847   7956088.28144
                  24301991.6254                                   24301989.9144
                                                                        43.2504
        25.5004
 -20642551.29348 -16072485.60547
                  21273751.3284                                   21273747.9804
                                                                        51.7504
        42.0004
  -9105170.37947  -7049329.60945
                  22021833.8054                                   22021829.7894
                                                                        47.5004
        32.2504
 -20379243.25848 -15838618.82846
                  22077063.6094                                   22077060.5824
                                                                        49.2504
        38.0004
 -25218180.82448 -19638419.48046
                  20736799.0864                                   20736795.9614
                                                                        51.0004
        41.2504
    527970.90647    443207.47344
                  23716481.2344                                   23716476.9344
                                                                        42.2504
        24.5004
   -928813.64147   -685625.53945
                  23374972.8054                                   23374968.9924
                                                                        43.0004
        30.0004
 -10240797.14147  -7943438.51245
                  22640009.9144                                   22640006.4344
                                                                        45.7504
        30.7504
 09 10 15  1  3  0.0000000  0  9G02G04G05G13G29G10G16G07G25
  -5871839.78148  -4534262.71546
                  21480407.2194                                   21480402.2234
                                                                        50.2504
        39.2504
  10222255.97347   7980572.69943
                  24307970.5864                                   24307968.8134
                                                                        43.5004
        22.2504
 -20786894.12948 -16184960.53147
                  21246283.8754                                   21246280.6054
                                                                        51.0004
        42.0004
  -9120964.59447  -7061636.79345
                  22018828.0084                                   22018824.5164
                                                                        47.5004
        32.5004
 -20462217.63348 -15903274.19146
                  22061273.6334                                   22061271.1954
                                                                        48.7504
        37.5004
 -25343701.85548 -19736228.07446
                  20712913.0314                                   20712910.2704
                                                                        51.5004
        41.2504
    418875.16447    358197.84444
                  23695720.7974                                   23695716.5704
                                                                        42.7504
        24.0004
  -1087187.98047   -809034.10544
                  23344834.8594                                   23344831.0274
                                                                        42.0004
        29.2504
 -10345013.17247  -8024645.84445
                  22620178.6174                                   22620174.8554
                                                                        46.0004
        31.7504
 09 10 15  1  3 30.0000000  0  9G02G04G05G13G29G10G16G07G25
  -5881071.66848  -4541456.41046
                  21478651.0554                                   21478645.6604
                                                                        50.5004
        39.5004
  10253814.51647   8005163.83243
                  24313976.1254                                   24313974.3834
                                                                        43.7504
        22.7504
 -20930768.45348 -16297070.39547
                  21218905.6334                                   21218902.1604
                                                                        51.2504
        42.0004
  -9136228.55547  -7073530.76645
                  22015923.1414                                   22015919.6054
                                                                        47.5004
        32.0004
 -20544562.08648 -15967438.69146
                  22045604.1564                                   22045601.3164
                                                                        49.2504
        38.2504
 -25468668.75448 -19833604.87546
                  20689132.9454                                   20689129.8754
                                                                        51.2504
        41.0004
    310390.80947    273664.55143
                  23675077.2034                                   23675072.8404
                                                                        43.0004
        23.5004
  -1245105.46946   -932086.72344
                  23314783.8134                                   23314780.1604
                                                                        41.0004
        29.0004
 -10448635.57847  -8105390.55545
                  22600459.4614                                   22600456.1954
                                                                        45.2504
        31.7504
 09 10 15  1  4  0.0000000  0  9G02G04G05G13G29G10G16G07G25
  -5889828.85548  -4548280.22346
                  21476984.4384                                   21476978.8054
                                                                        50.7504
        39.5004
  10285506.22747   8029858.69543
                  24320007.4614                                   24320005.0784
                                                                        43.5004
        23.0004
 -21074173.88348 -16408814.88746
                  21191616.3204                                   21191613.3954
                                                                        51.2504
        41.5004
  -9150965.88747  -7085014.39545
                  22013118.6334                                   22013114.7854
                                                                        47.2504
        32.2504
 -20626277.53948 -16031113.04746
                  22030054.0004                                   22030051.0514
                                                                        48.7504
        38.7504
 -25593081.48048 -19930549.87146
                  20665457.9454                                   20665454.7234
                                                                        52.0004
        41.0004
    202518.12147    189607.93844
                  23654549.6804                                   23654545.3134
                                                                        43.0004
        25.5004
  -1402563.76346  -1054781.42144
                  23284820.7194                                   23284817.3164
                                                                        41.2504
        27.5004
 -10551664.57047  -8185672.88345
                  22580853.9144                                   22580850.6094
                                                                        44.5004
        31.0004
 09 10 15  1  4 30.0000000  0  9G02G04G05G13G29G10G16G07G25
  -5898113.09448  -4554735.48846
                  21475408.1644                                   21475402.8794
                                                                        50.7504
        39.2504
  10317329.20347   8054655.78944
                  24326062.8984                                   24326060.9654
                                                                        44.2504
        27.2504
 -21217109.13348 -16520193.00047
                  21164416.5314                                   21164413.2664
                                                                        50.7504
        42.0004
  -9165178.95347  -7096089.51645
                  22010413.9774                                   22010410.2894
                                                                        47.2504
        31.5004
 -20707364.26248 -16094297.51646
                  22014623.8594                                   22014621.4964
                                                                        48.5004
        38.2504
 -25716938.54348 -20027061.85246
                  20641888.6174                                   20641885.8364
                                                                        51.5004
        41.2504
     95257.71547    106028.38744
                  23634138.5634                                   23634133.8754
                                                                        43.0004
        25.0004
  -1559560.73047  -1177116.68744
                  23254945.0004                                   23254941.4264
                                                                        42.5004
        29.2504
 -10654099.68747  -8265492.44145
                  22561360.9924                                   22561357.7584
                                                                        44.2504
        30.5004
 09 10 15  1  5  0.0000000  0  9G02G04G05G13G29G10G16G07G25
  -5905927.36748  -4560824.53946
                  21473921.0554                                   21473916.1334
                                                                        50.5004
        39.5004
  10349280.18847   8079552.60544
                  24332143.2424                                   24332141.2974
                                                                        43.7504
        25.2504
 -21359573.63348 -16631204.30947
                  21137306.7504                                   21137303.2304
                                                                        51.5004
        42.2504
  -9178871.05547  -7106758.62945
                  22007808.4774                                   22007804.7624
                                                                        47.7504
        31.0004
 -20787823.20748 -16156992.80146
                  21999313.1094                                   21999310.2464
                                                                        49.2504
        38.7504
 -25840240.29348 -20123141.13746
                  20618425.0704                                   20618422.1414
                                                                        52.5004
        41.5004
    -11390.22747     22926.07844
                  23613844.4694                                   23613839.8674
                                                                        44.0004
        25.5004
  -1716094.96147  -1299091.36344
                  23225157.4064                                   23225153.9614
                                                                        44.5004
        29.5004
 -10755941.12147  -8344849.37145
                  22541980.9924                                   22541977.7194
                                                                        45.0004
        30.5004
 09 10 15  1  5 30.0000000  0  9G02G04G05G13G29G10G16G07G25
  -5913269.85948  -4566545.98046
                  21472523.6804                                   21472518.9064
                                                                        49.7504
        39.2504
  10381360.89547   8104550.34444
                  24338247.5004                                   24338246.0704
                                                                        42.0004
        24.5004
 -21501562.25448 -16741844.80946
                  21110287.1564                                   21110284.1644
                                                                        51.5004
        41.7504
  -9192040.81247  -7117020.75445
                  22005302.2894                                   22005298.9924
                                                                        47.0004
        31.0004
 -20867650.54348 -16219195.90246
                  21984122.4454                                   21984119.6524
                                                                        49.7504
        37.5004
 -25962981.76648 -20218783.82846
                  20595068.4844                                   20595065.1414
                                                                        52.0004
        41.0004
   -117421.61747    -59695.82044
                  23593667.5084                                   23593662.6644
                                                                        43.5004
        25.7504
  -1872159.81647  -1420700.27044
                  23195459.5634                                   23195456.1644
                                                                        43.7504
        29.7504
 -10857184.57447  -8423740.35545
                  22522715.0234                                   22522711.8554
                                                                        45.7504
        30.5004
 09 10 15  1  6  0.0000000  0  9G02G04G05G13G29G10G16G07G25
  -5920143.11348  -4571901.78946
                  21471215.7584                                   21471210.6484
                                                                        49.5004
        39.2504
  10413569.12547   8129647.55944
                  24344377.0634                                   24344375.0864
                                                                        42.5004
        25.2504
 -21643073.82848 -16852113.55547
                  21083358.5164                                   21083355.3134
                                                                        51.5004
        42.0004
  -9204690.95747  -7126878.00845
                  22002895.2274                                   22002891.2384
                                                                        47.5004
        31.7504
 -20946846.90648 -16280907.34046
                  21969051.5634                                   21969049.0274
                                                                        48.2504
        38.2504
 -26085162.66448 -20313989.74646
                  20571817.9224                                   20571814.7624
                                                                        50.7504
        41.0004
   -222835.81247   -141836.75844
                  23573607.5704                                   23573603.1954
                                                                        43.2504
        24.2504
  -2027753.10947  -1541941.69945
                  23165850.9694                                   23165847.4964
                                                                        43.0004
        31.0004
 -10957829.60247  -8502165.04345
                  22503563.2504                                   22503559.4534
                                                                        43.7504
        31.0004
 09 10 15  1  6 30.0000000  0  9G02G04G05G13G29G10G16G07G25
  -5926548.14148  -4576892.71946
                  21469996.8984                                   21469991.9024
                                                                        49.7504
        38.7504
  10445904.42247   8154844.03943
                  24350529.9304                                   24350528.1764
                                                                        42.5004
        22.5004
 -21784105.95348 -16962008.71146
                  21056520.7894                                   21056517.8874
                                                                        50.7504
        41.7504
  -9216823.85947  -7136332.19545
                  22000586.2814                                   22000582.8674
                                                                        46.2504
        31.7504
 -21025411.48048 -16342126.46546
                  21954101.3594                                   21954098.5004
                                                                        48.5004
        38.0004
 -26206781.01248 -20408757.28946
                  20548674.8984                                   20548671.9804
                                                                        52.2504
        41.2504
   -327630.82847   -223495.20343
                  23553665.7974                                   23553661.3324
                                                                        42.7504
        22.7504
  -2182871.92647  -1662813.46145
                  23136332.8594                                   23136329.3364
                                                                        44.5004
        31.2504
 -11057874.89547  -8580122.41445
                  22484525.0474                                   22484521.6764
                                                                        45.0004
        30.7504
 09 10 15  1  7  0.0000000  0  9G02G04G05G13G29G10G16G07G25
  -5932483.73848  -4581517.89546
                  21468867.6094                                   21468862.4734
                                                                        50.0004
        39.5004
  10478366.70347   8180139.44143
                  24356707.7274                                   24356704.8594
                                                                        43.2504
        23.0004
 -21924654.07448 -17071526.70747
                  21029775.4384                                   21029772.6174
                                                                        51.2504
        42.5004
  -9228438.13747  -7145382.28945
                  21998376.2194                                   21998372.4614
                                                                        47.5004
        31.5004
 -21103341.31248 -16402850.98046
                  21939271.8984                                   21939269.0124
                                                                        48.5004
        37.5004
 -26327833.08248 -20503083.57046
                  20525639.2974                                   20525636.4454
                                                                        52.0004
        41.7504
   -431802.92247   -304668.27743
                  23533842.3754                                   23533838.0164
                                                                        42.5004
        23.2504
  -2337510.30147  -1783310.81245
                  23106906.5554                                   23106902.4184
                                                                        44.5004
        30.5004
 -11157316.68047  -8657609.50445
                  22465601.8594                                   22465598.3364
                                                                        44.7504
        30.7504
 09 10 15  1  7 30.0000000  0  9G02G04G05G13G29G10G16G07G25
  -5937953.66848  -4585780.19946
                  21467826.5394                                   21467821.4224
                                                                        49.5004
        39.2504
  10510952.59047   8205531.27344
                  24362908.1644                                   24362906.0594
                                                                        42.5004
        24.5004
 -22064719.25048 -17180668.44546
                  21003122.0634                                   21003118.5314
                                                                        51.0004
        41.7504
  -9239537.61747  -7154031.24645
                  21996264.5554                                   21996260.5394
                                                                        47.0004
        31.2504
 -21180638.73048 -16463082.70346
                  21924562.2424                                   21924559.6994
                                                                        48.2504
        38.0004
 -26448319.50448 -20596969.08246
                  20502711.6094                                   20502708.6484
                                                                        52.0004
        41.0004
   -535353.35247   -385356.89844
                  23514137.1884                                   23514133.2424
                                                                        43.0004
        24.5004
  -2491667.78947  -1903433.50045
                  23077571.1564                                   23077567.1374
                                                                        43.2504
        30.2504
 -11256156.37947  -8734627.44945
                  22446793.3444                                   22446789.8484
                                                                        45.7504
        30.7504
 09 10 15  1  8  0.0000000  0  9G02G04G05G13G29G10G16G07G25
  -5942962.53548  -4589683.23446
                  21466873.7584                                   21466868.6564
                                                                        49.5004
        38.7504
  10543657.25446   8231015.57444
                  24369131.4774                                   24369129.7974
                                                                        40.5004
        24.5004
 -22204302.37948 -17289434.53547
                  20976560.0394                                   20976557.1914
                                                                        51.5004
        42.0004
  -9250127.94147  -7162283.40245
                  21994248.4924                                   21994244.8324
                                                                        46.0004
        30.5004
 -21257306.18748 -16522823.56646
                  21909973.5944                                   21909970.8634
                                                                        48.7504
        38.0004
 -26568242.27748 -20690415.40646
                  20479890.9694                                   20479887.5784
                                                                        52.0004
        41.5004
   -638283.87947   -465562.53944
                  23494550.0314                                   23494545.8634
                                                                        43.5004
        24.5004
  -2645344.84047  -2023181.87145
                  23048327.0704                                   23048323.5904
                                                                        44.5004
        30.2504
 -11354396.07447  -8811177.89545
                  22428099.1484                                   22428095.5434
                                                                        44.2504
        30.2504
 09 10 15  1  8 30.0000000  0  9G02G04G05G13G29G10G16G07G25
  -5947510.32048  -4593227.00046
                  21466007.9064                                   21466002.8674
                                                                        49.2504
        38.5004
  10576480.18846   8256591.72343
                  24375377.3674                                   24375376.1994
                                                                        39.5004
        22.5004
 -22343399.87148 -17397822.17647
                  20950090.5634                                   20950087.6414
                                                                        50.2504
        42.0004
  -9260210.21947  -7170139.75045
                  21992329.7194                                   21992326.5594
                                                                        46.5004
        31.5004
 -21333342.33248 -16582072.50446
                  21895504.2194                                   21895501.1764
                                                                        48.5004
        38.0004
 -26687598.28948 -20783420.07846
                  20457178.0004                                   20457175.4964
                                                                        52.0004
        41.2504
   -740591.68447   -545282.91043
                  23475081.6724                                   23475077.5354
                                                                        42.5004
        23.2504
  -2798536.44947  -2142551.97345
                  23019176.0084                                   23019171.9534
                                                                        43.5004
        30.2504
 -11452033.14147  -8887258.73445
                  22409519.1724                                   22409515.8834
                                                                        44.5004
        30.5004
 09 10 15  1  9  0.0000000  0  9G02G04G05G13G29G10G16G07G25
  -5951599.88748  -4596413.65646
                  21465229.8594                                   21465224.7814
                                                                        49.0004
        39.2504
  10609419.10246   8282258.19544
                  24381645.8284                                   24381644.3874
                                                                        41.5004
        25.2504
 -22482011.12948 -17505830.94147
                  20923713.8984                                   20923710.5554
                                                                        51.0004
        42.0004
  -9269787.39547  -7177602.48845
                  21990507.5314                                   21990504.1254
                                                                        46.7504
        31.0004
 -21408747.59048 -16640829.85246
                  21881154.8914                                   21881152.3094
                                                                        49.0004
        38.0004
 -26806387.08248 -20875982.77046
                  20434573.6094                                   20434570.6414
                                                                        52.2504
        41.5004
   -842276.85947   -624518.09444
                  23455731.4454                                   23455727.3594
                                                                        42.2504
        25.0004
  -2951240.92647  -2261542.46544
                  22990116.9614                                   22990113.3954
                                                                        43.2504
        29.7504
 -11549067.75047  -8962870.11745
                  22391054.3674                                   22391050.8484
                                                                        44.7504
        31.5004
 09 10 15  1  9 30.0000000  0  9G02G04G05G13G29G10G16G07G25
  -5955229.62948  -4599242.01246
                  21464539.5864                                   21464534.0594
                                                                        49.2504
        39.0004
  10642475.93847   8308016.77344
                  24387936.6954                                   24387934.5594
                                                                        43.7504
        24.2504
 -22620131.42648 -17613457.15247
                  20897430.4924                                   20897426.9534
                                                                        51.5004
        42.2504
  -9278857.65647  -7184670.20745
                  21988781.9774                                   21988778.0664
                                                                        47.0004
        31.5004
 -21483518.94148 -16699093.22346
                  21866926.3524                                   21866923.2304
                                                                        49.2504
        38.0004
 -26924604.43748 -20968100.21146
                  20412077.9144                                   20412074.5904
                                                                        51.5004
        41.0004
   -943334.91847   -703264.64544
                  23436500.3524                                   23436497.0744
                                                                        43.0004
        24.5004
  -3103452.24646  -2380148.65244
                  22961151.8204                                   22961148.4534
                                                                        41.7504
        29.7504
 -11645495.81247  -9038008.85945
                  22372704.5474                                   22372701.2194
                                                                        45.2504
        30.7504
 09 10 15  1 10  0.0000000  0  9G02G04G05G13G29G10G16G07G25
  -5958403.07448  -4601714.80146
                  21463935.3284                                   21463930.3134
                                                                        49.0004
        38.2504
  10675646.51647   8333864.03144
                  24394248.6414                                   24394246.6174
                                                                        44.0004
        24.5004
 -22757761.18748 -17720701.12947
                  20871239.8284                                   20871236.8284
                                                                        52.0004
        42.5004
  -9287425.27347  -7191346.23845
                  21987151.2894                                   21987147.9264
                                                                        46.0004
        31.0004
 -21557658.34448 -16756864.18446
                  21852817.9454                                   21852815.3204
                                                                        49.5004
        38.5004
 -27042251.50448 -21059773.25846
                  20389689.9144                                   20389686.9104
                                                                        52.5004
        41.2504
  -1043767.06647   -781523.44143
                  23417389.0474                                   23417385.3634
                                                                        43.0004
        23.5004
  -3255169.34847  -2498369.72345
                  22932281.3674                                   22932277.9384
                                                                        42.7504
        30.2504
 -11741318.80547  -9112676.12945
                  22354469.8834                                   22354466.6254
                                                                        45.5004
        31.2504
 09 10 15  1 10 30.0000000  0  9G02G04G05G13G29G10G16G07G25
  -4385705.71148  -3376236.33246
                  21763209.8364                                   21763204.5084
                                                                        49.0004
        38.2504
  12284344.39847   9587394.92643
                  24700373.7114                                   24700370.7544
                                                                        43.2504
        21.5004
 -21319477.74248 -16599960.80547
                  21144936.7894                                   21144933.1054
                                                                        51.7504
        42.0004
  -7720076.12547  -5970035.17645
                  22285408.1644                                   22285404.2424
                                                                        46.2504
        31.0004
 -20055746.64848 -15586543.37546
                  22138622.6094                                   22138619.7074
                                                                        48.7504
        37.5004
 -25583906.31648 -19923400.37546
                  20667203.9064                                   20667200.8404
                                                                        52.0004
        41.2504
    431847.29747    368305.91044
                  23698189.4144                                   23698185.6254
                                                                        42.7504
        25.0004
  -1830968.43747  -1388602.69945
                  23203297.9304                                   23203293.8284
                                                                        43.2504
        31.2504
 -10261116.22747  -7959271.52745
                  22636143.1484                                   22636140.2274
                                                                        44.5004
        31.7504
 09 10 15  1 11  0.0000000  0  9G02G04G05G13G29G10G16G07G25
  -4387977.05548  -3378006.23046
                  21762777.3674                                   21762772.1174
                                                                        49.0004
        39.0004
  12317732.33946   9613411.54743
                  24706726.5394                                   24706723.5554
                                                                        40.0004
        19.5004
 -21456126.12548 -16706440.08247
                  21118933.0634                                   21118929.8404
                                                                        51.7504
        42.2504
  -7727650.81247  -5975937.52345
                  22283966.6484                                   22283962.9574
                                                                        46.0004
        30.5004
 -20128626.84048 -15643333.12146
                  22124753.5784                                   22124751.1294
                                                                        49.2504
        37.7504
 -25700413.34448 -20014185.07446
                  20645033.3674                                   20645030.2774
                                                                        51.7504
        41.5004
    332664.88747    291020.92644
                  23679315.2274                                   23679311.2704
                                                                        42.2504
        24.5004
  -1981694.85947  -1506051.80145
                  23174615.8284                                   23174612.0474
                                                                        45.0004
        31.5004
 -10355731.41447  -8032997.63745
                  22618138.6254                                   22618134.8014
                                                                        45.0004
        32.0004
 09 10 15  1 11 30.0000000  0  9G02G04G05G13G29G10G16G07G25
  -4389796.93448  -3379424.29746
                  21762431.1644                                   21762425.8834
                                                                        49.2504
        38.5004
  12351229.43846   9639513.04743
                  24713101.1884                                   24713099.0084
                                                                        39.0004
        20.5004
 -21592278.66448 -16812532.96947
                  21093024.4304                                   21093021.2234
                                                                        51.5004
        42.2504
  -7734729.30547  -5981453.23445
                  22282619.5944                                   22282615.5164
                                                                        46.2504
        31.0004
 -20200874.87948 -15699630.29346
                  22111005.3984                                   22111002.7774
                                                                        49.0004
        38.0004
 -25816346.23448 -20104522.37946
                  20622971.9924                                   20622968.8634
                                                                        52.5004
        41.2504
    234111.48047    214226.07844
                  23660561.6564                                   23660557.8284
                                                                        42.5004
        25.0004
  -2131918.68047  -1623109.31645
                  23146028.7894                                   23146024.6884
                                                                        45.2504
        30.2504
 -10449738.83247  -8106250.18445
                  22600249.4064                                   22600246.3874
                                                                        45.5004
        30.2504
 09 10 15  1 12  0.0000000  0  9G02G04G05G13G29G10G16G07G25
  -4391168.16448  -3380492.76646
                  21762170.1254                                   21762165.0354
                                                                        48.2504
        38.2504
  12384833.00446   9665697.39844
                  24719495.9694                                   24719494.3984
                                                                        41.2504
        24.0004
 -21727934.44948 -16918238.76247
                  21067210.1254                                   21067206.6524
                                                                        52.2504
        42.7504
  -7741314.91847  -5986584.89845
                  22281366.4774                                   22281362.3984
                                                                        47.0004
        30.5004
 -20272491.26648 -15755435.25846
                  22097377.3914                                   22097374.8164
                                                                        49.5004
        38.2504
 -25931704.59048 -20194412.00446
                  20601019.9924                                   20601016.8954
                                                                        52.2504
        41.0004
    136187.30147    137921.49243
                  23641927.4064                                   23641923.2774
                                                                        43.2504
        23.0004
  -2281638.02747  -1739773.73045
                  23117538.4224                                   23117534.2854
                                                                        44.0004
        31.0004
 -10543138.46947  -8179029.11345
                  22582476.4454                                   22582472.7894
                                                                        44.7504
        31.0004
 09 10 15  1 12 30.0000000  0  9G02G04G05G13G29G10G16G07G25
  -4392093.73048  -3381213.98046
                  21761993.6644                                   21761988.9804
                                                                        49.2504
        38.5004
  12418540.22347   9691962.58644
                  24725910.5554                                   24725908.7194
                                                                        42.0004
        26.7504
 -21863092.89148 -17023557.02047
                  21041489.9144                                   21041487.0634
                                                                        52.2504
        42.5004
  -7747411.66847  -5991335.62145
                  22280206.1094                                   22280202.3914
                                                                        46.2504
        30.5004
 -20343477.22748 -15810748.99646
                  22083869.1564                                   22083867.0904
                                                                        49.5004
        37.7504
 -26046488.23848 -20283853.79746
                  20579177.5164                                   20579174.5124
                                                                        51.5004
        41.0004
     38892.11747     62107.07043
                  23623412.3134                                   23623408.6054
                                                                        43.0004
        23.5004
  -2430851.51647  -1856043.98045
                  23089144.2814                                   23089140.0704
                                                                        45.0004
        31.2504
 -10635930.96947  -8251334.94545
                  22564818.2894                                   22564814.9184
                                                                        44.5004
        30.2504
 09 10 15  1 13  0.0000000  0  8G02G05G13G29G10G16G07G25
  -4392575.37148  -3381589.27746
                  21761902.3364                                   21761897.2544
                                                                        48.7504
        38.2504
 -21997752.55148 -17128486.62147
                  21015865.0554                                   21015862.0314
                                                                        52.0004
        42.0004
  -7753020.65647  -5995706.19945
                  22279138.5554                                   22279134.8794
                                                                        45.7504
        30.0004
 -20413833.56648 -15865572.12146
                  22070480.6954                                   22070478.2774
                                                                        49.2504
        38.5004
 -26160696.61748 -20372847.34446
                  20557444.3674                                   20557441.3134
                                                                        52.2504
        41.5004
    -57773.72347    -13216.94144
                  23605017.4694                                   23605013.7664
                                                                        43.5004
        25.5004
  -2579556.69547  -1971918.10945
                  23060845.9924                                   23060842.1844
                                                                        43.2504
        31.7504
 -10728115.94547  -8323167.39845
                  22547276.1254                                   22547273.1764
                                                                        45.7504
        30.5004
 09 10 15  1 13 30.0000000  0  8G02G05G13G29G10G16G07G25
  -4392610.38348  -3381616.55946
                  21761895.3914                                   21761890.5434
                                                                        49.5004
        38.2504
 -22131907.53948 -17233022.97747
                  20990336.3204                                   20990333.1054
                                                                        52.2504
        43.0004
  -7758139.89547  -5999695.14844
                  22278164.6334                                   22278161.1724
                                                                        45.5004
        29.7504
 -20483555.45748 -15919900.83646
                  22057213.0084                                   22057210.4104
                                                                        49.5004
        38.0004
 -26274323.69148 -20461387.92647
                  20535821.6484                                   20535818.8134
                                                                        52.2504
        42.0004
   -153804.98847    -88046.50444
                  23586743.9534                                   23586739.4344
                                                                        42.7504
        25.7504
  -2727746.64847  -2087390.78945
                  23032645.9614                                   23032642.6174
                                                                        44.2504
        30.7504
 -10819688.35947  -8394522.52045
                  22529850.3984                                   22529847.1684
                                                                        44.2504
        31.2504
 09 10 15  1 14  0.0000000  0  8G02G05G13G29G10G16G07G25
  -4392200.22348  -3381296.96146
                  21761973.9774                                   21761968.6804
                                                                        48.7504
        38.0004
 -22265556.10248 -17337164.72347
                  20964903.9774                                   20964900.7154
                                                                        51.7504
        42.7504
  -7762772.09047  -6003304.64145
                  22277282.9614                                   22277279.0314
                                                                        46.2504
        31.0004
 -20552642.73048 -15973735.03146
                  22044066.3204                                   22044063.6054
                                                                        49.2504
        38.0004
 -26387368.66048 -20549474.91046
                  20514310.1024                                   20514306.9884
                                                                        52.0004
        41.5004
   -249200.41847   -162380.59844
                  23568589.9144                                   23568586.6254
                                                                        43.5004
        26.0004
  -2875417.91847  -2202459.29345
                  23004545.5474                                   23004542.2814
                                                                        44.0004
        31.0004
 -10910646.96947  -8465399.32045
                  22512541.6724                                   22512538.2664
                                                                        46.0004
        31.5004
 09 10 15  1 14 30.0000000  0  8G02G05G13G29G10G16G07G25
  -4391345.80148  -3380631.19946
                  21762136.2504                                   21762131.0904
                                                                        49.0004
        38.2504
 -22398695.51248 -17440909.73447
                  20939568.3364                                   20939565.1724
                                                                        52.0004
        42.5004
  -7766917.89847  -6006535.13345
                  22276493.9534                                   22276490.6844
                                                                        45.0004
        31.0004
 -20621095.06648 -16027074.50846
                  22031040.3134                                   22031037.5124
                                                                        49.7504
        38.2504
 -26499829.57848 -20637106.79746
                  20492909.5554                                   20492906.4224
                                                                        52.0004
        41.5004
   -343958.27747   -236217.91844
                  23550558.3674                                   23550554.7774
                                                                        42.5004
        25.2504
  -3022567.18047  -2317120.99645
                  22976543.8914                                   22976540.5044
                                                                        44.2504
        31.2504
 -11000990.63347  -8535797.00845
                  22495349.5634                                   22495346.5434
                                                                        45.5004
        31.5004
 09 10 15  1 15  0.0000000  0  8G02G05G13G29G10G16G07G25
  -4390054.88348  -3379625.32846
                  21762382.0864                                   21762376.6644
                                                                        49.5004
        38.0004
 -22531330.46548 -17544261.64147
                  20914328.5704                                   20914325.4304
                                                                        52.2504
        42.7504
  -7770585.51247  -6009393.01645
                  22275796.3914                                   22275792.6604
                                                                        46.5004
        30.2504
 -20688918.66048 -16079924.07046
                  22018133.7664                                   22018130.9694
                                                                        49.5004
        38.0004
 -26611711.11348 -20724287.19946
                  20471619.0004                                   20471616.0234
                                                                        52.2504
        41.0004
   -438083.75447   -309562.41044
                  23532646.6954                                   23532643.1804
                                                                        42.0004
        26.7504
  -3169197.74247  -2431378.55545
                  22948641.1564                                   22948637.2114
                                                                        43.7504
        31.7504
 -11090724.55947  -8605719.58645
                  22478273.9924                                   22478271.2034
                                                                        45.0004
        31.0004
 09 10 15  1 15 30.0000000  0  8G02G05G13G29G10G16G07G25
  -4388328.84048  -3378280.38346
                  21762710.4144                                   21762705.4534
                                                                        48.0004
        37.7504
 -22663458.73048 -17647218.73047
                  20889185.5864                                   20889182.1954
                                                                        51.7504
        42.2504
  -7773777.67647  -6011880.40645
                  22275189.0164                                   22275185.1484
                                                                        45.7504
        30.0004
 -20756112.88748 -16132283.20746
                  22005347.1884                                   22005344.1484
                                                                        50.2504
        38.5004
 -26723011.86748 -20811015.06246
                  20450439.4924                                   20450436.4454
                                                                        52.7504
        41.5004
   -531576.07447   -382413.58244
                  23514856.6024                                   23514852.2424
                                                                        43.0004
        25.0004
  -3315306.78947  -2545229.71145
                  22920837.1724                                   22920833.8754
                                                                        44.2504
        31.7504
 -11179847.93747  -8675166.35545
                  22461314.3284                                   22461311.5084
                                                                        45.5004
        31.2504
 09 10 15  1 16  0.0000000  0  8G02G05G13G29G10G16G07G25
  -4386174.38348  -3376601.59846
                  21763120.4694                                   21763115.3954
                                                                        48.0004
        38.0004
 -22795083.30948 -17749783.33247
                  20864138.5394                                   20864134.9774
                                                                        51.5004
        42.5004
  -7776500.44547  -6014002.03544
                  22274670.9224                                   22274667.2504
                                                                        45.0004
        29.5004
 -20822682.76248 -16184155.80546
                  21992679.3134                                   21992676.7894
                                                                        49.7504
        38.7504
 -26833735.52748 -20897293.23446
                  20429369.3914                                   20429366.3524
                                                                        52.0004
        41.7504
   -624438.71147   -454774.06644
                  23497184.7974                                   23497181.3134
                                                                        42.7504
        25.7504
  -3460896.20747  -2658675.99245
                  22893132.7424                                   22893129.0084
                                                                        44.0004
        32.2504
 -11268364.86347  -8744140.58245
                  22444470.1024                                   22444467.2504
                                                                        45.5004
        31.5004
 09 10 15  1 16 30.0000000  0  8G02G05G13G29G10G16G07G25
  -4383601.50448  -3374596.76646
                  21763609.9774                                   21763605.1564
                                                                        48.2504
        37.2504
 -22926211.39848 -17851961.07047
                  20839185.1094                                   20839182.0554
                                                                        52.2504
        42.5004
  -7778764.94147  -6015766.58245
                  22274239.6414                                   22274235.7974
                                                                        45.2504
        30.0004
 -20888637.27748 -16235548.89846
                  21980128.8914                                   21980126.2734
                                                                        49.5004
        38.5004
 -26943889.72348 -20983127.67246
                  20408407.7114                                   20408404.9884
                                                                        52.7504
        41.5004
   -716679.63347   -526650.08244
                  23479632.0474                                   23479628.3444
                                                                        42.5004
        27.0004
  -3605971.65247  -2771721.79345
                  22865525.4924                                   22865521.9574
                                                                        45.0004
        31.5004
 -11356283.17647  -8812648.34845
                  22427739.7194                                   22427736.9734
                                                                        45.5004
        31.0004
