     2.11           OBSERVATION DATA    G (GPS)             RINEX VERSION / TYPE
teqc  2019Feb25                         20221121 12:27:58UTCPGM / RUN BY / DATE
OSX ker:10.11.6|Core i5|gcc 4.3 -m64|OSX ker:10.10+|=+      COMMENT
BIT 2 OF LLI FLAGS DATA COLLECTED UNDER A/S CONDITION       COMMENT
04712760                                                    MARKER NAME
2760                                                        MARKER NUMBER
-Unknown-           -Unknown-                               OBSERVER / AGENCY
0220400471          TRIMBLE R7          2.30                REC # / TYPE / VERS
-Unknown-           TRM39105.00     NONE                    ANT # / TYPE
  1449460.3844 -1709239.8099  5952443.0361                  APPROX POSITION XYZ
        0.0000        0.0000        0.0000                  ANTENNA: DELTA H/E/N
     1     1                                                WAVELENGTH FACT L1/2
    20    L1    L2    L5    L6    L7    L8    C1    P1    C2# / TYPES OF OBSERV
          P2    C5    C6    C7    C8    S1    S2    S5    S6# / TYPES OF OBSERV
          S7    S8                                          # / TYPES OF OBSERV
    30.0000                                                 INTERVAL
    15                                                      LEAP SECONDS
Forced Modulo Decimation to 30 seconds                      COMMENT
 SNR is mapped to RINEX snr flag value [0-9]                COMMENT
  L1 & L2: min(max(int(snr_dBHz/6), 0), 9)                  COMMENT
teqc edited: Beidou # 1 - 37 excluded                       COMMENT
  2009    10     3     0     0    0.0000000     GPS         TIME OF FIRST OBS
                                                            END OF HEADER
 09 10  3  0  0  0.0000000  0  8G02G04G12G13G20G23G30G31
 -16794334.13748 -13018353.18047
                  20846190.3594                                   20846185.1844
                                                                        52.2504
        42.2504
  -8914285.62948  -6901346.97346
                  20642547.7894                                   20642544.5474
                                                                        52.7504
        41.7504
  -3033974.46147  -2342307.05945
                  23769817.6724                                   23769814.6954
                                                                        45.0004
        30.0004
 -19094463.09048 -14779577.13345
                  22005392.9694                                   22005388.6684
                                                                        49.7504
        33.5004
    853763.12946    669062.58242
                  24251661.5784                                   24251659.1484
                                                                        38.0004
        16.2504
 -11550542.55548  -8945904.37545
                  21776586.7814                                   21776580.8524
                                                                        49.7504
        35.0004
  -8648357.07847  -6694243.51245
                  22688123.2424                                   22688120.9844
                                                                        46.2504
        31.2504
  -8842672.38347  -6848941.96544
                  23772005.9924                                   23772002.4574
                                                                        43.5004
        27.5004
 09 10  3  0  0 30.0000000  0  8G02G04G12G13G20G23G30G31
 -16931729.01648 -13125414.11747
                  20820044.8834                                   20820039.8954
                                                                        52.5004
        42.0004
  -8968323.94148  -6943454.73846
                  20632264.3754                                   20632261.6724
                                                                        52.0004
        41.5004
  -3036305.02047  -2344123.09045
                  23769374.7114                                   23769371.5514
                                                                        45.5004
        30.2504
 -19254401.12948 -14904204.19145
                  21974957.1954                                   21974953.3204
                                                                        49.0004
        33.2504
    877588.74646    687628.03142
                  24256195.2274                                   24256193.1884
                                                                        38.7504
        17.2504
 -11626754.53548  -9005290.30945
                  21762083.9694                                   21762078.4184
                                                                        50.0004
        35.2504
  -8694501.27347  -6730200.04745
                  22679342.6174                                   22679340.2974
                                                                        46.5004
        30.2504
  -8894582.50946  -6889391.39844
                  23762127.8284                                   23762123.8874
                                                                        40.5004
        27.0004
 09 10  3  0  1  0.0000000  0  8G02G04G12G13G20G23G30G31
 -17068601.72348 -13232068.17647
                  20793998.9064                                   20793993.8284
                                                                        51.5004
        42.0004
  -9021793.86748  -6985119.60946
                  20622089.1724                                   20622086.1684
                                                                        53.5004
        41.7504
  -3038242.18747  -2345632.60245
                  23769005.6804                                   23769002.5394
                                                                        45.0004
        30.0004
 -19413786.36748 -15028400.48845
                  21944627.4304                                   21944623.7734
                                                                        49.0004
        33.5004
    901591.55946    706331.53542
                  24260763.7814                                   24260760.3524
                                                                        39.2504
        17.7504
 -11702305.15648  -9064160.87945
                  21747707.2344                                   21747701.5204
                                                                        49.0004
        35.5004
  -8739992.59447  -6765647.79345
                  22670685.6334                                   22670682.8754
                                                                        45.5004
        30.0004
  -8945902.89546  -6929381.32444
                  23752362.0474                                   23752358.2704
                                                                        40.7504
        27.5004
 09 10  3  0  1 30.0000000  0  7G02G04G12G13G23G30G31
 -17204952.53548 -13338315.56247
                  20768052.3134                                   20768047.0554
                                                                        52.0004
        42.2504
  -9074698.70749  -7026344.15246
                  20612022.0554                                   20612018.7504
                                                                        54.0004
        41.5004
  -3039791.24247  -2346839.64544
                  23768711.1024                                   23768707.8244
                                                                        44.5004
        29.5004
 -19572618.55948 -15152165.78945
                  21914402.5554                                   21914398.7734
                                                                        49.0004
        33.5004
 -11777197.32448  -9122518.41045
                  21733455.3364                                   21733449.6804
                                                                        48.5004
        34.7504
  -8784835.25447  -6800590.09845
                  22662152.2034                                   22662149.7074
                                                                        46.0004
        30.5004
  -8996637.39547  -6968914.70744
                  23742706.7894                                   23742703.5314
                                                                        43.0004
        26.7504
 09 10  3  0  2  0.0000000  0  7G02G04G12G13G23G30G31
 -17340779.03948 -13444154.38747
                  20742205.3674                                   20742200.0164
                                                                        52.0004
        42.0004
  -9127038.14548  -7067128.13746
                  20602061.6254                                   20602058.9494
                                                                        52.0004
        41.5004
  -3040954.03547  -2347745.70344
                  23768490.2274                                   23768486.0354
                                                                        45.5004
        28.2504
 -19730894.14548 -15275497.38745
                  21884283.7814                                   21884279.9414
                                                                        49.5004
        33.7504
 -11851430.25048  -9180362.24645
                  21719329.6484                                   21719324.1174
                                                                        49.0004
        34.7504
  -8829029.75047  -6835027.35544
                  22653742.2894                                   22653739.3094
                                                                        45.5004
        29.7504
  -9046786.11746  -7007991.60944
                  23733164.3524                                   23733160.5704
                                                                        40.5004
        26.7504
 09 10  3  0  2 30.0000000  0  7G02G04G12G13G23G30G31
 -17476076.46948 -13549580.93747
                  20716459.1954                                   20716453.7894
                                                                        51.2504
        42.7504
  -9178810.28148  -7107470.09046
                  20592210.2424                                   20592207.3094
                                                                        53.2504
        41.7504
  -3041730.15247  -2348350.45344
                  23768342.1804                                   23768338.7114
                                                                        45.5004
        29.0004
 -19888607.42248 -15398390.83645
                  21854272.0554                                   21854267.9924
                                                                        49.2504
        33.7504
 -11925000.92648  -9237690.02745
                  21705329.3134                                   21705324.0004
                                                                        49.0004
        35.7504
  -8872574.93747  -6868958.66044
                  22645456.2114                                   22645453.3014
                                                                        45.2504
        29.7504
  -9096347.25047  -7046610.68044
                  23723733.6334                                   23723729.1094
                                                                        44.2504
        28.0004
 09 10  3  0  3  0.0000000  0  7G02G04G12G13G23G30G31
 -17610841.22348 -13654592.44547
                  20690814.2584                                   20690809.0234
                                                                        51.7504
        42.5004
  -9230013.35548  -7147368.57047
                  20582466.4384                                   20582463.9304
                                                                        53.5004
        42.5004
  -3042120.01247  -2348654.29745
                  23768268.2274                                   23768264.4104
                                                                        44.7504
        30.2504
 -20045753.62148 -15520842.39845
                  21824368.0004                                   21824363.9104
                                                                        49.7504
        33.5004
 -11997907.41448  -9294500.27045
                  21691455.4534                                   21691450.1954
                                                                        49.0004
        35.5004
  -8915470.17247  -6902383.52744
                  22637293.7034                                   22637290.1564
                                                                        44.5004
        29.2504
  -9145319.41047  -7084770.80144
                  23714414.0314                                   23714410.2854
                                                                        43.7504
        27.5004
 09 10  3  0  3 30.0000000  0  7G02G04G12G13G23G30G31
 -16169650.43448 -12531586.63347
                  20965063.6414                                   20965058.6334
                                                                        52.5004
        42.2504
  -7705230.55948  -5959226.12946
                  20872623.1484                                   20872620.7194
                                                                        52.5004
        41.5004
  -1466709.42247  -1121061.67644
                  24068058.0554                                   24068055.2624
                                                                        44.5004
        29.2504
 -18626909.05148 -14415249.21545
                  22094364.9924                                   22094361.2384
                                                                        50.0004
        34.5004
 -10494732.06248  -8123194.78145
                  21977500.6564                                   21977494.8134
                                                                        49.2504
        34.2504
  -7382299.25447  -5707704.87944
                  22929045.9064                                   22929043.4494
                                                                        43.5004
        29.5004
  -7618286.29746  -5894874.88344
                  24004999.0704                                   24004995.0234
                                                                        41.0004
        26.5004
 09 10  3  0  4  0.0000000  0  7G02G04G12G13G23G30G31
 -16303355.28548 -12635772.23447
                  20939620.5784                                   20939615.1644
                                                                        52.0004
        42.5004
  -7755310.00448  -5998249.08247
                  20863093.2034                                   20863090.3714
                                                                        53.0004
        42.5004
  -1466345.56247  -1120778.15644
                  24068127.8444                                   24068124.9384
                                                                        44.0004
        28.2504
 -18782925.14848 -14536820.23845
                  22064675.7344                                   22064672.1484
                                                                        49.5004
        33.5004
 -10566323.43048  -8178980.27045
                  21963877.0784                                   21963871.6644
                                                                        48.2504
        34.7504
  -7423911.21147  -5740129.78545
                  22921127.4924                                   22921124.9024
                                                                        45.0004
        30.0004
  -7666096.23847  -5932129.36344
                  23995900.9614                                   23995897.0394
                                                                        44.5004
        28.0004
 09 10  3  0  4 30.0000000  0  8G02G04G12G13G29G23G30G31
 -16436533.40248 -12739547.38747
                  20914277.6954                                   20914272.6724
                                                                        52.0004
        42.0004
  -7804834.87548  -6036839.88746
                  20853668.9924                                   20853666.2464
                                                                        53.2504
        41.7504
  -1465614.77747  -1120208.74244
                  24068267.0394                                   24068263.8014
                                                                        44.2504
        28.7504
 -18938378.48448 -14657952.66845
                  22035094.3984                                   22035091.0634
                                                                        49.7504
        34.7504
   1298030.99256   1051981.42254
                  24517563.3284                                   24517560.6764
                                                                        41.2504
        24.5004
 -10637264.21148  -8234258.79745
                  21950378.0784                                   21950372.3204
                                                                        49.0004
        35.5004
  -7464889.93747  -5772061.26245
                  22913329.5634                                   22913327.0204
                                                                        43.7504
        30.2504
  -7713333.20747  -5968937.37944
                  23986911.5944                                   23986908.3914
                                                                        43.2504
        26.2504
 09 10  3  0  5  0.0000000  0  8G02G04G12G13G29G23G30G31
 -16569190.94948 -12842916.90247
                  20889033.6334                                   20889028.3524
                                                                        51.0004
        42.7504
  -7853813.58248  -6075005.10546
                  20844348.3524                                   20844345.6454
                                                                        53.0004
        41.5004
  -1464527.36347  -1119361.38744
                  24068474.0004                                   24068470.8834
                                                                        44.0004
        29.0004
 -19093273.74248 -14778650.27745
                  22005619.0234                                   22005615.0474
                                                                        49.5004
        34.2504
   1108221.16447    904077.66844
                  24481443.8524                                   24481441.2234
                                                                        43.0004
        26.2504
 -10707561.61748  -8289036.00045
                  21937000.4614                                   21936995.1804
                                                                        48.0004
        35.5004
  -7505244.78947  -5803506.61744
                  22905650.1724                                   22905647.8014
                                                                        45.2504
        29.5004
  -7760005.92647  -6005305.72744
                  23978030.6804                                   23978026.9534
                                                                        43.0004
        26.5004
 09 10  3  0  5 30.0000000  0  8G02G04G12G13G29G23G30G31
 -16701331.50448 -12945883.55547
                  20863888.1644                                   20863883.0784
                                                                        51.2504
        42.0004
  -7902252.27048  -6112749.54747
                  20835130.9844                                   20835128.0984
                                                                        53.5004
        42.0004
  -1463091.05547  -1118242.14845
                  24068747.0234                                   24068743.9774
                                                                        43.7504
        30.5004
 -19247613.77048 -14898915.21145
                  21976248.7664                                   21976244.9304
                                                                        49.7504
        34.2504
    918653.01646    756362.26644
                  24445369.5704                                   24445367.6054
                                                                        41.2504
        26.5004
 -10777221.71548  -8343316.57445
                  21923744.6884                                   21923739.1884
                                                                        48.5004
        35.0004
  -7544982.66847  -5834471.18745
                  22898088.4304                                   22898085.7274
                                                                        45.5004
        30.0004
  -7806121.02047  -6041239.55944
                  23969254.8594                                   23969251.3164
                                                                        43.2504
        27.0004
 09 10  3  0  6  0.0000000  0  8G02G04G12G13G29G23G30G31
 -16832955.07048 -13048447.36747
                  20838841.0784                                   20838835.6914
                                                                        50.0004
        42.2504
  -7950153.64848  -6150075.28546
                  20826015.6414                                   20826013.0554
                                                                        53.2504
        41.7504
  -1461310.82047  -1116854.92245
                  24069086.5394                                   24069082.9104
                                                                        45.0004
        30.7504
 -19401398.10948 -15018747.16445
                  21946984.4144                                   21946981.0274
                                                                        49.2504
        34.5004
    729327.73446    608836.12144
                  24409341.9694                                   24409340.3954
                                                                        39.0004
        25.2504
 -10846247.22748  -8397102.68045
                  21910609.3594                                   21910603.8714
                                                                        48.2504
        35.5004
  -7584107.17647  -5864957.82444
                  22890643.7034                                   22890641.1564
                                                                        44.0004
        29.2504
  -7851681.59847  -6076741.33644
                  23960585.4144                                   23960581.5274
                                                                        42.7504
        26.5004
 09 10  3  0  6 30.0000000  0  8G02G04G12G13G29G23G30G31
 -16964054.47748 -13150602.74647
                  20813893.7344                                   20813888.6484
                                                                        51.0004
        42.5004
  -7997513.21948  -6186978.83647
                  20817003.6414                                   20817000.9064
                                                                        53.2504
        42.2504
  -1459183.95747  -1115197.65644
                  24069490.3444                                   24069487.8364
                                                                        44.7504
        29.7504
 -19554618.24248 -15138139.45745
                  21917827.8204                                   21917824.1724
                                                                        50.0004
        34.2504
    540252.96546    461505.21144
                  24373362.1954                                   24373360.8444
                                                                        39.2504
        25.5004
 -10914632.45348  -8450389.81645
                  21897596.2504                                   21897590.7074
                                                                        48.5004
        35.0004
  -7622615.22347  -5894964.08644
                  22883315.3284                                   22883312.9144
                                                                        43.0004
        29.5004
  -7896683.94147  -6111808.10244
                  23952021.7584                                   23952017.9184
                                                                        43.5004
        27.5004
 09 10  3  0  7  0.0000000  0  8G02G04G12G13G29G23G30G31
 -17094625.64148 -13252346.50047
                  20789046.8054                                   20789041.5554
                                                                        51.7504
        42.5004
  -8044329.05948  -6223458.71147
                  20808094.8204                                   20808091.8094
                                                                        53.0004
        42.0004
  -1456709.59047  -1113269.62144
                  24069961.5084                                   24069958.2774
                                                                        45.5004
        29.7504
 -19707269.23448 -15257088.26645
                  21888779.3754                                   21888775.6764
                                                                        49.7504
        34.2504
    351434.93446    314374.34443
                  24337431.3364                                   24337429.3404
                                                                        38.5004
        23.5004
 -10982375.52748  -8503176.60545
                  21884704.9454                                   21884699.3134
                                                                        48.2504
        35.2504
  -7660505.16047  -5924488.71544
                  22876104.9224                                   22876102.9224
                                                                        43.7504
        29.5004
  -7941125.69147  -6146438.02344
                  23943564.5394                                   23943561.2074
                                                                        43.0004
        27.7504
 09 10  3  0  7 30.0000000  0  8G02G04G12G13G29G23G30G31
 -17224665.04348 -13353675.90647
                  20764300.9614                                   20764296.0274
                                                                        50.7504
        42.2504
  -8090600.52348  -6259514.38746
                  20799289.6884                                   20799286.4384
                                                                        52.0004
        41.5004
  -1453889.31247  -1111072.03144
                  24070498.1414                                   24070494.9304
                                                                        45.2504
        28.5004
 -19859346.87548 -15375590.30145
                  21859839.9224                                   21859836.1094
                                                                        49.5004
        34.5004
    162877.42646    167446.45344
                  24301550.2274                                   24301548.1094
                                                                        41.5004
        24.7504
 -11049475.39548  -8555462.19945
                  21871936.4454                                   21871931.1684
                                                                        48.2504
        35.0004
  -7697777.43747  -5953532.00845
                  22869012.2274                                   22869010.0824
                                                                        44.0004
        30.2504
  -7985006.85946  -6180631.12944
                  23935214.7344                                   23935210.7734
                                                                        41.0004
        27.7504
 09 10  3  0  8  0.0000000  0  8G02G04G12G13G29G23G30G31
 -17354169.26248 -13454588.28147
                  20739657.1174                                   20739652.2424
                                                                        51.7504
        42.5004
  -8136327.08648  -6295145.46547
                  20790588.1884                                   20790585.1724
                                                                        53.7504
        42.0004
  -1450724.06647  -1108605.63744
                  24071100.1334                                   24071097.3324
                                                                        44.0004
        26.5004
 -20010847.59448 -15493642.79745
                  21831010.1564                                   21831006.5824
                                                                        49.2504
        34.0004
    -25414.93047     20725.12144
                  24265719.9144                                   24265717.1334
                                                                        42.5004
        26.0004
 -11115930.94548  -8607245.72345
                  21859290.4224                                   21859284.5394
                                                                        49.0004
        35.5004
  -7734432.16047  -5982094.12544
                  22862037.2814                                   22862034.7544
                                                                        44.5004
        29.5004
  -8028327.46547  -6214387.42644
                  23926970.9614                                   23926967.0594
                                                                        44.0004
        27.5004
 09 10  3  0  8 30.0000000  0  8G02G04G12G13G29G23G30G31
 -17483135.28148 -13555081.27347
                  20715115.5704                                   20715111.0984
                                                                        51.5004
        42.2504
  -8181508.28548  -6330351.61747
                  20781990.2344                                   20781987.6054
                                                                        51.2504
        42.0004
  -1447214.80947  -1105871.18444
                  24071768.3524                                   24071765.0704
                                                                        43.5004
        27.5004
 -20161767.27048 -15611242.55945
                  21802291.2344                                   21802287.4654
                                                                        50.2504
        35.0004
   -213438.30946   -125786.60244
                  24229939.7114                                   24229937.6484
                                                                        41.2504
        25.2504
 -11181741.60948  -8658526.75845
                  21846767.1024                                   21846761.3364
                                                                        48.2504
        35.7504
  -7770470.26647  -6010175.75844
                  22855179.3134                                   22855176.9614
                                                                        43.7504
        29.7504
  -8071087.96946  -6247707.28944
                  23918833.3754                                   23918829.7034
                                                                        40.7504
        27.0004
 09 10  3  0  9  0.0000000  0  8G02G04G12G13G29G23G30G31
 -17611562.76248 -13655154.61347
                  20690676.7034                                   20690671.9964
                                                                        52.0004
        42.5004
  -8226145.91448  -6365134.18747
                  20773496.2274                                   20773493.1914
                                                                        53.2504
        42.0004
  -1443365.68747  -1102871.83244
                  24072500.9064                                   24072497.5594
                                                                        44.5004
        28.2504
 -20312104.30548 -15728388.31645
                  21773683.3984                                   21773679.6524
                                                                        49.7504
        34.7504
   -401190.87146   -272087.25044
                  24194211.2894                                   24194209.6484
                                                                        40.0004
        25.0004
 -11246908.69548  -8709306.25845
                  21834365.9144                                   21834360.5944
                                                                        48.2504
        35.0004
  -7805894.42647  -6037778.99244
                  22848438.9384                                   22848435.6604
                                                                        45.2504
        29.7504
  -8113290.27747  -6280592.18444
                  23910802.6174                                   23910798.9734
                                                                        42.7504
        27.0004
 09 10  3  0  9 30.0000000  0  8G02G04G12G13G29G23G30G31
 -17739449.40648 -13754806.51647
                  20666341.0634                                   20666336.0474
                                                                        51.7504
        42.2504
  -8270240.73448  -6399493.78947
                  20765105.1724                                   20765102.0864
                                                                        51.5004
        42.0004
  -1439178.59447  -1099609.16844
                  24073297.5784                                   24073294.2194
                                                                        44.2504
        29.0004
 -20461856.07448 -15845078.03945
                  21745186.1954                                   21745182.4694
                                                                        49.5004
        34.2504
   -588669.34846   -418174.30944
                  24158535.1724                                   24158533.6644
                                                                        40.0004
        25.7504
 -11311432.56648  -8759584.57045
                  21822087.6094                                   21822082.3164
                                                                        49.2504
        34.7504
  -7840705.91847  -6064904.78545
                  22841814.2504                                   22841811.3364
                                                                        45.0004
        30.0004
  -8154935.44546  -6313042.97344
                  23902877.9694                                   23902873.6564
                                                                        40.5004
        26.0004
 09 10  3  0 10  0.0000000  0  8G02G04G12G13G29G23G30G31
 -17866794.33648 -13854036.29747
                  20642107.9694                                   20642102.7034
                                                                        51.0004
        42.2504
  -8313794.21148  -6433431.56646
                  20756817.2344                                   20756814.4184
                                                                        53.2504
        41.2504
  -1434657.16447  -1096085.97744
                  24074157.8524                                   24074154.8364
                                                                        44.5004
        29.0004
 -20611020.85548 -15961310.35945
                  21716801.3444                                   21716797.1684
                                                                        48.5004
        34.7504
   -775872.01246   -564046.44144
                  24122911.5944                                   24122909.8834
                                                                        41.2504
        25.7504
 -11375314.46148  -8809362.62545
                  21809931.4844                                   21809925.5944
                                                                        48.5004
        35.7504
  -7874907.82047  -6091555.60944
                  22835305.8524                                   22835303.0704
                                                                        46.0004
        29.7504
  -8196025.68447  -6345061.33244
                  23895058.5944                                   23895054.6294
                                                                        43.0004
        25.2504
 09 10  3  0 10 30.0000000  0  8G02G04G12G13G29G23G30G31
 -17993598.25448 -13952844.50047
                  20617978.1644                                   20617972.8404
                                                                        52.2504
        43.0004
  -8356809.57848  -6466950.01646
                  20748631.6954                                   20748629.0904
                                                                        52.2504
        41.5004
  -1429806.18447  -1092305.96945
                  24075081.3914                                   24075078.3094
                                                                        45.2504
        30.0004
 -20759598.62148 -16077085.25845
                  21688527.8284                                   21688524.1294
                                                                        49.5004
        35.0004
   -962798.14547   -709703.11344
                  24087341.2194                                   24087339.1134
                                                                        42.5004
        26.5004
 -11438557.30148  -8858642.72745
                  21797896.6334                                   21797891.0274
                                                                        48.5004
        35.0004
  -7908504.18747  -6117734.62144
                  22828913.0704                                   22828909.3634
                                                                        46.2504
        29.2504
  -8236564.59446  -6376650.09844
                  23887344.0084                                   23887340.1724
                                                                        41.0004
        26.2504
 09 10  3  0 11  0.0000000  0  9G02G04G12G13G29G10G23G30G31
 -18119862.61348 -14051232.27347
                  20593950.6954                                   20593945.5314
                                                                        52.0004
        43.0004
  -8399291.32848  -6500052.68046
                  20740547.2424                                   20740544.8524
                                                                        51.5004
        41.5004
  -1424631.35547  -1088273.66045
                  24076065.9924                                   24076063.0904
                                                                        45.2504
        30.2504
 -20907589.93448 -16192403.19145
                  21660365.9144                                   21660362.2734
                                                                        49.7504
        34.7504
  -1149447.54347   -855144.16044
                  24051822.7734                                   24051820.4964
                                                                        43.0004
        26.0004
   1274893.50057   1037310.03154
                  24019089.3914                                   24019087.1174
                                                                        42.0004
        25.7504
 -11501165.10948  -8907428.00445
                  21785982.5634                                   21785976.9574
                                                                        48.0004
        34.7504
  -7941499.71947  -6143445.39544
                  22822633.7034                                   22822630.2234
                                                                        46.0004
        29.2504
  -8276556.91046  -6407812.92644
                  23879733.4924                                   23879729.6724
                                                                        39.7504
        26.2504
 09 10  3  0 11 30.0000000  0  9G02G04G12G13G29G10G23G30G31
 -18245588.56248 -14149200.54347
                  20570025.6804                                   20570020.4414
                                                                        51.7504
        42.5004
  -8441242.97348  -6532742.24246
                  20732564.5314                                   20732561.5084
                                                                        53.7504
        41.5004
  -1419138.23047  -1083993.28144
                  24077111.7344                                   24077108.4774
                                                                        44.2504
        29.5004
 -21054995.36348 -16307264.56245
                  21632315.5234                                   21632312.1024
                                                                        49.0004
        35.0004
  -1335820.94547  -1000370.12544
                  24016357.1564                                   24016354.9964
                                                                        43.0004
        27.0004
   1069131.48447    876976.00444
                  23979934.6414                                   23979931.4694
                                                                        42.7504
        24.2504
 -11563141.23048  -8955721.01245
                  21774189.2274                                   21774182.9024
                                                                        49.0004
        34.5004
  -7973899.48447  -6168691.94544
                  22816467.9064                                   22816465.3094
                                                                        44.0004
        28.5004
  -8316006.77747  -6438553.07044
                  23872227.1564                                   23872223.0664
                                                                        42.5004
        26.5004
 09 10  3  0 12  0.0000000  0  9G02G04G12G13G29G10G23G30G31
 -18370775.97748 -14246749.19947
                  20546203.0394                                   20546198.2344
                                                                        51.7504
        42.7504
  -8482666.70748  -6565020.46146
                  20724682.0864                                   20724678.6844
                                                                        52.0004
        41.2504
  -1413330.77046  -1079468.03544
                  24078215.9224                                   24078213.6804
                                                                        41.7504
        27.5004
 -21201813.44548 -16421668.26245
                  21604376.9844                                   21604373.5124
                                                                        49.2504
        35.0004
  -1521916.89547  -1145379.92644
                  23980943.9454                                   23980941.6294
                                                                        42.0004
        25.5004
    863524.92647    716763.09844
                  23940808.7734                                   23940805.0984
                                                                        44.0004
        25.5004
 -11624487.24248  -9003523.06645
                  21762514.8834                                   21762509.2154
                                                                        49.5004
        34.0004
  -8005707.04747  -6193477.04344
                  22810415.0784                                   22810412.7814
                                                                        44.0004
        28.5004
  -8354917.02746  -6468872.75844
                  23864822.0784                                   23864818.6884
                                                                        40.0004
        26.5004
 09 10  3  0 12 30.0000000  0  9G02G04G12G13G29G10G23G30G31
 -16919997.96548 -13116272.83247
                  20822277.1254                                   20822272.2384
                                                                        52.2504
        42.5004
  -6948141.37548  -5369286.44946
                  21016692.3594                                   21016689.4304
                                                                        53.2504
        41.5004
    168209.16847    152900.68044
                  24379172.7584                                   24379170.3094
                                                                        42.0004
        26.7504
 -19772616.31648 -15308008.17645
                  21876344.1484                                   21876340.6994
                                                                        49.0004
        35.2504
   -132305.06646    -62565.46544
                  24245378.2344                                   24245375.9184
                                                                        41.0004
        25.0004
   2233504.43847   1784279.56344
                  24201507.3594                                   24201503.7114
                                                                        44.5004
        24.7504
 -10109781.27348  -7823232.69145
                  22050754.3284                                   22050747.7974
                                                                        49.2504
        33.7504
  -6461501.85947  -4990200.32044
                  23104267.8594                                   23104265.4384
                                                                        43.7504
        28.0004
  -6817866.76247  -5271171.24244
                  24157313.1094                                   24157309.9844
                                                                        42.5004
        25.7504
 09 10  3  0 13  0.0000000  0  9G02G04G12G13G29G10G23G30G31
 -17044099.72748 -13212975.50447
                  20798661.7424                                   20798656.1764
                                                                        52.2504
        42.7504
  -6988509.14148  -5400741.85246
                  21009010.6644                                   21009007.7584
                                                                        52.5004
        41.5004
    174641.06347    157912.50844
                  24380397.6024                                   24380393.9494
                                                                        43.0004
        26.7504
 -19918250.28548 -15421489.34845
                  21848631.0944                                   21848627.5004
                                                                        49.2504
        34.7504
   -317833.74646   -207133.19144
                  24210073.2194                                   24210070.9024
                                                                        41.0004
        26.2504
   2028220.11346   1624317.70744
                  24162442.6094                                   24162440.1174
                                                                        41.2504
        24.0004
 -10169866.92648  -7870052.68445
                  22039320.1564                                   22039314.2114
                                                                        49.7504
        34.2504
  -6492126.47747  -5014063.64844
                  23098439.7424                                   23098437.5984
                                                                        44.0004
        27.7504
  -6855698.88746  -5300650.82044
                  24150114.0314                                   24150110.3244
                                                                        40.2504
        26.5004
 09 10  3  0 13 30.0000000  0  9G02G04G12G13G29G10G23G30G31
 -17167654.73048 -13309252.14147
                  20775149.8524                                   20775144.6174
                                                                        52.2504
        42.5004
  -7028348.94548  -5431785.86746
                  21001429.3364                                   21001426.7074
                                                                        53.2504
        41.7504
    181382.93847    163165.89544
                  24381680.0944                                   24381676.9494
                                                                        44.2504
        27.0004
 -20063287.22348 -15534505.46945
                  21821031.5944                                   21821028.1414
                                                                        49.5004
        35.0004
   -503072.96146   -351475.39544
                  24174823.9144                                   24174821.3284
                                                                        41.2504
        26.5004
   1823101.44146   1464485.03944
                  24123409.2114                                   24123407.9454
                                                                        40.5004
        24.5004
 -10229321.62548  -7916381.01645
                  22028006.2194                                   22028000.5514
                                                                        49.0004
        34.2504
  -6522161.46547  -5037467.55544
                  23092723.9064                                   23092721.9654
                                                                        44.5004
        28.7504
  -6892992.63347  -5329710.87544
                  24143017.8364                                   24143013.6994
                                                                        42.7504
        28.0004
 09 10  3  0 14  0.0000000  0  9G02G04G12G13G29G10G23G30G31
 -17290659.75448 -13405100.23847
                  20751742.6884                                   20751737.3244
                                                                        52.2504
        42.7504
  -7067659.82848  -5462417.73046
                  20993948.5704                                   20993945.6994
                                                                        53.0004
        41.5004
    188433.32047    168659.66844
                  24383022.3284                                   24383018.7154
                                                                        44.5004
        27.7504
 -20207721.79748 -15647051.77345
                  21793546.4774                                   21793543.0864
                                                                        49.2504
        35.7504
   -688018.18746   -495588.50044
                  24139629.6954                                   24139627.4414
                                                                        40.5004
        27.0004
   1618153.55546   1304785.37944
                  24084410.2114                                   24084407.7774
                                                                        41.2504
        27.5004
 -10288144.37148  -7962216.95345
                  22016812.5084                                   22016806.7344
                                                                        49.0004
        34.7504
  -6551606.61747  -5060411.81644
                  23087121.6954                                   23087119.2704
                                                                        44.5004
        29.2504
  -6929747.44147  -5358350.97344
                  24136022.9614                                   24136019.5394
                                                                        42.2504
        26.0004
 09 10  3  0 14 30.0000000  0  9G02G04G12G13G29G10G23G30G31
 -17413111.15248 -13500516.91847
                  20728440.9614                                   20728435.6134
                                                                        52.5004
        42.5004
  -7106440.93448  -5492636.79746
                  20986568.8754                                   20986566.4844
                                                                        53.2504
        41.5004
    195791.84447    174393.54744
                  24384422.7584                                   24384419.0514
                                                                        44.5004
        28.7504
 -20351550.75048 -15759126.25445
                  21766176.9694                                   21766173.3594
                                                                        49.2504
        34.7504
   -872664.84046   -639468.95744
                  24104492.3524                                   24104490.1524
                                                                        40.0004
        26.2504
   1413380.52347   1145221.99244
                  24045443.2504                                   24045440.7344
                                                                        43.0004
        28.7504
 -10346333.83648  -8007559.41045
                  22005739.5944                                   22005733.8954
                                                                        49.0004
        34.0004
  -6580462.60247  -5082897.03144
                  23081630.0704                                   23081628.1374
                                                                        45.0004
        29.5004
  -6965963.50847  -5386571.27344
                  24129131.6484                                   24129127.8164
                                                                        42.7504
        26.7504
 09 10  3  0 15  0.0000000  0  9G02G04G12G13G29G10G23G30G31
 -17535009.62148 -13595502.70347
                  20705244.2344                                   20705239.0744
                                                                        51.5004
        42.5004
  -7144695.70348  -5522445.77346
                  20979289.1254                                   20979286.5434
                                                                        53.0004
        40.7504
    203454.13347    180364.12144
                  24385880.9224                                   24385877.4414
                                                                        43.2504
        28.7504
 -20494774.42248 -15870729.19145
                  21738922.3444                                   21738918.8404
                                                                        49.5004
        35.0004
  -1057012.07846   -783116.10244
                  24069412.5234                                   24069409.8484
                                                                        41.5004
        26.7504
   1208782.81347    985795.19144
                  24006509.4774                                   24006507.2114
                                                                        43.5004
        28.5004
 -10403893.46548  -8052411.09845
                  21994786.3054                                   21994780.8324
                                                                        49.0004
        34.5004
  -6608733.60247  -5104926.39844
                  23076250.6644                                   23076248.2344
                                                                        44.7504
        29.0004
  -7001644.12947  -5414374.34044
                  24122341.4614                                   24122338.1484
                                                                        42.0004
        27.0004
 09 10  3  0 15 30.0000000  0  9G02G04G12G13G29G10G23G30G31
 -17656348.28948 -13690052.28547
                  20682154.4454                                   20682149.4534
                                                                        52.2504
        43.0004
  -7182419.80948  -5551841.21146
                  20972110.6174                                   20972107.7344
                                                                        52.5004
        41.0004
    211422.37547    186573.09444
                  24387396.5704                                   24387394.0744
                                                                        42.2504
        27.0004
 -20637385.17648 -15981854.69145
                  21711784.8524                                   21711780.7034
                                                                        49.0004
        35.2504
  -1241051.86346   -926523.69144
                  24034391.3134                                   24034388.4884
                                                                        41.7504
        27.7504
   1004367.98847    826510.92244
                  23967610.1804                                   23967607.6174
                                                                        42.5004
        26.2504
 -10460818.94948  -8096768.63345
                  21983953.8054                                   21983947.8754
                                                                        48.5004
        34.0004
  -6636416.14547  -5126497.23045
                  23070983.0784                                   23070980.2664
                                                                        44.7504
        30.0004
  -7036786.01647  -5441757.62544
                  24115654.2814                                   24115650.6334
                                                                        42.5004
        27.5004
 09 10  3  0 16  0.0000000  0  9G02G04G12G13G29G10G23G30G31
 -17777134.31648 -13784171.27047
                  20659169.4224                                   20659164.3874
                                                                        52.2504
        43.0004
  -7219623.01248  -5580830.77746
                  20965031.1804                                   20965028.0984
                                                                        53.2504
        41.0004
    219685.18047    193011.59444
                  24388968.6094                                   24388966.5164
                                                                        42.0004
        27.2504
 -20779389.71548 -16092508.17245
                  21684762.5944                                   21684759.0204
                                                                        49.7504
        35.0004
  -1424789.85946  -1069696.12144
                  23999426.9144                                   23999424.1374
                                                                        41.0004
        27.0004
    800129.84846    667364.32044
                  23928744.4064                                   23928741.6914
                                                                        40.5004
        24.5004
 -10517119.25848  -8140639.00445
                  21973240.0864                                   21973234.3634
                                                                        48.7504
        34.0004
  -6663520.87147  -5147617.79344
                  23065825.3284                                   23065822.3714
                                                                        45.5004
        29.7504
  -7071398.78547  -5468728.59844
                  24109068.1724                                   24109063.9104
                                                                        43.2504
        27.2504
 09 10  3  0 16 30.0000000  0  9G02G04G12G13G29G10G23G30G31
 -17897360.32448 -13877853.84447
                  20636291.0944                                   20636286.2034
                                                                        52.5004
        42.7504
  -7256300.14548  -5609410.37546
                  20958051.8364                                   20958049.0744
                                                                        52.7504
        41.0004
    228246.12147    199682.38744
                  24390598.2344                                   24390595.2814
                                                                        43.0004
        27.2504
 -20920779.02048 -16202682.24645
                  21657857.8204                                   21657854.0824
                                                                        49.5004
        34.5004
  -1608217.31246  -1212626.54744
                  23964521.2664                                   23964519.1374
                                                                        41.2504
        26.5004
    596076.58646    508361.77343
                  23889914.8984                                   23889911.6604
                                                                        40.5004
        23.0004
 -10572789.60248  -8184018.50845
                  21962646.4224                                   21962640.5864
                                                                        49.2504
        33.2504
  -6690044.09847  -5168285.26245
                  23060778.0704                                   23060775.3364
                                                                        46.2504
        30.2504
  -7105478.43047  -5495284.13344
                  24102583.1804                                   24102578.8634
                                                                        44.5004
        27.2504
 09 10  3  0 17  0.0000000  0  9G02G04G12G13G29G10G23G30G31
 -18017028.20348 -13971101.58247
                  20613519.3834                                   20613514.1884
                                                                        52.0004
        42.5004
  -7292457.53948  -5637585.56246
                  20951171.7274                                   20951168.7304
                                                                        52.0004
        41.0004
    237098.55947    206580.35544
                  24392283.1254                                   24392280.0124
                                                                        42.7504
        27.0004
 -21061553.81248 -16312376.85945
                  21631068.4694                                   21631065.4804
                                                                        49.5004
        35.2504
  -1791335.38746  -1355315.89144
                  23929675.1024                                   23929672.2424
                                                                        40.7504
        25.5004
    392206.91447    349502.28944
                  23851119.8524                                   23851117.4844
                                                                        42.0004
        26.5004
 -10627834.53148  -8226910.66845
                  21952171.7344                                   21952166.3164
                                                                        49.0004
        34.5004
  -6715991.89547  -5188504.34045
                  23055840.2194                                   23055838.2114
                                                                        46.0004
        30.5004
  -7139030.60546  -5521428.68744
                  24096198.2814                                   24096194.6884
                                                                        40.2504
        27.5004
 09 10  3  0 17 30.0000000  0  9G02G04G12G13G29G10G23G30G31
 -18136142.18448 -14063917.65647
                  20590852.5554                                   20590847.2504
                                                                        52.5004
        42.5004
  -7328099.78948  -5665359.01246
                  20944389.2894                                   20944387.1054
                                                                        52.5004
        41.0004
    246234.76247    213699.45744
                  24394021.6954                                   24394018.1024
                                                                        42.7504
        25.7504
 -21201718.38748 -16421595.92245
                  21604396.4844                                   21604393.0474
                                                                        49.7504
        35.0004
  -1974146.85946  -1497766.34844
                  23894886.8914                                   23894884.6644
                                                                        39.7504
        25.0004
    188517.80947    190783.56644
                  23812359.0394                                   23812357.3794
                                                                        43.0004
        28.5004
 -10682260.72748  -8269320.88345
                  21941814.9534                                   21941809.1914
                                                                        49.0004
        34.0004
  -6741371.77347  -5208280.85944
                  23051010.5474                                   23051008.1254
                                                                        44.2504
        29.2504
  -7172062.14146  -5547167.59444
                  24089912.4384                                   24089908.8754
                                                                        40.0004
        28.0004
 09 10  3  0 18  0.0000000  0  9G02G04G12G13G29G10G23G30G31
 -18254700.38348 -14156300.64847
                  20568291.6644                                   20568286.8874
                                                                        52.0004
        42.5004
  -7363229.75848  -5692734.03146
                  20937705.1334                                   20937703.1374
                                                                        52.7504
        41.2504
    255652.45747    221037.89844
                  24395813.5944                                   24395810.6644
                                                                        42.7504
        27.5004
 -21341269.68748 -16530336.85245
                  21577840.8134                                   21577837.1094
                                                                        50.0004
        35.2504
  -2156648.25046  -1639975.18444
                  23860157.8284                                   23860155.8364
                                                                        41.0004
        25.7504
    -14987.11347     32208.32444
                  23773633.6724                                   23773631.2894
                                                                        43.0004
        27.7504
 -10736071.03548  -8311252.72745
                  21931576.1954                                   21931571.3014
                                                                        48.5004
        34.0004
  -6766185.37947  -5227616.09844
                  23046288.5394                                   23046286.3834
                                                                        44.2504
        27.0004
  -7204574.31647  -5572501.77044
                  24083725.3594                                   24083722.1024
                                                                        42.5004
        27.0004
 09 10  3  0 18 30.0000000  0  9G02G04G12G13G29G10G23G30G31
 -18372699.19948 -14248247.75847
                  20545837.2114                                   20545832.3244
                                                                        52.0004
        43.2504
  -7397847.00448  -5719351.58057
                  20931119.3594                                   20931117.2704
                                                                        52.5004
        45.5004
    265350.75446    228595.03144
                  24397659.4844                                   24397655.5944
                                                                        41.0004
        26.0004
 -21480204.21548 -16638597.29346
                  21551401.6954                                   21551399.0234
                                                                        49.5004
        36.0004
  -2338834.55147  -1781938.51244
                  23825489.6644                                   23825486.7424
                                                                        42.2504
        26.5004
   -218303.75447   -126220.21944
                  23734943.6174                                   23734941.5554
                                                                        43.0004
        26.5004
 -10789258.87548  -8352697.96945
                  21921455.3984                                   21921450.5354
                                                                        48.7504
        34.5004
  -6790432.92247  -5246510.27344
                  23041673.8054                                   23041671.5354
                                                                        43.5004
        28.0004
  -7236566.70347  -5597430.88744
                  24077637.7974                                   24077633.9924
                                                                        42.2504
        27.2504
 09 10  3  0 19  0.0000000  0  9G02G04G12G13G29G10G23G30G31
 -18490137.89548 -14339758.40647
                  20523489.7194                                   20523484.3444
                                                                        52.5004
        42.5004
  -7431943.01248  -5745561.47356
                  20924629.0474                                   20924626.6684
                                                                        52.5004
        41.7504
    275326.50446    236368.37144
                  24399557.4774                                   24399554.2344
                                                                        41.0004
        26.0004
 -21618520.32048 -16746375.76645
                  21525081.1804                                   21525077.6374
                                                                        50.0004
        35.5004
  -2520703.87947  -1923654.86344
                  23790881.2734                                   23790878.4304
                                                                        42.5004
        28.0004
   -421430.86747   -284501.25844
                  23696289.3984                                   23696287.2894
                                                                        43.0004
        27.7504
 -10841828.69148  -8393661.61745
                  21911451.6644                                   21911446.7584
                                                                        49.7504
        34.0004
  -6814117.55947  -5264965.85244
                  23037167.2194                                   23037164.4064
                                                                        44.0004
        26.5004
  -7268041.78147  -5621956.91444
                  24071648.1484                                   24071644.4064
                                                                        42.2504
        26.2504
 09 10  3  0 19 30.0000000  0  9G02G04G12G13G29G10G23G30G31
 -18607017.78148 -14430833.66847
                  20501248.1414                                   20501242.7384
                                                                        52.5004
        43.7504
  -7465532.94148  -5771734.78546
                  20918236.3674                                   20918234.4654
                                                                        53.5004
        41.0004
    285574.62946    244353.96144
                  24401507.5394                                   24401504.6134
                                                                        41.5004
        27.5004
 -21756219.82848 -16853674.31245
                  21498877.9614                                   21498874.4104
                                                                        50.5004
        35.7504
  -2702255.60247  -2065123.72744
                  23756332.7274                                   23756330.3284
                                                                        43.2504
        29.0004
   -624369.53147   -442636.30144
                  23657672.4384                                   23657670.5744
                                                                        42.0004
        27.0004
 -10893783.50448  -8434145.70745
                  21901565.0004                                   21901560.1294
                                                                        49.0004
        34.7504
  -6837243.38747  -5282985.96544
                  23032766.0944                                   23032763.4024
                                                                        43.2504
        26.5004
  -7299003.48847  -5646082.91444
                  24065756.3054                                   24065752.9454
                                                                        42.0004
        24.7504
 09 10  3  0 20  0.0000000  0  9G02G04G12G13G29G10G23G30G31
 -18723334.16448 -14521469.77747
                  20479113.7584                                   20479108.6374
                                                                        52.2504
        42.7504
  -7498613.57848  -5797512.16446
                  20911941.8914                                   20911939.3364
                                                                        52.2504
        40.5004
    296094.90646    252551.50444
                  24403509.1804                                   24403506.6024
                                                                        39.7504
        25.2504
 -21893297.39848 -16960488.98845
                  21472793.2274                                   21472790.9924
                                                                        50.0004
        34.5004
  -2883484.19147  -2206340.77044
                  23721846.4064                                   23721843.9924
                                                                        42.5004
        29.0004
   -827111.10546   -600616.89144
                  23619092.2504                                   23619090.1644
                                                                        41.5004
        27.0004
 -10945121.82848  -8474149.56645
                  21891795.8594                                   21891791.1334
                                                                        48.7504
        34.5004
  -6859810.05547  -5300570.41044
                  23028472.1804                                   23028469.2504
                                                                        42.7504
        26.5004
  -7329450.77347  -5669808.07044
                  24059961.6174                                   24059958.9534
                                                                        42.2504
        25.0004
 09 10  3  0 20 30.0000000  0  9G02G04G12G13G29G10G23G30G31
 -18839088.14548 -14611667.70347
                  20457086.3284                                   20457081.1054
                                                                        52.0004
        43.5004
  -7531186.85948  -5822894.27046
                  20905743.7274                                   20905740.8874
                                                                        52.5004
        40.7504
    306882.66446    260957.43044
                  24405562.2504                                   24405559.4144
                                                                        40.5004
        26.7504
 -22029750.36748 -17066815.78145
                  21446827.4844                                   21446824.5084
                                                                        50.5004
        35.5004
  -3064389.29746  -2347305.75044
                  23687420.6724                                   23687418.9344
                                                                        41.2504
        28.2504
  -1029656.30946   -758444.12944
                  23580549.0314                                   23580546.5824
                                                                        41.7504
        26.5004
 -10995846.50048  -8513674.96145
                  21882142.8914                                   21882138.0514
                                                                        49.5004
        34.5004
  -6881822.02347  -5317722.60544
                  23024283.6644                                   23024280.5784
                                                                        43.7504
        28.0004
  -7359387.69947  -5693135.58244
                  24054265.8134                                   24054261.8164
                                                                        42.5004
        24.0004
 09 10  3  0 21  0.0000000  0  9G02G04G12G13G29G10G23G30G31
 -18954278.39848 -14701426.34047
                  20435166.6954                                   20435161.1764
                                                                        52.2504
        43.0004
  -7563255.68048  -5847884.07446
                  20899642.2344                                   20899639.9264
                                                                        52.2504
        40.2504
    317935.35947    269569.90644
                  24407665.6024                                   24407663.3364
                                                                        43.0004
        27.5004
 -22165577.87148 -17172654.70746
                  21420979.6644                                   21420976.3554
                                                                        50.0004
        36.0004
  -3244968.12146  -2488016.46144
                  23653057.9064                                   23653055.4534
                                                                        41.0004
        26.7504
  -1232004.75046   -916118.59444
                  23542043.8524                                   23542040.9494
                                                                        41.5004
        28.2504
 -11045958.23048  -8552722.05545
                  21872606.0004                                   21872600.6804
                                                                        49.0004
        34.0004
  -6903281.78947  -5334444.49644
                  23020200.0004                                   23020197.4844
                                                                        44.2504
        29.0004
  -7388816.27047  -5716066.92644
                  24048664.9454                                   24048661.1994
                                                                        42.0004
        24.0004
 09 10  3  0 21 30.0000000  0  8G02G04G13G29G10G23G30G31
 -17493478.55148 -13563140.82847
                  20713147.4454                                   20713142.5044
                                                                        52.2504
        42.7504
  -6019394.10248  -4644874.67246
                  21193428.9384                                   21193426.4614
                                                                        52.2504
        40.2504
 -20725354.48848 -16050402.93746
                  21695045.2274                                   21695041.8914
                                                                        50.0004
        36.0004
  -1849790.33647  -1400864.89144
                  23918551.5234                                   23918548.6214
                                                                        42.0004
        27.2504
    141274.80547    153968.62944
                  23803371.0004                                   23803368.6604
                                                                        42.5004
        29.7504
  -9520038.36348  -7363693.76245
                  22162979.0864                                   22162973.5984
                                                                        48.7504
        34.0004
  -5348769.60247  -4123136.29345
                  23316013.9924                                   23316011.2584
                                                                        44.5004
        30.2504
  -5842315.69147  -4511001.56644
                  24342954.3914                                   24342950.1214
                                                                        42.0004
        24.0004
 09 10  3  0 22  0.0000000  0  8G02G04G13G29G10G23G30G31
 -17607535.60248 -13652016.72747
                  20691443.3364                                   20691438.3134
                                                                        51.5004
        43.0004
  -6050449.97748  -4669074.10546
                  21187518.9064                                   21187516.8794
                                                                        52.5004
        40.7504
 -20859925.58248 -16155263.26246
                  21669436.8984                                   21669434.1484
                                                                        50.5004
        36.0004
  -2029705.58647  -1541058.55144
                  23884314.1484                                   23884311.5744
                                                                        44.0004
        27.7504
    -60666.15647     -3387.38344
                  23764942.0164                                   23764940.2464
                                                                        42.0004
        28.0004
  -9568930.27748  -7401791.96945
                  22153675.3054                                   22153670.4384
                                                                        49.0004
        33.7504
  -5369129.79347  -4139001.35544
                  23312139.4774                                   23312136.8054
                                                                        44.5004
        29.7504
  -5870730.17647  -4533142.73043
                  24337547.5164                                   24337542.9694
                                                                        42.0004
        23.2504
 09 10  3  0 22 30.0000000  0  8G02G04G13G29G10G23G30G31
 -17721019.16048 -13740445.37147
                  20669848.1644                                   20669842.9534
                                                                        52.5004
        43.2504
  -6080997.67648  -4692877.25846
                  21181706.0474                                   21181703.5474
                                                                        51.7504
        41.0004
 -20993861.49248 -16259628.79746
                  21643949.5864                                   21643946.0274
                                                                        50.5004
        36.0004
  -2209281.09447  -1680987.49244
                  23850142.5784                                   23850139.7304
                                                                        44.2504
        28.0004
   -262397.33647   -160580.42244
                  23726554.3134                                   23726551.7154
                                                                        42.7504
        28.0004
  -9617208.15248  -7439411.30945
                  22144489.1884                                   22144483.4064
                                                                        49.0004
        33.2504
  -5388939.83247  -4154437.75844
                  23308369.9614                                   23308367.2854
                                                                        43.7504
        29.7504
  -5898636.56246  -4554887.94944
                  24332236.9614                                   24332232.6054
                                                                        40.2504
        25.0004
 09 10  3  0 23  0.0000000  0  8G02G04G13G29G10G23G30G31
 -17833928.27048 -13828426.28947
                  20648362.1334                                   20648356.3914
                                                                        52.7504
        42.7504
  -6111038.32048  -4716284.96946
                  21175989.0784                                   21175986.4574
                                                                        52.7504
        40.7504
 -21127159.58248 -16363497.25046
                  21618583.5634                                   21618580.0744
                                                                        50.2504
        36.2504
  -2388513.79347  -1820649.34444
                  23816036.2344                                   23816032.7624
                                                                        45.2504
        28.7504
   -463916.09447   -317608.14144
                  23688206.7344                                   23688203.6914
                                                                        43.2504
        27.7504
  -9664873.25848  -7476553.07845
                  22135418.4694                                   22135413.2814
                                                                        49.2504
        33.5004
  -5408201.86747  -4169447.16444
                  23304704.3674                                   23304702.0824
                                                                        44.0004
        29.5004
  -5926036.53947  -4576238.58244
                  24327023.3674                                   24327019.3984
                                                                        43.2504
        26.5004
 09 10  3  0 23 30.0000000  0  8G02G04G13G29G10G23G30G31
 -17946264.53148 -13915960.92647
                  20626985.0554                                   20626979.4494
                                                                        52.2504
        43.0004
  -6140577.18748  -4739302.18046
                  21170367.5944                                   21170365.1724
                                                                        51.0004
        41.0004
 -21259821.54348 -16466870.30146
                  21593339.1254                                   21593335.7774
                                                                        51.0004
        36.2504
  -2567403.65247  -1960044.03944
                  23781994.2584                                   23781991.2074
                                                                        45.0004
        29.2504
   -665222.23447   -474470.19544
                  23649898.8594                                   23649897.0354
                                                                        43.0004
        27.5004
  -9711926.84448  -7513216.94145
                  22126463.5554                                   22126458.3244
                                                                        48.5004
        33.2504
  -5426920.65647  -4184033.23844
                  23301142.1644                                   23301140.1174
                                                                        42.7504
        29.0004
  -5952934.43446  -4597197.97344
                  24321904.9534                                   24321900.4964
                                                                        40.7504
        27.0004
 09 10  3  0 24  0.0000000  0  9G02G04G05G13G29G10G23G30G31
 -18058031.05148 -14003051.69547
                  20605716.5394                                   20605711.1644
                                                                        52.0004
        43.0004
  -6169618.41048  -4761931.24246
                  21164841.0704                                   21164838.7814
                                                                        51.5004
        40.7504
   4431545.41056   3468890.01254
                  24401159.7274                                   24401157.7854
                                                                        41.2504
        27.5004
 -21391848.69148 -16569748.48845
                  21568215.1254                                   21568211.9454
                                                                        51.2504
        35.5004
  -2745952.10247  -2099172.69544
                  23748017.7424                                   23748015.3054
                                                                        44.0004
        28.0004
   -866319.18047   -631170.00044
                  23611632.6414                                   23611630.3364
                                                                        43.0004
        28.2504
  -9758378.57448  -7549412.57445
                  22117623.8444                                   22117618.1764
                                                                        49.2504
        33.2504
  -5445103.15247  -4198201.39144
                  23297681.9144                                   23297679.5314
                                                                        44.0004
        27.5004
  -5979336.50846  -4617771.01244
                  24316880.6724                                   24316876.8594
                                                                        40.5004
        28.5004
 09 10  3  0 24 30.0000000  0  9G02G04G05G13G29G10G23G30G31
 -18169235.47748 -14089704.49247
                  20584555.1804                                   20584549.5204
                                                                        52.5004
        43.0004
  -6198173.42248  -4784181.62946
                  21159407.1094                                   21159404.1764
                                                                        52.5004
        40.7504
   4229789.25846   3311677.14544
                  24362767.8834                                   24362764.8794
                                                                        41.5004
        26.7504
 -21523248.29748 -16672137.51646
                  21543210.2894                                   21543207.1024
                                                                        51.2504
        36.5004
  -2924165.35246  -2238040.15644
                  23714104.0554                                   23714102.1804
                                                                        41.5004
        27.5004
  -1067207.44547   -762656.25854
                  23573404.1564                                   23573402.0204
                                                                        45.2504
        29.2504
  -9804237.99648  -7585147.14145
                  22108896.9454                                   22108891.3164
                                                                        49.5004
        33.7504
  -5462760.40646  -4211960.31644
                  23294321.7504                                   23294319.5944
                                                                        41.7504
        27.7504
  -6005253.45346  -4637966.04344
                  24311948.9384                                   24311945.4344
                                                                        40.0004
        28.5004
 09 10  3  0 25  0.0000000  0  9G02G04G05G13G29G10G23G30G31
 -18279881.05148 -14175921.80947
                  20563499.7664                                   20563494.6724
                                                                        52.7504
        42.7504
  -6226247.61348  -4806057.46946
                  21154064.7584                                   21154061.7734
                                                                        52.7504
        40.5004
   4028159.37547   3154562.66844
                  24324399.3524                                   24324396.3674
                                                                        44.5004
        28.0004
 -21654023.62548 -16774040.18745
                  21518324.3364                                   21518321.0274
                                                                        50.7504
        35.2504
  -3102045.57047  -2376648.09044
                  23680254.5784                                   23680252.7894
                                                                        42.7504
        27.5004
  -1267893.85947   -919034.67244
                  23535214.3204                                   23535211.7344
                                                                        45.0004
        28.7504
  -9849510.37148  -7620424.26645
                  22100281.9924                                   22100276.0744
                                                                        49.0004
        33.0004
  -5479900.06247  -4225315.92644
                  23291060.4304                                   23291058.3554
                                                                        42.5004
        27.2504
  -6030692.00847  -4657788.30544
                  24307108.0634                                   24307104.2304
                                                                        42.0004
        28.0004
 09 10  3  0 25 30.0000000  0  9G02G04G05G13G29G10G23G30G31
 -18389968.51248 -14261704.21947
                  20542550.6644                                   20542545.5554
                                                                        51.5004
        43.0004
  -6253844.25048  -4827561.25846
                  21148812.9694                                   21148810.2974
                                                                        53.2504
        40.2504
   3826656.87147   2997547.91844
                  24286054.6414                                   24286051.3134
                                                                        42.5004
        29.5004
 -21784174.53548 -16875456.31245
                  21493557.7894                                   21493553.9304
                                                                        50.2504
        35.5004
  -3279591.43447  -2514995.47344
                  23646468.5864                                   23646466.5394
                                                                        43.2504
        29.2504
  -1468378.06247  -1075255.82844
                  23497062.8364                                   23497061.3204
                                                                        44.5004
        29.0004
  -9894198.47348  -7655246.10245
                  22091778.4224                                   22091772.3204
                                                                        48.5004
        34.0004
  -5496526.11347  -4238271.28544
                  23287896.4534                                   23287894.0474
                                                                        42.0004
        27.7504
  -6055655.77046  -4677240.62944
                  24302357.3594                                   24302354.4734
                                                                        41.2504
        26.0004
 09 10  3  0 26  0.0000000  0  9G02G04G05G13G29G10G23G30G31
 -18499492.27748 -14347047.37147
                  20521709.3674                                   20521703.6294
                                                                        51.7504
        42.7504
  -6280963.23448  -4848694.32046
                  21143653.5864                                   21143651.6954
                                                                        53.0004
        40.5004
   3625286.60547   2840635.79344
                  24247735.2974                                   24247731.9494
                                                                        43.0004
        28.5004
 -21913695.18048 -16976381.34046
                  21468910.5314                                   21468906.8594
                                                                        51.5004
        36.5004
  -3456795.86347  -2653076.81244
                  23612747.9924                                   23612745.9344
                                                                        44.7504
        29.2504
  -1668653.14847  -1231314.30544
                  23458951.8754                                   23458949.3674
                                                                        43.2504
        29.5004
  -9938299.92248  -7689610.86345
                  22083385.9694                                   22083380.1024
                                                                        49.5004
        33.0004
  -5512636.86747  -4250825.14544
                  23284830.9614                                   23284828.1254
                                                                        43.7504
        27.5004
  -6080142.48846  -4696321.21544
                  24297697.3444                                   24297694.3874
                                                                        40.0004
        24.5004
 09 10  3  0 26 30.0000000  0  9G02G04G05G13G29G10G23G30G31
 -18608446.16048 -14431946.43747
                  20500975.8204                                   20500970.4734
                                                                        52.0004
        43.0004
  -6307595.24648  -4869446.47346
                  21138585.6804                                   21138583.2664
                                                                        53.5004
        40.7504
   3424056.48046   2683832.87144
                  24209442.1254                                   24209439.6724
                                                                        41.5004
        27.7504
 -22042580.86748 -17076812.69546
                  21444384.9774                                   21444381.4734
                                                                        50.7504
        36.2504
  -3633651.13347  -2790886.06244
                  23579094.0554                                   23579091.2734
                                                                        45.0004
        29.0004
  -1868711.01247  -1387203.49244
                  23420881.9454                                   23420879.4924
                                                                        43.2504
        29.7504
  -9981810.65648  -7723515.52745
                  22075106.0864                                   22075100.8634
                                                                        49.5004
        33.5004
  -5528229.55147  -4262975.34844
                  23281863.6954                                   23281861.1214
                                                                        44.5004
        25.5004
  -6104148.79746  -4715027.48044
                  24293128.6024                                   24293126.2424
                                                                        40.0004
        26.0004
 09 10  3  0 27  0.0000000  0  9G02G04G05G13G29G10G23G30G31
 -18716828.91048 -14516400.53947
                  20480351.2734                                   20480346.1214
                                                                        52.0004
        43.0004
  -6333743.41448  -4889821.43046
                  21133609.4534                                   21133607.5274
                                                                        53.5004
        40.5004
   3222970.00046   2527142.39144
                  24171175.9064                                   24171174.1684
                                                                        40.5004
        28.2504
 -22170824.97348 -17176743.04746
                  21419980.8984                                   21419977.8984
                                                                        50.7504
        36.5004
  -3810153.99647  -2928420.76244
                  23545506.9924                                   23545503.7464
                                                                        44.7504
        29.5004
  -2068549.21947  -1542921.64844
                  23382853.5394                                   23382851.5434
                                                                        44.5004
        28.0004
 -10024731.64148  -7756960.81245
                  22066938.7114                                   22066933.3094
                                                                        49.2504
        34.0004
  -5543306.31247  -4274723.51244
                  23278995.0634                                   23278991.8204
                                                                        44.5004
        27.0004
  -6127676.35546  -4733360.69144
                  24288652.2894                                   24288648.9574
                                                                        41.0004
        25.2504
 09 10  3  0 27 30.0000000  0  9G02G04G05G13G29G10G23G30G31
 -18824636.93748 -14600407.00847
                  20459836.4144                                   20459830.7464
                                                                        51.7504
        42.7504
  -6359407.68048  -4909819.51646
                  21128725.8914                                   21128723.3794
                                                                        53.0004
        40.2504
   3022030.04347   2370565.61744
                  24132939.4534                                   24132936.8554
                                                                        42.2504
        29.5004
 -22298428.72748 -17276175.92246
                  21395699.2814                                   21395697.5634
                                                                        50.7504
        36.0004
  -3986299.80547  -3065677.26644
                  23511987.1644                                   23511983.9734
                                                                        44.5004
        28.0004
  -2268162.41847  -1698464.49244
                  23344869.4694                                   23344866.4104
                                                                        44.0004
        29.0004
 -10067062.11748  -7789946.11745
                  22058883.9144                                   22058878.6054
                                                                        49.5004
        33.5004
  -5557867.39147  -4286069.83644
                  23276224.2734                                   23276221.0704
                                                                        44.0004
        26.5004
  -6150725.13747  -4751320.79343
                  24284266.9534                                   24284262.9224
                                                                        42.7504
        23.7504
 09 10  3  0 28  0.0000000  0  9G02G04G05G13G29G10G23G30G31
 -18931868.87548 -14683965.05947
                  20439431.2734                                   20439425.9694
                                                                        51.5004
        43.0004
  -6384588.52748  -4929441.03946
                  21123934.4774                                   21123932.0004
                                                                        52.5004
        40.7504
   2821239.99647   2214105.35244
                  24094730.5634                                   24094728.5394
                                                                        44.0004
        29.5004
 -22425383.45348 -17375101.37146
                  21371540.7424                                   21371537.7114
                                                                        50.7504
        36.7504
  -4162084.82447  -3202652.61744
                  23478536.2814                                   23478532.9384
                                                                        44.2504
        27.5004
  -2467547.20347  -1853829.19544
                  23306927.1644                                   23306924.5164
                                                                        43.5004
        29.5004
 -10108801.43748  -7822470.32445
                  22050941.2974                                   22050935.8874
                                                                        48.7504
        33.7504
  -5571914.59447  -4297015.74644
                  23273550.5704                                   23273548.4144
                                                                        43.5004
        28.5004
  -6173296.09847  -4768908.55943
                  24279971.4924                                   24279967.5554
                                                                        43.0004
        23.7504
 09 10  3  0 28 30.0000000  0  9G02G04G05G13G29G10G23G30G31
 -19038521.75448 -14767071.42247
                  20419136.1564                                   20419131.1484
                                                                        52.0004
        42.7504
  -6409286.09848  -4948685.65246
                  21119234.0474                                   21119231.8364
                                                                        52.0004
        40.0004
   2620602.44947   2057763.67644
                  24056551.5234                                   24056548.1844
                                                                        43.0004
        29.5004
 -22551690.19548 -17473521.74646
                  21347505.1094                                   21347501.6094
                                                                        51.0004
        36.2504
  -4337505.40247  -3339343.92644
                  23445154.6644                                   23445152.6414
                                                                        43.2504
        28.5004
  -2666701.94147  -2009014.97344
                  23269029.4614                                   23269027.3444
                                                                        43.5004
        29.7504
 -10149952.47348  -7854536.66045
                  22043110.8284                                   22043105.4774
                                                                        49.0004
        33.5004
  -5585449.98847  -4307562.85544
                  23270975.2734                                   23270973.1484
                                                                        43.7504
        28.7504
  -6195390.72347  -4786125.14143
                  24275766.8054                                   24275762.1604
                                                                        43.0004
        22.5004
 09 10  3  0 29  0.0000000  0  9G02G04G05G13G29G10G23G30G31
 -19144595.66048 -14849726.52347
                  20398951.0084                                   20398945.9614
                                                                        51.7504
        43.5004
  -6433502.55148  -4967555.21546
                  21114625.6024                                   21114623.1174
                                                                        52.5004
        40.0004
   2420121.36747   1901545.13744
                  24018400.2194                                   24018398.1484
                                                                        43.0004
        28.7504
 -22677348.10248 -17571436.48446
                  21323592.6024                                   21323589.2424
                                                                        51.2504
        36.7504
  -4512560.04747  -3475750.09845
                  23411842.6884                                   23411840.4884
                                                                        43.0004
        30.0004
  -2865623.43447  -2164018.38344
                  23231176.1254                                   23231173.6414
                                                                        44.2504
        29.0004
 -10190515.30148  -7886144.00445
                  22035391.9384                                   22035387.2304
                                                                        49.5004
        33.2504
  -5598476.93047  -4317713.77044
                  23268496.1954                                   23268494.0944
                                                                        42.2504
        28.5004
  -6217011.87147  -4802972.77043
                  24271652.8364                                   24271647.8244
                                                                        43.0004
        22.5004
 09 10  3  0 29 30.0000000  0  9G02G04G05G13G29G10G23G30G31
 -19250088.61748 -14931928.65247
                  20378876.5554                                   20378871.0904
                                                                        51.7504
        43.0004
  -6457239.52748  -4986051.21546
                  21110108.2894                                   21110105.5554
                                                                        52.2504
        40.5004
   2219797.21547   1745448.81344
                  23980279.1254                                   23980277.1884
                                                                        42.0004
        27.0004
 -22802355.24248 -17668844.18446
                  21299804.4534                                   21299800.6684
                                                                        50.5004
        36.0004
  -4687245.49247  -3611868.57845
                  23378601.0944                                   23378599.1054
                                                                        44.2504
        30.5004
  -3064310.34047  -2318839.68045
                  23193367.2814                                   23193364.9024
                                                                        44.5004
        30.0004
 -10230491.73448  -7917294.29745
                  22027784.2894                                   22027779.0984
                                                                        49.0004
        33.2504
  -5610997.30546  -4327469.90244
                  23266113.6564                                   23266111.1134
                                                                        41.7504
        27.7504
  -6238161.20347  -4819452.73844
                  24267628.4384                                   24267623.3284
                                                                        44.2504
        24.5004
 09 10  3  0 30  0.0000000  0  9G02G04G05G13G29G10G23G30G31
 -19355002.89148 -15013680.37947
                  20358911.6254                                   20358907.0554
                                                                        52.5004
        43.0004
  -6480500.68048  -5004176.87146
                  21105681.8594                                   21105679.3594
                                                                        51.2504
        39.7504
   2019630.09446   1589474.42244
                  23942188.4064                                   23942186.8094
                                                                        40.7504
        26.7504
 -22926712.16048 -17765745.41046
                  21276139.8054                                   21276136.2664
                                                                        51.0004
        36.2504
  -4861560.42647  -3747698.33645
                  23345430.4144                                   23345428.1994
                                                                        43.2504
        30.7504
  -3262761.48047  -2473477.83245
                  23155604.1174                                   23155602.3594
                                                                        43.0004
        30.5004
 -10269886.09448  -7947991.51645
                  22020288.5704                                   22020283.2704
                                                                        49.5004
        32.7504
  -5623015.35947  -4336834.67644
                  23263826.8674                                   23263824.3554
                                                                        42.5004
        26.7504
  -6258842.36347  -4835567.91044
                  24263693.1954                                   24263688.7974
                                                                        43.0004
        25.0004
 09 10  3  0 30 30.0000000  0  9G02G04G05G13G29G10G23G30G31
 -19459333.95348 -15094977.41447
                  20339058.4774                                   20339053.8014
                                                                        52.2504
        43.0004
  -6503284.55148  -5021930.59446
                  21101346.2274                                   21101343.1524
                                                                        51.2504
        40.7504
   1819625.27747   1433626.92244
                  23904128.7424                                   23904126.6214
                                                                        42.0004
        28.7504
 -23050414.49248 -17862136.60246
                  21252600.2034                                   21252596.2114
                                                                        51.0004
        36.7504
  -5035500.23847  -3883235.78145
                  23312330.7034                                   23312328.1844
                                                                        44.5004
        30.7504
  -3460969.07847  -2627924.36345
                  23117885.6564                                   23117883.6414
                                                                        43.2504
        31.2504
 -10308694.62548  -7978231.30545
                  22012903.4924                                   22012897.6484
                                                                        49.2504
        33.5004
  -5634531.91047  -4345808.64544
                  23261635.2424                                   23261632.6804
                                                                        43.0004
        26.5004
  -6279055.09447  -4851318.08244
                  24259846.0634                                   24259842.3134
                                                                        42.0004
        25.5004
 09 10  3  0 31  0.0000000  0  9G02G04G05G13G29G10G23G30G31
 -17987658.27348 -13948217.18447
                  20619109.0944                                   20619104.1214
                                                                        52.7504
        43.0004
  -4950172.38348  -3811713.20346
                  21396893.6334                                   21396891.1724
                                                                        51.2504
        40.0004
   3195211.22747   2505512.75444
                  24165894.1564                                   24165891.0904
                                                                        43.2504
        29.5004
 -21598038.76248 -16730415.23846
                  21528977.8134                                   21528974.5514
                                                                        50.5004
        36.7504
  -3633637.46147  -2790875.12144
                  23579095.8444                                   23579093.4614
                                                                        42.2504
        29.5004
  -2083508.02347  -1554577.68045
                  23380007.3834                                   23380005.1214
                                                                        45.5004
        30.2504
  -8771501.80948  -6780418.53945
                  22305420.6094                                   22305415.3834
                                                                        49.0004
        32.5004
  -4070129.90646  -3126794.16844
                  23559331.0944                                   23559328.7304
                                                                        41.5004
        26.0004
  -4723381.77046  -3639105.09844
                  24555880.6254                                   24555877.5044
                                                                        41.7504
        25.7504
 09 10  3  0 31 30.0000000  0  9G02G04G05G13G29G10G23G30G31
 -18090825.32848 -14028607.28947
                  20599477.3524                                   20599472.1914
                                                                        51.7504
        43.5004
  -4972010.00448  -3828729.28546
                  21392738.0634                                   21392735.1374
                                                                        50.7504
        40.5004
   2995531.63347   2349918.22345
                  24127896.3524                                   24127893.1914
                                                                        42.2504
        30.0004
 -21720433.08648 -16825787.31646
                  21505687.0084                                   21505683.4454
                                                                        50.5004
        36.7504
  -3806823.40247  -2925825.14145
                  23546139.9224                                   23546137.4384
                                                                        42.5004
        30.0004
  -2281231.81647  -1708647.84445
                  23342381.7664                                   23342378.9264
                                                                        45.5004
        30.0004
  -8809153.02748  -6809757.07445
                  22298255.8134                                   22298250.3674
                                                                        49.0004
        33.0004
  -4080655.50047  -3134995.99244
                  23557328.5864                                   23557325.7274
                                                                        42.2504
        27.2504
  -4742668.61346  -3654133.82444
                  24552210.4924                                   24552207.7464
                                                                        39.5004
        25.2504
 09 10  3  0 32  0.0000000  0  9G02G04G05G13G29G10G23G30G31
 -18193410.63348 -14108544.98047
                  20579956.7664                                   20579952.8874
                                                                        52.2504
        42.5004
  -4993377.53148  -3845379.23046
                  21388671.8134                                   21388669.1914
                                                                        51.0004
        40.0004
   2796017.85947   2194452.96144
                  24089929.1724                                   24089927.8164
                                                                        42.2504
        29.2504
 -21842171.50448 -16920648.38746
                  21482520.6024                                   21482517.1024
                                                                        50.2504
        37.0004
  -3979628.78947  -3060478.63744
                  23513255.8524                                   23513253.4184
                                                                        43.2504
        29.0004
  -2478710.50047  -1862527.20344
                  23304802.6174                                   23304799.6994
                                                                        45.7504
        29.5004
  -8846228.09048  -6838646.81645
                  22291200.6254                                   22291195.6094
                                                                        49.0004
        32.5004
  -4090690.06647  -3142815.15644
                  23555418.8284                                   23555416.5084
                                                                        42.5004
        26.5004
  -4761496.20346  -3668804.66444
                  24548626.8524                                   24548624.6024
                                                                        40.2504
        24.5004
 09 10  3  0 32 30.0000000  0  9G02G04G05G13G29G10G23G30G31
 -18295408.99248 -14188023.58247
                  20560546.5864                                   20560541.7304
                                                                        51.5004
        43.0004
  -5014276.46548  -3861664.04746
                  21384694.8754                                   21384692.3834
                                                                        51.5004
        40.2504
   2596672.36747   2039119.01244
                  24051995.5944                                   24051992.9694
                                                                        42.7504
        28.5004
 -21963252.75448 -17014997.46546
                  21459479.7344                                   21459475.8984
                                                                        51.0004
        36.5004
  -4152051.02047  -3194833.55545
                  23480445.0864                                   23480442.5394
                                                                        43.5004
        30.0004
  -2675941.21947  -2016213.23844
                  23267270.8984                                   23267267.7774
                                                                        44.7504
        29.2504
  -8882730.05148  -6867090.95745
                  22284255.7114                                   22284250.4804
                                                                        48.5004
        32.5004
  -4100236.20747  -3150253.74644
                  23553602.0554                                   23553599.7424
                                                                        42.2504
        26.5004
  -4779866.65246  -3683119.30544
                  24545132.3914                                   24545128.8484
                                                                        41.0004
        26.5004
 09 10  3  0 33  0.0000000  0  9G02G04G05G13G29G10G23G30G31
 -18396823.80148 -14267048.16847
                  20541248.2274                                   20541243.4414
                                                                        52.0004
        43.5004
  -5034708.80948  -3877585.41046
                  21380806.6024                                   21380804.0594
                                                                        51.7504
        40.7504
   2397495.52747   1883915.91044
                  24014093.8674                                   24014091.4924
                                                                        44.2504
        29.7504
 -22083675.77748 -17108833.63746
                  21436564.5314                                   21436560.8754
                                                                        51.5004
        37.0004
  -4324087.49247  -3328887.90645
                  23447707.9694                                   23447705.0594
                                                                        42.7504
        30.2504
  -2872922.09047  -2169704.65645
                  23229786.0554                                   23229783.4844
                                                                        45.2504
        31.0004
  -8918655.89148  -6895084.34045
                  22277418.7974                                   22277413.2974
                                                                        49.0004
        32.7504
  -4109297.01247  -3157314.10944
                  23551878.1884                                   23551875.5634
                                                                        42.5004
        26.7504
  -4797782.34846  -3697079.60244
                  24541722.5554                                   24541719.3874
                                                                        41.5004
        26.0004
 09 10  3  0 33 30.0000000  0  9G02G04G05G13G29G10G23G30G31
 -18497652.36348 -14345615.55947
                  20522060.8594                                   20522056.1254
                                                                        53.0004
        43.0004
  -5054675.93448  -3893144.48846
                  21377007.2894                                   21377004.5824
                                                                        51.0004
        40.2504
   2198492.50847   1728849.20345
                  23976224.3834                                   23976221.4104
                                                                        45.0004
        30.5004
 -22203438.40248 -17202155.36746
                  21413774.3364                                   21413770.9614
                                                                        51.0004
        36.7504
  -4495735.63347  -3462639.64845
                  23415044.2344                                   23415041.6294
                                                                        44.0004
        31.0004
  -3069651.09847  -2323000.15645
                  23192350.1484                                   23192347.6994
                                                                        45.5004
        30.5004
  -8954010.16448  -6922632.56245
                  22270690.5234                                   22270684.6764
                                                                        49.2504
        32.5004
  -4117875.17647  -3163998.46144
                  23550245.5004                                   23550243.2074
                                                                        42.5004
        25.5004
  -4815245.50446  -3710687.27044
                  24538400.0394                                   24538396.2274
                                                                        40.0004
        26.5004
 09 10  3  0 34  0.0000000  0  9G02G04G05G13G29G10G23G30G31
 -18597894.16448 -14423725.48447
                  20502985.0004                                   20502980.1054
                                                                        52.5004
        43.0004
  -5074178.79748  -3908341.41846
                  21373295.8834                                   21373293.2774
                                                                        50.2504
        39.7504
   1999662.94947   1573917.32845
                  23938388.5164                                   23938385.3014
                                                                        45.0004
        31.2504
 -22322540.49648 -17294962.27746
                  21391109.7584                                   21391106.2774
                                                                        51.0004
        36.7504
  -4666993.12147  -3596087.00045
                  23382455.0634                                   23382452.2274
                                                                        44.2504
        31.5004
  -3266125.13747  -2476096.64545
                  23154962.4304                                   23154959.5124
                                                                        45.7504
        31.0004
  -8988796.21548  -6949738.53545
                  22264070.9384                                   22264065.2234
                                                                        48.7504
        33.0004
  -4125973.51647  -3170308.86744
                  23548704.5554                                   23548702.0824
                                                                        42.5004
        26.0004
  -4832258.52747  -3723944.16844
                  24535163.0784                                   24535158.2934
                                                                        42.5004
        27.0004
 09 10  3  0 34 30.0000000  0  9G02G04G05G13G29G10G23G30G31
 -18697549.99648 -14501379.18447
                  20484021.2274                                   20484015.6454
                                                                        53.0004
        42.7504
  -5093220.37148  -3923179.12146
                  21369672.7974                                   21369669.8164
                                                                        50.2504
        39.2504
   1801008.53547   1419121.80945
                  23900585.1804                                   23900582.6374
                                                                        42.5004
        30.2504
 -22440980.18748 -17387252.77746
                  21368571.3674                                   21368567.7894
                                                                        50.7504
        37.0004
  -4837857.69547  -3729228.17245
                  23349940.3134                                   23349937.6524
                                                                        43.5004
        31.0004
  -3462342.50447  -2628993.04745
                  23117623.2034                                   23117620.7344
                                                                        43.5004
        30.2504
  -9023014.56248  -6976402.09045
                  22257559.2194                                   22257553.1724
                                                                        48.5004
        32.5004
  -4133595.23447  -3176247.88344
                  23547254.3054                                   23547251.8134
                                                                        42.0004
        26.5004
  -4848824.02346  -3736852.35244
                  24532010.4304                                   24532005.9264
                                                                        40.7504
        25.0004
 09 10  3  0 35  0.0000000  0  9G02G04G05G13G29G10G23G30G31
 -18796621.56248 -14578578.84047
                  20465168.9534                                   20465164.1294
                                                                        52.5004
        43.0004
  -5111802.96148  -3937659.19546
                  21366136.1644                                   21366134.0664
                                                                        51.7504
        40.2504
   1602530.68847   1264463.86745
                  23862815.8594                                   23862813.3094
                                                                        43.7504
        30.5004
 -22558757.60548 -17479027.16846
                  21346158.9144                                   21346155.2584
                                                                        50.7504
        37.0004
  -5008327.85247  -3862062.00845
                  23317501.0084                                   23317497.9534
                                                                        44.0004
        30.5004
  -3658302.31247  -2781688.78945
                  23080332.4924                                   23080330.3634
                                                                        43.0004
        30.2504
  -9056668.35548  -7002625.82445
                  22251154.9774                                   22251149.7114
                                                                        49.0004
        32.5004
  -4140744.46547  -3181818.71544
                  23545893.6094                                   23545891.5704
                                                                        43.2504
        28.2504
  -4864945.11346  -3749414.24243
                  24528942.0234                                   24528937.4184
                                                                        40.5004
        22.2504
 09 10  3  0 35 30.0000000  0  9G02G04G05G13G29G10G23G30G31
 -18895100.03148 -14655314.10947
                  20446428.1954                                   20446422.7464
                                                                        53.0004
        43.2504
  -5129927.56248  -3951782.90646
                  21362688.0864                                   21362685.4534
                                                                        50.0004
        40.0004
   1404233.50447   1109946.73845
                  23825081.2274                                   23825078.3954
                                                                        44.2504
        31.0004
 -22675871.59448 -17570285.22346
                  21323873.1024                                   21323869.5744
                                                                        50.7504
        36.7504
  -5178399.22747  -3994585.12145
                  23285137.0474                                   23285134.5164
                                                                        43.0004
        31.0004
  -3854000.27047  -2934180.57845
                  23043092.8284                                   23043090.0514
                                                                        44.5004
        30.7504
  -9089757.09448  -7028409.06245
                  22244858.3524                                   22244852.6914
                                                                        48.5004
        32.5004
  -4147422.22746  -3187022.21544
                  23544623.0704                                   23544620.8164
                                                                        41.7504
        27.7504
  -4880622.50046  -3761630.37943
                  24525958.7424                                   24525954.3364
                                                                        39.0004
        21.7504
 09 10  3  0 36  0.0000000  0  9G02G04G05G13G29G10G23G30G31
 -18992992.71148 -14731594.27047
                  20427800.4064                                   20427795.1214
                                                                        53.0004
        43.5004
  -5147594.36348  -3965549.00046
                  21359325.9384                                   21359323.3404
                                                                        51.5004
        40.0004
   1206117.32847    955570.62545
                  23787380.9384                                   23787378.2704
                                                                        44.5004
        31.5004
 -22792320.74648 -17661024.98046
                  21301714.0784                                   21301710.1134
                                                                        50.2504
        37.0004
  -5348070.47347  -4126796.44145
                  23252849.7974                                   23252847.4224
                                                                        44.0004
        30.2504
  -4049435.62947  -3086467.73045
                  23005902.8134                                   23005899.3834
                                                                        45.2504
        30.0004
  -9122284.47748  -7053754.86745
                  22238668.1724                                   22238663.1024
                                                                        48.7504
        31.5004
  -4153632.91447  -3191861.73444
                  23543441.2504                                   23543438.7814
                                                                        43.0004
        25.2504
  -4895859.84046  -3773503.61743
                  24523059.2344                                   24523054.7114
                                                                        40.5004
        22.5004
 09 10  3  0 36 30.0000000  0  9G02G04G05G13G29G10G23G30G31
 -19090296.53148 -14807414.71947
                  20409283.4384                                   20409278.0944
                                                                        53.2504
        43.2504
  -5164808.91448  -3978962.83646
                  21356050.1484                                   21356047.1764
                                                                        51.0004
        40.2504
   1008182.24647    801335.60945
                  23749714.7274                                   23749712.3524
                                                                        42.7504
        30.7504
 -22908106.01248 -17751247.62946
                  21279681.1954                                   21279677.8404
                                                                        51.0004
        36.5004
  -5517341.21147  -4258695.68744
                  23220638.4774                                   23220635.8094
                                                                        43.7504
        29.5004
  -4244607.89547  -3238549.94945
                  22968762.7974                                   22968759.5164
                                                                        44.2504
        32.0004
  -9154253.49648  -7078665.32045
                  22232584.4924                                   22232578.6914
                                                                        48.5004
        32.5004
  -4159381.19547  -3196340.92244
                  23542347.6484                                   23542345.3984
                                                                        43.5004
        25.5004
  -4910661.48046  -3785037.34443
                  24520242.0474                                   24520238.4494
                                                                        40.5004
        21.5004
 09 10  3  0 37  0.0000000  0  9G02G04G05G13G29G10G23G30G31
 -19187014.36348 -14882779.74247
                  20390878.8754                                   20390873.6994
                                                                        52.7504
        43.7504
  -5181571.98448  -3992024.86346
                  21352860.0004                                   21352857.3324
                                                                        51.0004
        39.7504
    810431.29747    647244.07445
                  23712083.8284                                   23712081.1994
                                                                        45.0004
        30.7504
 -23023224.21148 -17840949.90246
                  21257774.6484                                   21257770.9264
                                                                        51.2504
        36.0004
  -5686208.34447  -4390280.43445
                  23188504.5474                                   23188501.4574
                                                                        44.5004
        30.5004
  -4439514.30147  -3390425.03545
                  22931673.1254                                   22931670.0944
                                                                        45.5004
        31.5004
  -9185666.76648  -7103143.13345
                  22226606.7584                                   22226600.5594
                                                                        49.0004
        32.2504
  -4164669.31247  -3200461.53144
                  23541341.1254                                   23541338.6724
                                                                        43.5004
        27.5004
  -4925028.90646  -3796232.76243
                  24517508.8834                                   24517505.0984
                                                                        38.2504
        22.0004
 09 10  3  0 37 30.0000000  0  9G02G04G05G13G29G10G23G30G31
 -19283140.73848 -14957682.75847
                  20372586.1644                                   20372581.1914
                                                                        53.0004
        43.0004
  -5197885.26248  -4004736.43746
                  21349755.6724                                   21349752.9344
                                                                        50.7504
        39.7504
    612866.43447    493297.44945
                  23674488.9064                                   23674485.3914
                                                                        43.0004
        31.0004
 -23137676.43048 -17930133.37546
                  21235994.5784                                   21235991.1414
                                                                        51.0004
        36.7504
  -5854668.64147  -4521548.18045
                  23156447.5164                                   23156444.5044
                                                                        44.7504
        31.5004
  -4634152.16447  -3542090.79345
                  22894634.5864                                   22894632.1214
                                                                        44.0004
        31.0004
  -9216524.91848  -7127188.35245
                  22220734.7814                                   22220728.7974
                                                                        48.5004
        32.5004
  -4169499.77747  -3204225.48844
                  23540422.3674                                   23540419.8754
                                                                        43.7504
        28.0004
  -4938964.30546  -3807091.51644
                  24514857.0634                                   24514853.6214
                                                                        40.5004
        24.2504
 09 10  3  0 38  0.0000000  0  9G02G04G05G13G29G10G23G30G31
 -19378677.32848 -15032126.62547
                  20354405.7034                                   20354400.1454
                                                                        53.0004
        43.0004
  -5213749.75848  -4017098.48046
                  21346736.7344                                   21346734.0124
                                                                        51.0004
        39.5004
    415490.65647    339498.17645
                  23636929.4064                                   23636926.4064
                                                                        44.0004
        30.5004
 -23251460.54748 -18018796.45746
                  21214342.4384                                   21214338.5984
                                                                        51.5004
        37.0004
  -6022719.55547  -4652496.93045
                  23124468.7114                                   23124465.4844
                                                                        45.2504
        32.0004
  -4828518.71147  -3693545.14845
                  22857647.8054                                   22857645.3364
                                                                        44.0004
        31.0004
  -9246829.48448  -7150802.27045
                  22214968.0704                                   22214962.1884
                                                                        48.5004
        32.5004
  -4173874.90247  -3207634.66844
                  23539589.4694                                   23539586.8554
                                                                        43.5004
        25.7504
  -4952469.75046  -3817615.24644
                  24512286.5234                                   24512283.2424
                                                                        41.2504
        25.2504
 09 10  3  0 38 30.0000000  0 10G02G04G05G13G29G10G23G30G31G25
 -19473624.07448 -15106110.95747
                  20336337.8284                                   20336332.4884
                                                                        53.0004
        43.2504
  -5229167.94548  -4029112.49246
                  21343802.7424                                   21343799.8444
                                                                        50.2504
        39.0004
    218305.18847    185847.22345
                  23599406.0394                                   23599403.2074
                                                                        44.5004
        31.2504
 -23364575.85248 -18106938.07046
                  21192817.0944                                   21192813.8954
                                                                        51.5004
        36.5004
  -6190359.42647  -4783125.37545
                  23092568.2894                                   23092564.8444
                                                                        45.2504
        32.0004
  -5022612.34447  -3844786.88745
                  22820712.5944                                   22820710.2194
                                                                        43.7504
        32.0004
  -9276583.63348  -7173987.28545
                  22209305.8204                                   22209300.0664
                                                                        48.0004
        32.2504
  -4177798.32447  -3210691.86744
                  23538843.1644                                   23538840.2704
                                                                        43.7504
        24.7504
  -4965548.50446  -3827806.47344
                  24509797.8594                                   24509794.6334
                                                                        39.0004
        27.0004
   6044148.56356   4747340.00053
                  24086083.4924                                   24086080.8364
                                                                        40.0004
        20.5004
 09 10  3  0 39  0.0000000  0  9G02G04G05G13G29G10G23G30G25
 -19567986.67648 -15179640.17647
                  20318381.5084                                   20318375.9264
                                                                        52.5004
        43.2504
  -5244147.08248  -4040784.14146
                  21340951.8754                                   21340949.7114
                                                                        50.7504
        39.0004
     21305.22347     32340.81345
                  23561918.5554                                   23561915.5234
                                                                        44.5004
        31.2504
 -23477026.81648 -18194561.96546
                  21171418.3204                                   21171414.6564
                                                                        51.7504
        36.7504
  -6357591.48047  -4913436.03145
                  23060744.1644                                   23060741.5594
                                                                        44.5004
        31.5004
  -5216436.80947  -3995818.78945
                  22783829.2974                                   22783826.1954
                                                                        45.0004
        31.5004
  -9305794.73848  -7196749.16845
                  22203747.2504                                   22203741.3134
                                                                        48.7504
        32.2504
  -4181279.43047  -3213404.40644
                  23538179.9694                                   23538177.4534
                                                                        43.2504
        26.7504
   5868079.40246   4610143.41843
                  24052577.9384                                   24052576.5084
                                                                        40.7504
        22.7504
 09 10  3  0 39 30.0000000  0  9G02G04G05G13G29G10G23G30G25
 -19661766.09048 -15252715.00447
                  20300535.5634                                   20300530.1604
                                                                        52.5004
        43.7504
  -5258692.69148  -4052118.39146
                  21338183.8914                                   21338181.4964
                                                                        51.5004
        39.0004
   -175508.95747   -121020.81245
                  23524465.7734                                   23524462.4694
                                                                        45.0004
        31.0004
 -23588818.65648 -18281673.16446
                  21150145.7194                                   21150142.1804
                                                                        51.0004
        36.5004
  -6524415.85247  -5043429.00445
                  23028998.9144                                   23028996.0164
                                                                        44.5004
        31.2504
  -5409992.38747  -4146641.30945
                  22746997.0554                                   22746993.3834
                                                                        45.7504
        32.0004
  -9334467.19148  -7219091.30945
                  22198290.9534                                   22198285.0204
                                                                        48.5004
        32.0004
  -4184323.41447  -3215776.33644
                  23537601.2664                                   23537598.5004
                                                                        44.0004
        25.5004
   5692303.22346   4473175.07043
                  24019128.7424                                   24019126.9024
                                                                        40.5004
        23.7504
 09 10  3  0 40  0.0000000  0  9G02G04G05G13G29G10G23G30G25
 -18179530.30948 -14097726.07047
                  20582595.7584                                   20582590.3554
                                                                        52.2504
        43.2504
  -3697376.65248  -2835508.39146
                  21635292.5704                                   21635289.4884
                                                                        51.5004
        39.5004
   1203299.60247    953375.48045
                  23786844.5004                                   23786841.1214
                                                                        43.5004
        32.2504
 -22124513.69948 -17140656.55946
                  21428793.5784                                   21428789.9964
                                                                        50.7504
        36.0004
  -5115396.32047  -3945491.68245
                  23297126.2894                                   23297123.7734
                                                                        44.0004
        31.2504
  -4027841.86747  -3069640.87945
                  23010011.9384                                   23010008.3874
                                                                        45.0004
        32.0004
  -7787173.83648  -6013408.17645
                  22492731.0944                                   22492724.9144
                                                                        48.7504
        31.2504
  -2611504.94947  -1990203.51644
                  23836898.4534                                   23836896.1644
                                                                        43.7504
        26.0004
   7092257.40246   5564048.54343
                  24285531.8444                                   24285529.4064
                                                                        41.5004
        23.0004
 09 10  3  0 40 30.0000000  0  9G02G04G05G13G29G10G23G30G25
 -18272118.92248 -14169873.03947
                  20564976.8134                                   20564971.3714
                                                                        52.5004
        43.2504
  -3711035.83248  -2846151.84446
                  21632693.5004                                   21632690.4654
                                                                        49.5004
        38.5004
   1006885.95747    800325.88345
                  23749468.3204                                   23749464.9534
                                                                        44.5004
        31.5004
 -22234953.70348 -17226713.28146
                  21407777.7114                                   21407773.6484
                                                                        50.5004
        36.5004
  -5281374.77347  -4074825.50845
                  23265541.5004                                   23265538.8984
                                                                        43.7504
        32.2504
  -4220830.17247  -3220021.44145
                  22973287.1954                                   22973284.0744
                                                                        44.5004
        31.5004
  -7814751.88748  -6034897.58645
                  22487483.4694                                   22487477.0664
                                                                        48.2504
        31.5004
  -2613660.74247  -1991883.35544
                  23836488.5864                                   23836486.0274
                                                                        45.0004
        24.7504
   6917099.16846   5427561.71944
                  24252199.7194                                   24252197.6214
                                                                        41.2504
        24.5004
 09 10  3  0 41  0.0000000  0  9G02G04G05G13G29G10G23G30G25
 -18364107.08248 -14241552.09447
                  20547471.9614                                   20547466.5234
                                                                        52.7504
        43.0004
  -3724251.90248  -2856450.99646
                  21630179.2034                                   21630176.7424
                                                                        50.5004
        39.2504
    810680.87547    647438.84845
                  23712132.0474                                   23712128.7074
                                                                        43.0004
        30.5004
 -22344713.00848 -17312239.70746
                  21386890.5864                                   21386886.8204
                                                                        50.7504
        37.0004
  -5446922.25047  -4203823.48445
                  23234038.9614                                   23234035.7974
                                                                        43.7504
        31.2504
  -4413526.41447  -3370174.31645
                  22936617.6334                                   22936615.2154
                                                                        45.2504
        31.7504
  -7841781.23848  -6055959.42245
                  22482339.6334                                   22482333.2664
                                                                        48.5004
        31.7504
  -2615372.66847  -1993217.30544
                  23836162.7034                                   23836160.1134
                                                                        45.0004
        27.0004
   6742258.58647   5291322.46944
                  24218928.5554                                   24218925.9884
                                                                        42.0004
        24.0004
 09 10  3  0 41 30.0000000  0  9G02G04G05G13G29G10G23G30G25
 -18455495.19548 -14312763.59047
                  20530080.8914                                   20530075.9774
                                                                        52.7504
        43.0004
  -3737022.50448  -2866401.40246
                  21627748.1484                                   21627745.4534
                                                                        51.2504
        38.5004
    614684.04347    494714.05545
                  23674834.8054                                   23674831.0824
                                                                        44.2504
        32.2504
 -22453792.82448 -17397236.97746
                  21366133.5234                                   21366130.0164
                                                                        50.5004
        36.7504
  -5612037.32847  -4332484.57045
                  23202618.2274                                   23202615.4104
                                                                        44.5004
        31.5004
  -4605929.82847  -3520099.01245
                  22900004.9304                                   22900001.8794
                                                                        45.5004
        32.2504
  -7868265.00048  -6076596.11345
                  22477299.7584                                   22477293.8674
                                                                        48.5004
        32.5004
  -2616644.60547  -1994208.44944
                  23835920.4844                                   23835918.0354
                                                                        46.0004
        26.2504
   6567737.18846   5155331.86343
                  24185718.0554                                   24185715.0864
                                                                        41.2504
        21.0004
 09 10  3  0 42  0.0000000  0  9G02G04G05G13G29G10G23G30G25
 -18546286.66448 -14383510.17647
                  20512804.3984                                   20512799.0084
                                                                        53.0004
        43.2504
  -3749357.16048  -2876012.37546
                  21625400.8594                                   21625398.1134
                                                                        50.0004
        39.2504
    418894.26247    342150.57045
                  23637577.0084                                   23637573.4614
                                                                        43.2504
        30.2504
 -22562194.59448 -17481705.63746
                  21345504.8444                                   21345501.5594
                                                                        50.5004
        36.5004
  -5776721.25047  -4460809.70345
                  23171279.9694                                   23171276.8094
                                                                        44.0004
        31.7504
  -4798042.19947  -3669796.92645
                  22863446.9924                                   22863444.0704
                                                                        46.0004
        32.7504
  -7894208.68048  -6096811.98445
                  22472362.8364                                   22472357.3094
                                                                        48.0004
        32.2504
  -2617483.57447  -1994862.16444
                  23835761.5864                                   23835758.5354
                                                                        45.7504
        25.5004
   6393534.21146   5019589.31643
                  24152568.5784                                   24152565.7814
                                                                        40.0004
        21.0004
 09 10  3  0 42 30.0000000  0  9G02G04G05G13G29G10G23G30G25
 -18636480.00848 -14453790.70347
                  20495641.2974                                   20495635.6524
                                                                        53.0004
        43.5004
  -3761256.57848  -2885284.61346
                  21623136.3054                                   21623133.3954
                                                                        51.2504
        39.2504
    223314.92647    189751.10245
                  23600359.1884                                   23600356.2344
                                                                        43.5004
        31.0004
 -22669917.93748 -17565646.07846
                  21325006.5394                                   21325002.8594
                                                                        51.5004
        37.2504
  -5940970.35247  -4588796.00845
                  23140024.7974                                   23140021.1884
                                                                        43.5004
        31.5004
  -4989859.59447  -3819264.98845
                  22826945.3284                                   22826942.6334
                                                                        45.0004
        33.0004
  -7919613.51248  -6116607.96945
                  22467528.6644                                   22467522.8714
                                                                        48.5004
        32.0004
  -2617891.27047  -1995179.82844
                  23835683.0004                                   23835680.4224
                                                                        44.5004
        27.0004
   6219653.53946   4884097.94543
                  24119479.5634                                   24119476.7424
                                                                        40.2504
        20.0004
 09 10  3  0 43  0.0000000  0  9G02G04G05G13G29G10G23G30G25
 -18726079.91048 -14523608.79347
                  20478590.8364                                   20478585.4494
                                                                        52.7504
        43.0004
  -3772726.90648  -2894222.42246
                  21620953.5394                                   21620951.0864
                                                                        52.0004
        38.5004
     27942.41447     37512.83245
                  23563181.0314                                   23563178.6254
                                                                        44.2504
        31.7504
 -22776966.26248 -17649060.25046
                  21304635.6484                                   21304631.9024
                                                                        50.7504
        37.2504
  -6104787.64147  -4716445.81645
                  23108851.3674                                   23108848.4024
                                                                        43.7504
        32.0004
  -5181385.46147  -3968505.91045
                  22790498.7034                                   22790495.9614
                                                                        46.0004
        32.5004
  -7944486.69948  -6135989.67245
                  22462795.5164                                   22462789.9654
                                                                        48.2504
        32.2504
  -2617876.23047  -1995168.08644
                  23835686.3524                                   23835683.4024
                                                                        44.7504
        25.5004
   6046092.84046   4748855.89143
                  24086452.5554                                   24086449.6484
                                                                        41.2504
        20.7504
 09 10  3  0 43 30.0000000  0  9G02G04G05G13G29G10G23G30G25
 -18815085.77748 -14592964.01647
                  20461653.4774                                   20461648.1914
                                                                        52.0004
        43.2504
  -3783770.09048  -2902827.44546
                  21618851.9534                                   21618849.1414
                                                                        50.0004
        38.2504
   -167220.56247   -114562.20345
                  23526043.1484                                   23526040.1954
                                                                        44.5004
        33.2504
 -22883338.83648 -17731947.90646
                  21284393.1884                                   21284389.8094
                                                                        50.2504
        37.2504
  -6268170.09847  -4843756.80145
                  23077760.2034                                   23077757.4494
                                                                        44.0004
        32.2504
  -5372617.01247  -4117517.47745
                  22754108.9844                                   22754105.8204
                                                                        45.0004
        32.7504
  -7968829.83248  -6154958.37145
                  22458163.3914                                   22458157.5664
                                                                        48.0004
        32.2504
  -2617440.62147  -1994828.65244
                  23835769.1094                                   23835766.6564
                                                                        43.0004
        25.7504
   5872855.34847   4613865.63343
                  24053487.1254                                   24053484.1604
                                                                        43.5004
        22.2504
 09 10  3  0 44  0.0000000  0  9G02G04G05G13G29G10G23G30G25
 -18903496.91848 -14661855.80547
                  20444829.5864                                   20444824.2624
                                                                        52.0004
        43.0004
  -3794387.75048  -2911100.92646
                  21616831.3754                                   21616828.5944
                                                                        51.2504
        38.5004
   -362171.97347   -266472.34045
                  23488944.4924                                   23488941.9304
                                                                        44.5004
        32.2504
 -22989035.35948 -17814308.77346
                  21264280.0164                                   21264276.1174
                                                                        50.7504
        37.5004
  -6431115.60247  -4970727.28945
                  23046752.7664                                   23046750.6684
                                                                        43.0004
        32.7504
  -5563551.83247  -4266297.85945
                  22717775.6334                                   22717771.9574
                                                                        47.0004
        32.7504
  -7992645.16048  -6173515.78945
                  22453631.5394                                   22453625.6174
                                                                        48.0004
        32.2504
  -2616587.21547  -1994163.68443
                  23835930.6094                                   23835929.0664
                                                                        42.5004
        23.0004
   5699943.45347   4479129.06344
                  24020583.1484                                   24020579.2234
                                                                        43.5004
        24.2504
 09 10  3  0 44 30.0000000  0  9G02G04G05G13G29G10G23G30G25
 -18991311.12948 -14730282.44547
                  20428118.9144                                   20428113.6094
                                                                        52.0004
        43.0004
  -3804579.72748  -2919042.74246
                  21614892.1254                                   21614889.3094
                                                                        51.0004
        39.0004
   -556908.31647   -418214.93445
                  23451888.0554                                   23451884.7464
                                                                        45.2504
        32.5004
 -23094053.31648 -17896140.81246
                  21244295.9064                                   21244291.9804
                                                                        50.0004
        36.7504
  -6593619.93047  -5097354.00045
                  23015829.4064                                   23015827.0984
                                                                        43.5004
        33.5004
  -5754186.55147  -4414844.41045
                  22681498.5864                                   22681495.8204
                                                                        45.0004
        32.2504
  -8015932.81247  -6191662.00845
                  22449199.6954                                   22449194.1684
                                                                        47.7504
        31.5004
  -2615318.09847  -1993174.78143
                  23836172.7664                                   23836170.3284
                                                                        43.0004
        22.5004
   5527361.93047   4344649.86744
                  23987741.8674                                   23987738.6214
                                                                        43.0004
        24.7504
 09 10  3  0 45  0.0000000  0  9G02G04G05G13G29G10G23G30G25
 -19078529.91848 -14798245.13347
                  20411521.6024                                   20411516.3834
                                                                        52.5004
        43.0004
  -3814349.74648  -2926655.72746
                  21613032.8674                                   21613029.9184
                                                                        49.7504
        38.7504
   -751428.92247   -569789.39545
                  23414871.3444                                   23414868.1804
                                                                        44.2504
        31.7504
 -23198393.43748 -17977444.68746
                  21224440.0004                                   21224436.7114
                                                                        48.7504
        37.2504
  -6755682.05547  -5223636.13745
                  22984990.0234                                   22984987.6134
                                                                        43.5004
        33.7504
  -5944519.77347  -4563156.00045
                  22645279.1414                                   22645276.5004
                                                                        46.0004
        32.2504
  -8038696.66848  -6209400.07845
                  22444867.8524                                   22444862.3794
                                                                        48.0004
        31.0004
  -2613637.78147  -1991865.43744
                  23836493.1254                                   23836489.8364
                                                                        43.5004
        24.5004
   5355111.93847   4210428.97744
                  23954963.5704                                   23954960.9384
                                                                        42.0004
        24.7504
 09 10  3  0 45 30.0000000  0  9G02G04G05G13G29G10G23G30G25
 -19165155.24648 -14865745.37947
                  20395037.2274                                   20395032.1174
                                                                        52.2504
        43.2504
  -3823701.87548  -2933943.05546
                  21611253.1334                                   21611250.1954
                                                                        50.0004
        38.5004
   -945734.30147   -721196.13344
                  23377896.2814                                   23377893.3244
                                                                        43.5004
        29.7504
 -23302057.56248 -18058221.85546
                  21204713.7664                                   21204710.3204
                                                                        49.5004
        37.5004
  -6917302.43047  -5349574.07445
                  22954234.6564                                   22954231.7704
                                                                        43.7504
        33.0004
  -6134552.07847  -4711233.10245
                  22609117.8754                                   22609114.5004
                                                                        46.5004
        33.2504
  -8060940.80948  -6226733.15245
                  22440635.4694                                   22440628.8874
                                                                        48.5004
        31.5004
  -2611551.77047  -1990239.96944
                  23836889.7584                                   23836886.9614
                                                                        43.0004
        24.2504
   5183194.13746   4076467.10943
                  23922248.5634                                   23922245.8794
                                                                        40.5004
        22.5004
 09 10  3  0 46  0.0000000  0  9G02G04G05G13G29G10G23G30G25
 -19251184.96548 -14932781.51647
                  20378666.4454                                   20378661.2774
                                                                        52.2504
        43.0004
  -3832636.18448  -2940904.85546
                  21609553.0864                                   21609549.7114
                                                                        51.0004
        38.5004
  -1139820.23847   -872431.88745
                  23340963.4144                                   23340960.1644
                                                                        45.2504
        32.2504
 -23405042.87948 -18138470.04346
                  21185116.4924                                   21185112.4344
                                                                        49.2504
        36.7504
  -7078476.54747  -5475164.27045
                  22923564.5234                                   22923561.0234
                                                                        43.5004
        32.5004
  -6324279.25847  -4859072.44145
                  22573013.8834                                   22573010.8204
                                                                        45.0004
        33.2504
  -8082665.93747  -6243661.82045
                  22436500.5864                                   22436494.7814
                                                                        47.2504
        31.0004
  -2609061.26247  -1988299.29744
                  23837363.2034                                   23837361.2114
                                                                        43.5004
        26.5004
   5011613.08246   3942767.73044
                  23889596.3284                                   23889594.7424
                                                                        40.2504
        24.0004
 09 10  3  0 46 30.0000000  0  9G02G04G05G13G29G10G23G30G25
 -19336618.79748 -14999353.32447
                  20362408.8524                                   20362403.3874
                                                                        51.7504
        43.0004
  -3841154.59048  -2947542.59046
                  21607932.0554                                   21607928.9654
                                                                        50.5004
        37.7504
  -1333685.20347  -1023495.46545
                  23304071.9774                                   23304068.9534
                                                                        46.2504
        33.2504
 -23507349.05548 -18218188.95746
                  21165647.6954                                   21165644.1094
                                                                        49.2504
        37.0004
  -7239202.41847  -5600405.19945
                  22892978.8284                                   22892975.8984
                                                                        44.7504
        31.5004
  -6513699.19547  -5006672.36345
                  22536968.0004                                   22536965.5944
                                                                        45.5004
        33.5004
  -8103874.02347  -6260187.59445
                  22432464.8754                                   22432459.2664
                                                                        47.0004
        31.5004
  -2606169.37547  -1986045.87943
                  23837914.0084                                   23837911.4024
                                                                        42.5004
        23.5004
   4840371.43846   3809332.72743
                  23857011.4224                                   23857008.8484
                                                                        40.7504
        22.7504
 09 10  3  0 47  0.0000000  0  9G02G04G05G13G29G10G23G30G25
 -19421453.74648 -15065458.48047
                  20346265.3674                                   20346260.0704
                                                                        52.0004
        43.0004
  -3849256.01648  -2953855.39846
                  21606390.2734                                   21606387.3554
                                                                        49.0004
        38.0004
  -1527324.20347  -1174382.98045
                  23267224.0084                                   23267220.6414
                                                                        46.7504
        33.5004
 -23608972.99248 -18297376.26246
                  21146309.4694                                   21146305.1334
                                                                        49.2504
        37.5004
  -7399474.38747  -5725292.43445
                  22862480.4304                                   22862477.4574
                                                                        44.5004
        31.0004
  -6702806.51647  -5154028.68445
                  22500982.1804                                   22500979.3914
                                                                        45.2504
        33.5004
  -8124564.53147  -6276310.05545
                  22428527.9454                                   22428521.6294
                                                                        47.0004
        31.2504
  -2602876.09047  -1983479.66044
                  23838540.8134                                   23838537.9574
                                                                        43.2504
        25.5004
   4669474.76246   3676166.55143
                  23824490.5164                                   23824488.2154
                                                                        41.5004
        22.0004
 09 10  3  0 47 30.0000000  0  9G02G04G05G13G29G10G23G30G25
 -19505691.09848 -15131097.97347
                  20330235.6334                                   20330230.1764
                                                                        52.0004
        43.0004
  -3856944.08248  -2959846.11346
                  21604927.3204                                   21604924.6564
                                                                        49.0004
        38.2504
  -1720736.84847  -1325094.09845
                  23230418.8284                                   23230415.7274
                                                                        46.0004
        33.5004
 -23709916.43048 -18376033.48446
                  21127100.0164                                   21127096.4304
                                                                        48.0004
        37.5004
  -7559291.73047  -5849825.41445
                  22832068.1334                                   22832065.0904
                                                                        43.7504
        31.5004
  -6891601.04347  -5301141.24645
                  22465055.5704                                   22465052.6914
                                                                        45.5004
        33.0004
  -8144741.34447  -6292032.22745
                  22424687.9064                                   22424682.4654
                                                                        46.7504
        30.7504
  -2599186.33246  -1980604.47344
                  23839242.4924                                   23839240.3324
                                                                        41.5004
        25.0004
   4498923.99647   3543269.89143
                  23792036.0164                                   23792032.7304
                                                                        42.2504
        22.5004
 09 10  3  0 48  0.0000000  0  9G02G04G05G13G29G10G23G30G25
 -19589329.39548 -15196270.67247
                  20314319.5314                                   20314314.3834
                                                                        52.2504
        43.2504
  -3864219.70748  -2965515.44946
                  21603543.0554                                   21603540.0044
                                                                        49.5004
        38.2504
  -1913919.85947  -1475626.26245
                  23193656.2894                                   23193653.5044
                                                                        45.5004
        33.0004
 -23810177.33248 -18454158.85246
                  21108021.2664                                   21108017.3244
                                                                        49.0004
        37.5004
  -7718651.31247  -5974001.69145
                  22801743.3914                                   22801740.1454
                                                                        44.7504
        32.7504
  -7080079.46547  -5448007.49645
                  22429189.6564                                   22429186.6914
                                                                        45.0004
        33.5004
  -8164405.44547  -6307354.89145
                  22420946.6094                                   22420940.5594
                                                                        47.7504
        30.5004
  -2595102.24247  -1977422.09044
                  23840019.7274                                   23840017.5274
                                                                        42.2504
        24.5004
   4328723.05147   3410645.68843
                  23759648.0234                                   23759644.1684
                                                                        42.2504
        22.5004
 09 10  3  0 48 30.0000000  0  9G02G04G05G13G29G10G23G30G25
 -19672366.37148 -15260974.81647
                  20298518.6024                                   20298512.9454
                                                                        51.7504
        43.2504
  -3871082.25048  -2970862.85546
                  21602236.9304                                   21602233.9844
                                                                        48.2504
        38.2504
  -2106868.93747  -1625976.14545
                  23156939.5634                                   23156936.6844
                                                                        44.5004
        31.0004
 -23909753.17648 -18531750.35946
                  21089072.7344                                   21089068.8324
                                                                        49.5004
        37.2504
  -7877548.32047  -6097817.51645
                  22771505.9774                                   22771502.9184
                                                                        43.7504
        32.5004
  -7268237.24647  -5594623.90645
                  22393384.1334                                   22393381.1564
                                                                        46.2504
        33.5004
  -8183556.96147  -6322278.14145
                  22417302.0004                                   22417296.2854
                                                                        46.5004
        31.7504
  -2590624.28546  -1973932.78143
                  23840871.7344                                   23840869.5664
                                                                        39.5004
        23.2504
   4158876.21546   3278297.24643
                  23727327.4694                                   23727324.5904
                                                                        41.0004
        22.5004
 09 10  3  0 49  0.0000000  0  9G02G04G05G13G29G10G23G30G25
 -18179386.21548 -14097613.64547
                  20582623.1724                                   20582617.7464
                                                                        52.0004
        43.0004
  -2302120.78948  -1748295.46146
                  21900800.5394                                   21900797.6994
                                                                        49.7504
        38.0004
   -724163.55547   -548543.32445
                  23420059.7034                                   23420056.9804
                                                                        45.0004
        32.2504
 -22433227.14148 -17381210.52746
                  21370045.9304                                   21370041.9264
                                                                        49.0004
        37.0004
  -6460562.70747  -4993672.85945
                  23041148.9774                                   23041146.5744
                                                                        44.5004
        33.0004
  -5880653.52047  -4513389.82845
                  22657432.5234                                   22657429.3444
                                                                        46.0004
        34.2504
  -6626784.53147  -5109208.69945
                  22713545.7344                                   22713539.9064
                                                                        47.0004
        31.2504
  -1010343.53546   -742545.16843
                  24141588.5394                                   24141586.9184
                                                                        39.5004
        22.0004
   5564805.91446   4373826.81643
                  23994866.6334                                   23994864.0394
                                                                        40.2504
        22.5004
 09 10  3  0 49 30.0000000  0  9G02G04G05G13G29G10G23G30G25
 -18261233.03548 -14161390.38747
                  20567047.9144                                   20567042.5234
                                                                        52.0004
        42.7504
  -2308176.39548  -1753014.12146
                  21899648.3134                                   21899645.5314
                                                                        48.7504
        38.7504
   -916652.65247   -698534.78945
                  23383430.9144                                   23383427.1994
                                                                        47.0004
        33.5004
 -22531444.45748 -17457743.52746
                  21351356.0234                                   21351351.9024
                                                                        49.5004
        36.5004
  -6618541.55147  -5116773.22345
                  23011087.3134                                   23011084.6024
                                                                        44.7504
        32.7504
  -6068176.98847  -4659511.98045
                  22621747.9774                                   22621745.4224
                                                                        46.5004
        34.0004
  -6644929.98847  -5123348.00845
                  22710092.8134                                   22710087.3754
                                                                        46.5004
        30.0004
  -1005101.56646   -738460.53543
                  24142587.0084                                   24142584.3164
                                                                        41.0004
        23.5004
   5395664.14546   4242028.02743
                  23962680.2034                                   23962677.5864
                                                                        39.5004
        23.5004
 09 10  3  0 50  0.0000000  0  9G02G04G05G13G29G10G23G30G25
 -18342482.07848 -14224701.32447
                  20551586.9614                                   20551581.4654
                                                                        51.7504
        42.7504
  -2313828.84848  -1757418.65646
                  21898572.3594                                   21898569.8284
                                                                        49.5004
        38.0004
  -1108905.54348   -848342.19945
                  23346846.1884                                   23346842.9734
                                                                        48.2504
        33.5004
 -22628979.28148 -17533744.61346
                  21332795.8914                                   21332791.9344
                                                                        50.0004
        36.7504
  -6776054.78147  -5239510.77745
                  22981112.9384                                   22981110.7734
                                                                        45.7504
        33.2504
  -6255377.07447  -4805382.14145
                  22586124.8984                                   22586121.9024
                                                                        46.0004
        33.7504
  -6662573.67247  -5137096.33645
                  22706735.2274                                   22706729.5514
                                                                        47.2504
        31.2504
   -999479.25047   -734079.50443
                  24143656.8914                                   24143654.3984
                                                                        43.0004
        22.7504
   5226881.42646   4110509.09443
                  23930561.8444                                   23930559.8674
                                                                        40.2504
        22.7504
 09 10  3  0 50 30.0000000  0  9G02G04G05G13G29G10G23G30G25
 -18423135.69948 -14287548.28947
                  20536238.7974                                   20536233.3834
                                                                        52.0004
        42.7504
  -2319082.65248  -1761512.54746
                  21897572.7894                                   21897569.9964
                                                                        50.0004
        37.5004
  -1300923.49248   -997966.52345
                  23310306.4224                                   23310302.5744
                                                                        48.0004
        34.0004
 -22725834.07848 -17609215.78546
                  21314364.9144                                   21314360.9774
                                                                        49.5004
        36.7504
  -6933103.50047  -5361886.37145
                  22951227.9454                                   22951225.1604
                                                                        46.0004
        33.7504
  -6442254.82047  -4951001.13345
                  22550563.2194                                   22550560.2504
                                                                        46.7504
        34.2504
  -6679720.19947  -5150457.25845
                  22703472.7814                                   22703466.5204
                                                                        47.0004
        30.2504
   -993483.28947   -729407.29743
                  24144797.8984                                   24144794.6604
                                                                        43.5004
        22.7504
   5058458.05946   3979270.29344
                  23898511.4924                                   23898509.8014
                                                                        40.0004
        26.0004
 09 10  3  0 51  0.0000000  0  9G02G04G05G13G29G10G23G30G25
 -18503194.03548 -14349931.39847
                  20521004.4694                                   20520999.1954
                                                                        52.2504
        43.0004
  -2323939.86748  -1765297.37546
                  21896648.4844                                   21896645.6644
                                                                        49.0004
        37.5004
  -1492704.24247  -1147406.02345
                  23273811.3984                                   23273808.1844
                                                                        46.0004
        34.0004
 -22822008.92648 -17684157.12946
                  21296063.0634                                   21296059.0474
                                                                        49.2504
        37.2504
  -7089684.69147  -5483897.65645
                  22921431.6094                                   22921428.7814
                                                                        45.7504
        34.2504
  -6628807.38747  -5096366.72745
                  22515063.9614                                   22515060.6994
                                                                        47.0004
        33.5004
  -6696372.11347  -5163432.76245
                  22700303.7584                                   22700297.8404
                                                                        46.7504
        30.2504
   -987115.84047   -724445.56243
                  24146009.0634                                   24146006.2304
                                                                        44.0004
        22.5004
   4890395.97747   3848312.97744
                  23866530.8134                                   23866528.1604
                                                                        42.0004
        25.7504
 09 10  3  0 51 30.0000000  0  9G02G04G05G13G29G10G23G30G25
 -18582654.31648 -14411848.49247
                  20505883.2894                                   20505878.1454
                                                                        52.0004
        43.0004
  -2328400.06248  -1768772.85246
                  21895799.5944                                   21895796.6484
                                                                        50.0004
        37.0004
  -1684243.72347  -1296657.49645
                  23237362.4454                                   23237359.5124
                                                                        46.5004
        34.2504
 -22917501.05548 -17758566.54746
                  21277891.8444                                   21277887.6684
                                                                        49.5004
        37.0004
  -7245794.32847  -5605541.51245
                  22891724.6024                                   22891721.9224
                                                                        45.7504
        34.2504
  -6815030.82447  -5241475.88345
                  22479626.7974                                   22479623.5084
                                                                        47.0004
        34.5004
  -6712529.16447  -5176022.68745
                  22697229.0784                                   22697223.6414
                                                                        46.5004
        30.2504
   -980378.36347   -719195.52743
                  24147291.4924                                   24147288.4224
                                                                        43.5004
        23.2504
   4722700.73446   3717641.51244
                  23834619.0944                                   23834616.0314
                                                                        41.0004
        25.7504
 09 10  3  0 52  0.0000000  0  9G02G04G05G13G29G10G23G30G25
 -18661516.15648 -14473299.27047
                  20490876.5554                                   20490871.2854
                                                                        52.5004
        43.0004
  -2332464.62148  -1771940.06246
                  21895026.4384                                   21895023.5004
                                                                        50.0004
        37.7504
  -1875539.47347  -1445719.05945
                  23200959.7974                                   23200957.1454
                                                                        47.0004
        34.2504
 -23012309.65648 -17832443.39146
                  21259850.0554                                   21259846.5274
                                                                        49.7504
        37.0004
  -7401429.70747  -5726815.81245
                  22862108.4844                                   22862105.1764
                                                                        46.2504
        33.5004
  -7000922.44547  -5386326.48445
                  22444252.5554                                   22444248.6954
                                                                        46.5004
        33.5004
  -6728192.88747  -5188228.19144
                  22694248.4144                                   22694242.5594
                                                                        44.7504
        29.7504
   -973273.84047   -713659.54743
                  24148643.7344                                   24148640.9694
                                                                        43.7504
        23.7504
   4555375.35247   3587258.28943
                  23802778.7424                                   23802774.6484
                                                                        42.5004
        23.2504
 09 10  3  0 52 30.0000000  0  9G02G04G05G13G29G10G23G30G25
 -18739780.31248 -14534284.31647
                  20475983.5234                                   20475977.9614
                                                                        52.5004
        43.0004
  -2336136.43748  -1774801.24246
                  21894327.3134                                   21894324.7544
                                                                        49.7504
        38.0004
  -2066589.57447  -1594589.25445
                  23164604.5634                                   23164601.3444
                                                                        47.5004
        33.5004
 -23106435.57448 -17905788.24646
                  21241938.6334                                   21241934.1914
                                                                        49.5004
        37.0004
  -7556588.87947  -5847719.05145
                  22832582.2194                                   22832579.0784
                                                                        44.2504
        32.7504
  -7186480.48047  -5530917.13345
                  22408941.8284                                   22408938.6914
                                                                        45.2504
        34.0004
  -6743366.59047  -5200051.83644
                  22691360.8754                                   22691354.5514
                                                                        47.0004
        29.7504
   -965805.41046   -707839.96943
                  24150065.0084                                   24150062.3054
                                                                        41.7504
        22.5004
   4388421.19147   3457164.22343
                  23771007.7424                                   23771004.9184
                                                                        42.0004
        22.5004
 09 10  3  0 53  0.0000000  0  9G02G04G05G13G29G10G23G30G25
 -18817448.03548 -14594804.61347
                  20461203.9774                                   20461198.6024
                                                                        52.5004
        42.5004
  -2339418.52748  -1777358.73046
                  21893703.2114                                   21893700.7504
                                                                        50.5004
        38.0004
  -2257393.98047  -1743267.97745
                  23128295.5234                                   23128292.2194
                                                                        47.0004
        33.7504
 -23199879.55548 -17978601.72746
                  21224156.3204                                   21224152.5864
                                                                        50.0004
        36.7504
  -7711271.33647  -5968250.81245
                  22803147.0084                                   22803143.9064
                                                                        45.7504
        33.0004
  -7371704.09847  -5675247.21945
                  22373694.8594                                   22373692.0084
                                                                        45.5004
        34.7504
  -6758053.94947  -5211496.53945
                  22688566.2974                                   22688560.0634
                                                                        46.7504
        31.0004
   -957977.96146   -701740.69143
                  24151553.7894                                   24151551.7034
                                                                        41.0004
        22.7504
   4221840.28546   3327361.02343
                  23739308.4774                                   23739305.0394
                                                                        41.5004
        23.0004
 09 10  3  0 53 30.0000000  0  9G02G04G05G13G29G10G23G30G25
 -18894517.92248 -14654859.06647
                  20446537.8284                                   20446532.3444
                                                                        51.5004
        42.7504
  -2342311.68048  -1779613.16846
                  21893152.6884                                   21893149.6374
                                                                        50.2504
        37.2504
  -2447949.35947  -1891752.68445
                  23092033.9534                                   23092031.1804
                                                                        47.2504
        33.7504
 -23292640.32448 -18050882.84446
                  21206504.7664                                   21206501.0784
                                                                        49.5004
        37.0004
  -7865473.37147  -6088408.23045
                  22773803.8444                                   22773799.9844
                                                                        45.0004
        33.0004
  -7556589.81647  -5819313.98045
                  22338512.7504                                   22338509.3444
                                                                        45.2504
        34.5004
  -6772255.98047  -5222563.05545
                  22685863.9144                                   22685857.1994
                                                                        46.5004
        30.7504
   -949793.37947   -695363.12143
                  24153110.9694                                   24153109.0004
                                                                        42.0004
        22.7504
   4055636.14846   3197851.37943
                  23707680.7664                                   23707677.5514
                                                                        41.0004
        22.0004
 09 10  3  0 54  0.0000000  0  9G02G04G05G13G29G10G23G30G25
 -18970991.38748 -14714448.77047
                  20431985.6724                                   20431980.2584
                                                                        52.0004
        43.0004
  -2344819.27348  -1781567.14546
                  21892675.3674                                   21892672.5864
                                                                        49.2504
        37.5004
  -2638254.98447  -2040042.74245
                  23055820.2344                                   23055816.8324
                                                                        47.0004
        33.7504
 -23384719.49648 -18122632.83246
                  21188983.2974                                   21188979.0274
                                                                        49.5004
        37.2504
  -8019194.10947  -6208190.62545
                  22744551.4844                                   22744548.2814
                                                                        45.7504
        34.0004
  -7741137.05147  -5963116.99645
                  22303394.2424                                   22303391.4454
                                                                        46.2504
        35.2504
  -6785976.27047  -5233254.17644
                  22683253.0634                                   22683246.5204
                                                                        46.0004
        29.0004
   -941256.11747   -688710.75844
                  24154736.1334                                   24154733.9104
                                                                        43.2504
        24.0004
   3889810.10246   3068636.36343
                  23676125.1484                                   23676121.9064
                                                                        41.7504
        22.7504
 09 10  3  0 54 30.0000000  0  9G02G04G05G13G29G10G23G30G25
 -19046866.60948 -14773572.30947
                  20417546.8284                                   20417541.5824
                                                                        52.0004
        43.0004
  -2346941.19148  -1783220.58646
                  21892271.2584                                   21892268.5634
                                                                        49.0004
        37.2504
  -2828306.73847  -2188134.98045
                  23019654.2974                                   23019651.5204
                                                                        46.2504
        34.5004
 -23476114.90648 -18193850.03146
                  21171590.9924                                   21171587.1724
                                                                        49.0004
        37.2504
  -8172429.83647  -6327595.07445
                  22715391.4614                                   22715388.7504
                                                                        44.5004
        33.5004
  -7925341.71947  -6106653.08645
                  22268341.5554                                   22268338.5904
                                                                        46.5004
        35.0004
  -6799215.35247  -5243570.33245
                  22680733.4064                                   22680727.8014
                                                                        45.0004
        30.5004
   -932367.35947   -681784.46544
                  24156428.2814                                   24156425.1024
                                                                        44.5004
        25.5004
   3724366.65247   2939719.46144
                  23644642.1644                                   23644639.5274
                                                                        42.7504
        26.2504
 09 10  3  0 55  0.0000000  0  8G02G04G05G13G29G10G23G25
 -19122143.17648 -14832229.35947
                  20403222.1414                                   20403216.9924
                                                                        51.5004
        42.7504
  -2348679.00048  -1784574.71946
                  21891941.0084                                   21891937.7854
                                                                        49.2504
        36.5004
  -3018102.35947  -2336027.64145
                  22983536.9384                                   22983534.3404
                                                                        46.5004
        34.7504
 -23566825.38348 -18264533.51646
                  21154329.3204                                   21154325.3094
                                                                        49.0004
        37.2504
  -8325177.58647  -6446619.28145
                  22686324.7894                                   22686321.8204
                                                                        45.5004
        34.0004
  -8109201.27347  -6249920.24245
                  22233354.0784                                   22233350.8054
                                                                        46.2504
        35.0004
  -6811974.98847  -5253512.91845
                  22678305.0084                                   22678299.7894
                                                                        43.7504
        30.0004
   3559309.25047   2811103.34444
                  23613233.1884                                   23613229.5824
                                                                        43.0004
        26.0004
 09 10  3  0 55 30.0000000  0  8G02G04G05G13G29G10G23G25
 -19196821.36348 -14890420.14847
                  20389011.7274                                   20389005.7544
                                                                        51.7504
        42.5004
  -2350035.17248  -1785631.48846
                  21891682.8834                                   21891680.1804
                                                                        49.7504
        36.7504
  -3207640.42647  -2483719.61745
                  22947470.1954                                   22947466.1454
                                                                        47.2504
        34.5004
 -23656851.73848 -18334683.90646
                  21137197.7814                                   21137193.6884
                                                                        50.0004
        36.0004
  -8477435.46147  -6565261.76245
                  22657350.8054                                   22657348.3244
                                                                        46.2504
        34.0004
  -8292713.46147  -6392916.73445
                  22198433.0004                                   22198429.8244
                                                                        47.5004
        34.7504
  -6824258.11347  -5263084.18444
                  22675967.7194                                   22675962.0434
                                                                        43.2504
        29.0004
   3394639.82047   2682789.51644
                  23581897.6484                                   23581894.6604
                                                                        44.0004
        26.5004
 09 10  3  0 56  0.0000000  0  8G02G04G05G13G29G10G23G25
 -19270895.50048 -14948140.25047
                  20374915.6024                                   20374910.1994
                                                                        52.0004
        43.2504
  -2351005.85548  -1786387.88346
                  21891498.1174                                   21891495.1254
                                                                        49.5004
        36.7504
  -3396912.82848  -2631204.59045
                  22911452.4304                                   22911448.9144
                                                                        48.0004
        34.5004
 -23746188.45348 -18404296.91846
                  21120197.6024                                   21120193.7584
                                                                        49.5004
        37.0004
  -8629195.56647  -6683516.37945
                  22628471.8134                                   22628469.3244
                                                                        46.0004
        35.0004
  -8475870.60547  -6535636.54345
                  22163579.0864                                   22163575.9574
                                                                        46.5004
        35.0004
  -6836060.76647  -5272281.06245
                  22673721.6174                                   22673715.6884
                                                                        44.5004
        30.0004
   3230366.89847   2554784.70343
                  23550637.2504                                   23550633.7544
                                                                        44.0004
        23.7504
 09 10  3  0 56 30.0000000  0  8G02G04G05G13G29G10G23G25
 -19344364.17648 -15005388.55947
                  20360935.0004                                   20360929.5904
                                                                        52.0004
        43.0004
  -2351591.52748  -1786844.26646
                  21891386.5864                                   21891383.2934
                                                                        49.7504
        37.2504
  -3585915.77047  -2778479.59045
                  22875486.3444                                   22875482.9884
                                                                        47.0004
        35.2504
 -23834833.85548 -18473371.23446
                  21103329.1174                                   21103324.8984
                                                                        48.7504
        36.7504
  -8780454.25047  -6801380.28545
                  22599688.5864                                   22599685.7584
                                                                        44.7504
        34.5004
  -8658669.37947  -6678077.13745
                  22128793.5004                                   22128790.1254
                                                                        47.0004
        34.7504
  -6847384.33647  -5281104.62945
                  22671567.1414                                   22671561.4534
                                                                        44.2504
        30.7504
   3066494.46947   2427091.93043
                  23519452.9144                                   23519450.1764
                                                                        42.5004
        23.0004
 09 10  3  0 57  0.0000000  0  8G02G04G05G13G29G10G23G25
 -19417229.38748 -15062166.63747
                  20347069.1414                                   20347063.7814
                                                                        51.7504
        43.0004
  -2351796.05948  -1787003.64146
                  21891347.5554                                   21891344.4844
                                                                        48.5004
        37.2504
  -3774649.45747  -2925544.76645
                  22839571.1644                                   22839567.9454
                                                                        46.5004
        34.0004
 -23922789.53548 -18541908.11346
                  21086591.6414                                   21086587.3484
                                                                        48.7504
        37.0004
  -8931211.31647  -6918853.30545
                  22571000.1334                                   22570997.4844
                                                                        45.7504
        34.7504
  -8841109.18047  -6820238.00045
                  22094076.4304                                   22094073.2504
                                                                        46.7504
        34.7504
  -6858233.02747  -5289558.16045
                  22669502.4534                                   22669496.6524
                                                                        44.0004
        30.2504
   2903023.31647   2299711.94544
                  23488345.7664                                   23488341.8794
                                                                        42.5004
        25.2504
 09 10  3  0 57 30.0000000  0  8G02G04G05G13G29G10G23G25
 -19489498.23048 -15118480.01647
                  20333316.8754                                   20333311.2234
                                                                        52.5004
        42.5004
  -2351628.26648  -1786872.87946
                  21891379.5634                                   21891376.6684
                                                                        49.5004
        37.0004
  -3963119.10247  -3072404.20745
                  22803706.6414                                   22803703.3244
                                                                        45.7504
        34.0004
 -24010062.73848 -18609913.19146
                  21069983.8134                                   21069979.9144
                                                                        49.7504
        37.2504
  -9081471.94947  -7035939.49645
                  22542406.8054                                   22542403.5474
                                                                        45.5004
        34.0004
  -9023195.03147  -6962123.05145
                  22059426.4454                                   22059423.6294
                                                                        45.7504
        35.2504
  -6868616.07447  -5297648.84045
                  22667526.8524                                   22667520.7504
                                                                        45.7504
        30.2504
   2739949.01246   2172641.11343
                  23457312.9304                                   23457310.3674
                                                                        41.0004
        22.0004
 09 10  3  0 58  0.0000000  0  8G02G04G05G13G29G10G23G25
 -17985750.55948 -13946728.57447
                  20619470.9844                                   20619465.3484
                                                                        52.0004
        43.0004
   -775672.54748   -558855.46146
                  22191273.8594                                   22191271.1254
                                                                        49.5004
        36.5004
  -2575898.22747  -1991452.85245
                  23067685.4924                                   23067682.9414
                                                                        46.0004
        34.2504
 -22521233.30548 -17449786.38346
                  21353298.8054                                   21353295.0394
                                                                        50.2504
        37.5004
  -7655810.43047  -5925034.39545
                  22813700.4844                                   22813697.7304
                                                                        46.0004
        34.0004
  -7629500.52347  -5876127.30545
                  22324637.8524                                   22324635.0084
                                                                        46.7504
        35.7504
  -5303117.42647  -4077779.76244
                  22965431.3984                                   22965425.3754
                                                                        46.0004
        28.7504
   4152697.40647   3273484.01643
                  23726150.2814                                   23726147.2774
                                                                        42.5004
        22.7504
 09 10  3  0 58 30.0000000  0  8G02G04G05G13G29G10G23G25
 -18056829.16848 -14002114.49647
                  20605944.9304                                   20605939.5354
                                                                        51.7504
        42.7504
   -774768.49648   -558151.00846
                  22191445.9384                                   22191443.1484
                                                                        48.5004
        36.0004
  -2763835.14547  -2137897.18445
                  23031922.7974                                   23031919.7774
                                                                        47.2504
        35.5004
 -22607144.00048 -17516729.78146
                  21336950.8524                                   21336946.5864
                                                                        49.7504
        37.0004
  -7805072.52047  -6041342.52345
                  22785297.1564                                   22785294.2584
                                                                        46.5004
        33.5004
  -7810873.46147  -6017456.84445
                  22290123.4844                                   22290120.7974
                                                                        46.5004
        35.5004
  -5312578.74247  -4085152.20744
                  22963631.4064                                   22963624.8834
                                                                        44.5004
        29.7504
   3990422.36346   3147035.96944
                  23695270.4064                                   23695267.1374
                                                                        41.5004
        25.5004
 09 10  3  0 59  0.0000000  0  8G02G04G05G13G29G10G23G25
 -18127317.23448 -14057040.26247
                  20592531.3054                                   20592526.0514
                                                                        51.2504
        42.7504
   -773503.47748   -557165.28146
                  22191686.3444                                   22191683.8444
                                                                        48.7504
        36.2504
  -2951507.18747  -2284135.11345
                  22996210.1644                                   22996206.4344
                                                                        46.5004
        35.5004
 -22692378.29348 -17583146.12146
                  21320731.1024                                   21320727.4614
                                                                        50.5004
        37.5004
  -7953837.14147  -6157263.00045
                  22756988.4844                                   22756985.3164
                                                                        46.5004
        33.5004
  -7991891.52347  -6158509.86346
                  22255677.1024                                   22255674.3914
                                                                        46.7504
        36.0004
  -5321586.97347  -4092171.60944
                  22961916.6954                                   22961910.7304
                                                                        43.7504
        29.5004
   3828546.48446   3020898.91844
                  23664466.6024                                   23664463.8754
                                                                        41.7504
        26.5004
 09 10  3  0 59 30.0000000  0  8G02G04G05G13G29G10G23G25
 -18197211.93448 -14111503.64847
                  20579230.7274                                   20579225.2234
                                                                        51.7504
        43.0004
   -771876.43448   -555897.45346
                  22191996.4534                                   22191993.4774
                                                                        49.0004
        36.7504
  -3138909.55948  -2430162.91446
                  22960548.8364                                   22960545.3014
                                                                        48.0004
        36.0004
 -22776933.01648 -17649032.93046
                  21304640.9384                                   21304636.7074
                                                                        50.2504
        37.0004
  -8102098.64847  -6272791.43445
                  22728775.0944                                   22728771.8284
                                                                        46.7504
        34.2504
  -8172549.21547  -6299282.07845
                  22221299.1644                                   22221295.4734
                                                                        47.2504
        35.5004
  -5330141.69947  -4098837.63344
                  22960288.4924                                   22960282.9454
                                                                        44.5004
        29.0004
   3667075.57847   2895077.47344
                  23633740.0864                                   23633736.9144
                                                                        42.2504
        28.2504
 09 10  3  1  0  0.0000000  0  8G02G04G05G13G29G10G23G25
 -18266519.12548 -14165509.25047
                  20566042.1024                                   20566036.8834
                                                                        51.5004
        42.7504
   -769895.08648   -554353.55146
                  22192373.2344                                   22192370.7664
                                                                        49.2504
        36.0004
  -3326045.41047  -2575983.02346
                  22924938.0004                                   22924935.0234
                                                                        46.2504
        36.0004
 -22860813.87548 -17714394.66846
                  21288678.9064                                   21288674.6724
                                                                        50.5004
        37.0004
  -8249860.59047  -6387930.60545
                  22700657.0554                                   22700653.8954
                                                                        45.2504
        34.5004
  -8352850.10947  -6439776.26245
                  22186989.0164                                   22186985.9144
                                                                        46.2504
        35.2504
  -5338250.62947  -4105156.29744
                  22958745.3834                                   22958739.5234
                                                                        44.7504
        28.5004
   3506006.39546   2769569.10944
                  23603089.6094                                   23603086.1054
                                                                        41.2504
        27.2504
 09 10  3  1  0 30.0000000  0  8G02G04G05G13G29G10G23G25
 -18335234.79748 -14219053.92247
                  20552965.8364                                   20552960.5514
                                                                        52.0004
        42.5004
   -767557.37548   -552531.97346
                  22192818.4844                                   22192815.5124
                                                                        49.2504
        36.5004
  -3512908.57447  -2721590.66445
                  22889378.6254                                   22889375.3204
                                                                        46.0004
        34.7504
 -22944016.78148 -17779228.10546
                  21272845.9384                                   21272841.7504
                                                                        50.7504
        37.0004
  -8397117.09047  -6502675.92245
                  22672634.7974                                   22672632.4844
                                                                        46.5004
        34.5004
  -8532788.00447  -6579987.60546
                  22152747.7114                                   22152744.2734
                                                                        47.0004
        36.0004
  -5345912.34047  -4111126.46144
                  22957287.7974                                   22957282.0354
                                                                        44.5004
        28.7504
   3345345.64547   2644378.94144
                  23572516.6094                                   23572513.5124
                                                                        43.2504
        27.2504
 09 10  3  1  1  0.0000000  0  8G02G04G05G13G29G10G23G25
 -18403359.91048 -14272138.41847
                  20540001.9774                                   20539996.5234
                                                                        51.7504
        42.7504
   -764866.19148   -550434.95746
                  22193330.5084                                   22193327.5474
                                                                        49.0004
        36.0004
  -3699498.26647  -2866985.20745
                  22853872.0004                                   22853868.5784
                                                                        46.2504
        35.0004
 -23026543.29748 -17843534.49646
                  21257141.8284                                   21257137.7704
                                                                        51.5004
        37.0004
  -8543866.71147  -6617026.26645
                  22644709.4614                                   22644706.7154
                                                                        46.5004
        35.0004
  -8712361.46547  -6719914.95346
                  22118575.9774                                   22118572.8914
                                                                        47.2504
        36.0004
  -5353129.76647  -4116750.43744
                  22955914.1094                                   22955908.3554
                                                                        45.2504
        27.7504
   3185095.01246   2519508.42644
                  23542022.2194                                   23542018.3984
                                                                        41.2504
        26.2504
 09 10  3  1  1 30.0000000  0  8G02G04G05G13G29G10G23G25
 -18470894.09448 -14324762.44947
                  20527150.7734                                   20527145.6254
                                                                        52.2504
        43.2504
   -761822.25448   -548063.00845
                  22193909.5164                                   22193906.7854
                                                                        48.7504
        35.5004
  -3885811.14547  -3012164.06245
                  22818417.9384                                   22818414.2894
                                                                        47.7504
        35.5004
 -23108392.99648 -17907313.47346
                  21241566.3524                                   21241562.4804
                                                                        50.7504
        37.2504
  -8690106.12947  -6730979.04345
                  22616880.8134                                   22616878.1134
                                                                        47.2504
        34.5004
  -8891567.42247  -6859555.93746
                  22084474.4454                                   22084471.0944
                                                                        47.7504
        36.5004
  -5359904.62547  -4122029.56245
                  22954625.3134                                   22954619.2504
                                                                        46.5004
        30.0004
   3025257.76246   2394959.96944
                  23511605.7894                                   23511602.7774
                                                                        41.7504
        25.0004
 09 10  3  1  2  0.0000000  0  8G02G04G05G13G29G10G23G25
 -18537838.79748 -14376927.14547
                  20514411.9844                                   20514406.6604
                                                                        52.5004
        43.0004
   -758429.31248   -545419.10545
                  22194555.2814                                   22194552.4614
                                                                        49.0004
        35.5004
  -4071847.03948  -3157127.06646
                  22783016.3984                                   22783013.3204
                                                                        48.0004
        36.0004
 -23189566.83248 -17970565.82846
                  21226119.5784                                   21226115.3754
                                                                        51.0004
        37.0004
  -8835835.42647  -6844534.31245
                  22589149.0864                                   22589146.6054
                                                                        46.7504
        35.0004
  -9070405.27747  -6998910.11346
                  22050442.5474                                   22050439.5164
                                                                        47.5004
        36.0004
  -5366241.10247  -4126967.08644
                  22953419.8284                                   22953413.3054
                                                                        46.2504
        28.7504
   2865835.00046   2270734.47744
                  23481267.8204                                   23481265.2734
                                                                        41.0004
        24.5004
 09 10  3  1  2 30.0000000  0  8G02G04G05G13G29G10G23G25
 -18604192.17648 -14428631.04347
                  20501784.9614                                   20501779.8404
                                                                        52.7504
        43.0004
   -754687.14548   -542503.16845
                  22195267.4774                                   22195264.6094
                                                                        48.5004
        35.2504
  -4257601.30548  -3301870.62546
                  22747668.7734                                   22747665.2624
                                                                        49.2504
        36.0004
 -23270063.02048 -18033290.19546
                  21210801.6024                                   21210797.7774
                                                                        51.5004
        37.0004
  -8981050.04747  -6957688.55145
                  22561516.2814                                   22561513.6764
                                                                        46.2504
        35.5004
  -9248870.74647  -7137974.08646
                  22016481.5474                                   22016478.6454
                                                                        47.2504
        36.5004
  -5372139.13747  -4131562.96944
                  22952297.2894                                   22952290.9104
                                                                        46.0004
        28.0004
   2706831.85546   2146836.03544
                  23451010.5944                                   23451007.8014
                                                                        39.5004
        25.0004
 09 10  3  1  3  0.0000000  0  8G02G04G05G13G29G10G23G25
 -18669957.08248 -14479876.40247
                  20489270.5784                                   20489264.9064
                                                                        52.5004
        42.5004
   -750600.10248   -539318.51645
                  22196045.1254                                   22196042.1914
                                                                        49.0004
        35.2504
  -4443074.51248  -3446395.17246
                  22712374.2424                                   22712370.7934
                                                                        48.7504
        36.5004
 -23349884.43748 -18095488.75446
                  21195612.0554                                   21195607.9574
                                                                        51.0004
        37.0004
  -9125750.03947  -7070441.77345
                  22533980.4694                                   22533977.5234
                                                                        46.7504
        34.5004
  -9426963.87147  -7276747.93746
                  21982591.6644                                   21982588.7154
                                                                        47.2504
        36.2504
  -5377603.45347  -4135820.86344
                  22951256.6334                                   22951250.7304
                                                                        45.7504
        28.5004
   2548248.06346   2023264.32043
                  23420833.8054                                   23420830.0314
                                                                        41.7504
        23.7504
 09 10  3  1  3 30.0000000  0  8G02G04G05G13G29G10G23G25
 -18735129.75848 -14530660.29347
                  20476868.2814                                   20476862.9064
                                                                        52.7504
        42.5004
   -746166.17248   -535863.53945
                  22196888.9384                                   22196885.8594
                                                                        49.0004
        35.5004
  -4628260.46148  -3590695.89545
                  22677134.2274                                   22677130.8874
                                                                        48.5004
        35.5004
 -23429027.71148 -18157158.84046
                  21180551.3364                                   21180547.3554
                                                                        51.2504
        36.5004
  -9269929.69947  -7182789.53145
                  22506544.4224                                   22506540.9384
                                                                        47.5004
        34.7504
  -9604678.69948  -7415227.00446
                  21948773.9384                                   21948770.1724
                                                                        48.0004
        36.0004
  -5382632.76647  -4139739.82844
                  22950300.0784                                   22950294.2704
                                                                        45.0004
        27.5004
   2390089.94146   1900024.24243
                  23390736.9144                                   23390733.2854
                                                                        40.7504
        23.7504
 09 10  3  1  4  0.0000000  0  8G02G04G05G13G29G10G23G25
 -18799712.68048 -14580984.64147
                  20464578.7664                                   20464573.3364
                                                                        51.5004
        42.2504
   -741389.50048   -532141.45745
                  22197798.0314                                   22197794.8914
                                                                        49.0004
        35.5004
  -4813159.81247  -3734773.28146
                  22641949.0164                                   22641945.5704
                                                                        47.7504
        36.0004
 -23507494.98448 -18218302.13346
                  21165619.6564                                   21165615.6484
                                                                        51.5004
        36.7504
  -9413589.37147  -7294732.10545
                  22479206.3834                                   22479203.5594
                                                                        47.0004
        35.0004
  -9782015.49248  -7553411.51245
                  21915027.8364                                   21915024.3364
                                                                        48.2504
        35.7504
  -5387231.46947  -4143323.25444
                  22949424.3204                                   22949418.5744
                                                                        46.0004
        27.7504
   2232357.94547   1777116.21544
                  23360721.7734                                   23360718.7974
                                                                        42.5004
        26.0004
 09 10  3  1  4 30.0000000  0  8G02G04G05G13G29G10G23G25
 -18863704.51248 -14630848.40647
                  20452401.2974                                   20452395.9774
                                                                        52.5004
        42.7504
   -736270.37548   -528152.54345
                  22198772.0864                                   22198769.2894
                                                                        48.0004
        35.2504
  -4997768.35247  -3878624.07446
                  22606819.4774                                   22606816.1484
                                                                        47.7504
        36.0004
 -23585285.22348 -18278917.90646
                  21150816.5704                                   21150812.7854
                                                                        51.5004
        36.7504
  -9556724.97347  -7406266.32845
                  22451968.5554                                   22451966.2074
                                                                        46.2504
        34.7504
  -9958969.92648  -7691298.08246
                  21881354.1644                                   21881350.7154
                                                                        48.5004
        36.5004
  -5391400.57047  -4146571.89544
                  22948631.5554                                   22948625.2544
                                                                        46.0004
        27.7504
   2075056.51247   1654543.64844
                  23330788.6254                                   23330785.1644
                                                                        42.7504
        27.7504
 09 10  3  1  5  0.0000000  0  8G02G04G05G13G29G10G23G25
 -18927107.39848 -14680253.23047
                  20440335.9454                                   20440330.8404
                                                                        51.5004
        42.5004
   -730812.49648   -523899.59045
                  22199810.7734                                   22199808.0664
                                                                        48.0004
        35.5004
  -5182086.25047  -4022248.39546
                  22571744.7504                                   22571741.5744
                                                                        47.7504
        36.2504
 -23662400.45748 -18339007.71546
                  21136142.2344                                   21136138.1844
                                                                        51.5004
        37.0004
  -9699336.61747  -7517392.26645
                  22424830.3134                                   22424827.6214
                                                                        46.0004
        35.0004
 -10135542.27748  -7828886.92645
                  21847753.6024                                   21847749.9804
                                                                        48.2504
        35.5004
  -5395144.21147  -4149489.02044
                  22947919.0864                                   22947913.7624
                                                                        45.2504
        28.5004
   1918186.03547   1532306.91444
                  23300937.2584                                   23300934.0354
                                                                        43.7504
        27.5004
 09 10  3  1  5 30.0000000  0  8G02G04G05G13G29G10G23G25
 -18989921.82848 -14729199.56247
                  20428383.0864                                   20428377.4494
                                                                        51.5004
        42.5004
   -725018.25447   -519384.55145
                  22200913.1724                                   22200910.0904
                                                                        47.7504
        35.7504
  -5366111.46547  -4165644.66046
                  22536725.9614                                   22536722.4414
                                                                        47.0004
        36.7504
 -23738841.36348 -18398572.07046
                  21121595.7424                                   21121591.6954
                                                                        51.0004
        37.2504
  -9841422.03147  -7628108.15245
                  22397792.5164                                   22397789.6724
                                                                        46.7504
        35.0004
 -10311729.87148  -7966175.95346
                  21814226.7504                                   21814223.0164
                                                                        48.2504
        36.2504
  -5398464.95347  -4152076.61744
                  22947287.3134                                   22947281.5944
                                                                        45.2504
        27.2504
   1761749.11346   1410408.07044
                  23271167.6724                                   23271165.0204
                                                                        40.5004
        26.5004
 09 10  3  1  6  0.0000000  0  8G02G04G05G13G29G10G23G25
 -19052147.73448 -14777687.25847
                  20416541.8674                                   20416536.4344
                                                                        52.5004
        42.2504
   -718889.03948   -514608.52745
                  22202079.3284                                   22202076.6454
                                                                        48.0004
        35.0004
  -5549841.35248  -4308810.79346
                  22501763.2274                                   22501759.2734
                                                                        48.0004
        36.2504
 -23814607.91848 -18457610.95346
                  21107177.7974                                   21107174.2774
                                                                        51.2504
        37.0004
  -9982979.16447  -7738412.38745
                  22370854.9924                                   22370851.9774
                                                                        47.2504
        35.0004
 -10487530.47748  -8103163.43046
                  21780772.5944                                   21780769.7424
                                                                        49.2504
        36.5004
  -5401364.68747  -4154336.14544
                  22946735.4064                                   22946729.6254
                                                                        44.7504
        25.7504
   1605748.44546   1288849.16044
                  23241481.6804                                   23241478.5164
                                                                        41.2504
        26.5004
 09 10  3  1  6 30.0000000  0  8G02G04G05G13G29G10G23G25
 -19113785.10548 -14825716.37547
                  20404812.7194                                   20404807.4104
                                                                        51.7504
        42.5004
   -712426.37547   -509572.72745
                  22203309.5084                                   22203306.3554
                                                                        47.0004
        34.2504
  -5733273.03147  -4451744.56646
                  22466857.7274                                   22466853.6174
                                                                        47.5004
        36.7504
 -23889700.14548 -18516124.39546
                  21092888.4384                                   21092884.5354
                                                                        51.2504
        36.7504
 -10124005.14147  -7848302.74645
                  22344018.7274                                   22344015.8404
                                                                        47.2504
        35.2504
 -10662941.29348  -8239847.17246
                  21747393.1254                                   21747390.2304
                                                                        48.2504
        37.0004
  -5403844.98847  -4156268.85244
                  22946263.4614                                   22946257.4534
                                                                        43.5004
        26.7504
   1450187.30146   1167632.74244
                  23211879.2194                                   23211876.4844
                                                                        40.7504
        25.5004
 09 10  3  1  7  0.0000000  0  8G02G04G05G13G29G10G23G25
 -17599413.41848 -13645686.48447
                  20692988.0554                                   20692982.5664
                                                                        52.5004
        43.0004
    869786.22747    723320.16045
                  22504394.3364                                   22504391.2974
                                                                        47.5004
        34.5004
  -4340980.16447  -3366841.02346
                  22731801.8134                                   22731798.3754
                                                                        47.5004
        36.7504
 -22388697.80148 -17346512.22346
                  21378519.6174                                   21378515.9454
                                                                        51.0004
        36.7504
  -8689075.15247  -6730175.46545
                  22617077.0234                                   22617074.2274
                                                                        47.5004
        35.5004
  -9262536.03548  -7148622.27046
                  22013881.2194                                   22013878.3914
                                                                        48.0004
        37.0004
  -3830490.50047  -2930278.34444
                  23245662.8984                                   23245657.1604
                                                                        44.5004
        28.7504
   2870491.73447   2274363.53144
                  23482154.0394                                   23482151.1454
                                                                        42.2504
        26.2504
 09 10  3  1  7 30.0000000  0  8G02G04G05G13G29G10G23G25
 -17659877.62948 -13692801.47747
                  20681482.2114                                   20681476.5664
                                                                        51.5004
        42.5004
    876906.76247    728868.61345
                  22505749.4454                                   22505746.4774
                                                                        47.5004
        35.2504
  -4523813.30947  -3509308.39846
                  22697009.8754                                   22697006.9614
                                                                        46.2504
        36.2504
 -22462445.97748 -17403978.31646
                  21364486.1174                                   21364482.1644
                                                                        50.5004
        36.7504
  -8829036.44548  -6839236.17645
                  22590443.2424                                   22590440.1294
                                                                        48.0004
        35.0004
  -9437164.35548  -7284696.27046
                  21980650.3524                                   21980647.6414
                                                                        48.2504
        37.0004
  -3832143.82447  -2931566.65244
                  23245348.7814                                   23245342.6024
                                                                        44.2504
        27.2504
   2715813.21947   2153834.86344
                  23452719.9144                                   23452716.3834
                                                                        43.2504
        27.0004
 09 10  3  1  8  0.0000000  0  8G02G04G05G13G29G10G23G25
 -17719754.61748 -13739458.87547
                  20670087.9304                                   20670082.1174
                                                                        52.0004
        42.2504
    884354.86348    734672.29745
                  22507166.9534                                   22507163.9304
                                                                        48.0004
        34.7504
  -4706342.74647  -3651539.10946
                  22662275.5704                                   22662272.3164
                                                                        47.7504
        37.0004
 -22535521.27048 -17460920.10546
                  21350579.9064                                   21350576.3164
                                                                        50.7504
        37.2504
  -8968461.22748  -6947878.83645
                  22563911.1254                                   22563908.6024
                                                                        48.2504
        35.5004
  -9611396.98448  -7420461.94146
                  21947495.5474                                   21947491.8204
                                                                        49.0004
        36.7504
  -3833385.78547  -2932534.41444
                  23245111.8444                                   23245105.7584
                                                                        43.5004
        27.7504
   2561581.39547   2033654.23444
                  23423370.7974                                   23423367.2934
                                                                        44.0004
        26.5004
 09 10  3  1  8 30.0000000  0  8G02G04G05G13G29G10G23G25
 -17779043.85548 -13785658.27047
                  20658805.3524                                   20658799.9964
                                                                        52.0004
        42.2504
    892129.25048    740730.26245
                  22508646.5314                                   22508643.5474
                                                                        48.2504
        34.7504
  -4888565.09047  -3793530.53946
                  22627599.9064                                   22627596.3794
                                                                        47.7504
        37.0004
 -22607923.75048 -17517337.57046
                  21336802.3594                                   21336798.4064
                                                                        50.0004
        36.0004
  -9107346.43047  -7056101.05145
                  22537482.5944                                   22537479.5394
                                                                        47.5004
        35.2504
  -9785230.63748  -7555916.72346
                  21914415.8054                                   21914412.1294
                                                                        49.0004
        36.7504
  -3834217.89847  -2933182.81644
                  23244953.6644                                   23244947.6604
                                                                        43.0004
        27.7504
   2407799.11347   1913823.89544
                  23394107.6024                                   23394103.6054
                                                                        44.5004
        28.2504
 09 10  3  1  9  0.0000000  0  8G02G04G05G13G29G10G23G25
 -17837747.04748 -13831401.04747
                  20647634.9224                                   20647629.2424
                                                                        51.5004
        42.5004
    900227.27748    747040.42645
                  22510187.6174                                   22510184.5784
                                                                        48.0004
        34.7504
  -5070480.03947  -3935282.44546
                  22592982.6724                                   22592979.2934
                                                                        47.7504
        37.2504
 -22679654.52048 -17573231.60946
                  21323152.4694                                   21323148.5314
                                                                        50.7504
        36.5004
  -9245691.50848  -7163902.39146
                  22511156.4144                                   22511153.1804
                                                                        48.0004
        36.0004
  -9958664.36748  -7691059.87946
                  21881412.7894                                   21881409.4384
                                                                        49.0004
        36.7504
  -3834643.40247  -2933514.37944
                  23244872.2664                                   23244867.3324
                                                                        43.0004
        27.5004
   2254468.31647   1794345.36744
                  23364928.8204                                   23364925.5204
                                                                        44.2504
        28.0004
 09 10  3  1  9 30.0000000  0  8G02G04G05G13G29G10G23G25
 -17895864.80948 -13876687.64147
                  20636575.5394                                   20636569.6884
                                                                        52.2504
        42.0004
    908645.91848    753600.40245
                  22511789.0784                                   22511786.3754
                                                                        48.0004
        34.0004
  -5252085.59848  -4076793.25446
                  22558424.2974                                   22558420.7344
                                                                        49.0004
        37.0004
 -22750714.97348 -17628603.34446
                  21309630.0634                                   21309626.1414
                                                                        51.2504
        37.0004
  -9383494.71548  -7271281.49645
                  22484933.1174                                   22484930.2734
                                                                        48.0004
        35.0004
 -10131696.38348  -7825890.00846
                  21848485.6484                                   21848482.4184
                                                                        49.0004
        36.5004
  -3834665.37947  -2933531.49244
                  23244868.5784                                   23244862.7584
                                                                        42.7504
        26.0004
   2101590.55147   1675219.86744
                  23335837.4774                                   23335834.4454
                                                                        44.0004
        28.0004
 09 10  3  1 10  0.0000000  0  8G02G04G05G13G29G10G23G25
 -17953397.40648 -13921518.25047
                  20625626.9304                                   20625621.7934
                                                                        51.7504
        42.5004
    917383.93848    760409.21545
                  22513451.8054                                   22513449.5004
                                                                        48.7504
        34.0004
  -5433379.13348  -4218060.93446
                  22523925.5004                                   22523921.5514
                                                                        48.5004
        37.0004
 -22821105.81648 -17683453.30146
                  21296234.8834                                   21296230.6294
                                                                        51.2504
        36.7504
  -9520753.56248  -7378236.43046
                  22458813.4384                                   22458810.8134
                                                                        48.2504
        36.0004
 -10304324.30148  -7960405.25846
                  21815636.0474                                   21815632.6524
                                                                        49.5004
        37.2504
  -3834285.95747  -2933235.82044
                  23244940.4694                                   23244934.5124
                                                                        44.0004
        26.7504
   1949168.80147   1556449.68044
                  23306832.0164                                   23306828.9184
                                                                        43.2504
        25.7504
 09 10  3  1 10 30.0000000  0  8G02G04G05G13G29G10G23G25
 -18010346.75048 -13965894.38347
                  20614790.1334                                   20614784.2624
                                                                        51.7504
        42.0004
    926438.02348    767464.33645
                  22515175.1484                                   22515172.6374
                                                                        48.7504
        34.0004
  -5614360.05948  -4359085.01246
                  22489485.4924                                   22489481.9064
                                                                        48.2504
        36.5004
 -22890828.02348 -17737782.23846
                  21282967.2194                                   21282963.0474
                                                                        51.0004
        36.7504
  -9657467.86348  -7484767.02745
                  22432797.8284                                   22432794.5124
                                                                        48.7504
        35.5004
 -10476547.39148  -8094605.03946
                  21782862.4454                                   21782859.6094
                                                                        50.0004
        37.0004
  -3833508.89847  -2932630.30144
                  23245088.7274                                   23245082.6914
                                                                        42.7504
        27.5004
   1797204.03947   1438035.62144
                  23277913.8134                                   23277910.7544
                                                                        42.7504
        26.0004
 09 10  3  1 11  0.0000000  0  8G02G04G05G13G29G10G23G25
 -18066708.87148 -14009812.98847
                  20604064.8204                                   20604059.2274
                                                                        52.0004
        43.0004
    935810.72748    774767.75045
                  22516958.9144                                   22516955.8134
                                                                        49.2504
        33.7504
  -5795021.69948  -4499860.30146
                  22455106.8914                                   22455103.9844
                                                                        48.2504
        36.7504
 -22959878.43448 -17791587.73446
                  21269827.5314                                   21269823.2274
                                                                        50.7504
        36.7504
  -9793630.93748  -7590868.12145
                  22406886.7114                                   22406883.9884
                                                                        49.0004
        35.5004
 -10648358.59448  -8228483.87546
                  21750167.8284                                   21750165.0664
                                                                        49.5004
        37.5004
  -3832332.40647  -2931713.55144
                  23245312.6644                                   23245306.5204
                                                                        42.5004
        27.7504
   1645703.20747   1319983.03944
                  23249084.1804                                   23249081.4304
                                                                        42.5004
        25.7504
 09 10  3  1 11 30.0000000  0  8G02G04G05G13G29G10G23G25
 -18122490.79748 -14053279.51647
                  20593449.9144                                   20593444.3674
                                                                        52.2504
        42.0004
    945493.53148    782312.77345
                  22518801.1564                                   22518798.3164
                                                                        48.5004
        34.0004
  -5975368.66848  -4640390.38346
                  22420788.0634                                   22420784.6254
                                                                        49.0004
        38.0004
 -23028263.90248 -17844875.09846
                  21256813.8834                                   21256809.7934
                                                                        51.2504
        36.7504
  -9929247.71548  -7696543.51246
                  22381080.0234                                   22381076.5704
                                                                        49.0004
        36.0004
 -10819762.74248  -8362045.52046
                  21717550.5164                                   21717547.4384
                                                                        49.5004
        37.2504
  -3830765.14847  -2930492.31244
                  23245610.9774                                   23245605.2344
                                                                        43.7504
        27.7504
   1494662.29347   1202288.85544
                  23220342.0084                                   23220339.3324
                                                                        43.0004
        26.5004
 09 10  3  1 12  0.0000000  0  8G02G04G05G13G29G10G23G25
 -18177691.96548 -14096293.44947
                  20582945.4384                                   20582940.1724
                                                                        52.2504
        42.2504
    955485.27748    790098.52345
                  22520702.5084                                   22520699.6254
                                                                        48.2504
        34.0004
  -6155398.10248  -4780673.04346
                  22386529.5474                                   22386526.0234
                                                                        49.0004
        37.7504
 -23095984.51248 -17897644.40246
                  21243927.0474                                   21243922.9344
                                                                        50.5004
        36.5004
 -10064315.49648  -7801791.12546
                  22355377.2034                                   22355374.1994
                                                                        49.2504
        36.2504
 -10990756.71548  -8495287.56646
                  21685011.8674                                   21685008.7584
                                                                        49.5004
        37.5004
  -3828809.00047  -2928968.05544
                  23245982.6414                                   23245977.2424
                                                                        42.2504
        27.2504
   1344084.16447   1084955.27044
                  23191688.0164                                   23191684.6914
                                                                        43.0004
        26.7504
 09 10  3  1 12 30.0000000  0  8G02G04G05G13G29G10G23G25
 -18232313.96948 -14138856.06246
                  20572551.3054                                   20572545.6374
                                                                        52.0004
        41.5004
    965783.21547    798122.86345
                  22522662.1564                                   22522659.2114
                                                                        47.5004
        34.5004
  -6335108.58648  -4920707.16446
                  22352332.1414                                   22352328.5784
                                                                        49.5004
        38.5004
 -23163041.96548 -17949896.94146
                  21231166.8204                                   21231162.9574
                                                                        50.7504
        36.2504
 -10198833.31248  -7906610.19146
                  22329779.3364                                   22329776.4804
                                                                        49.2504
        36.2504
 -11161339.21548  -8628208.97746
                  21652550.8054                                   21652547.4804
                                                                        49.2504
        37.2504
  -3826466.97347  -2927143.12944
                  23246428.5864                                   23246422.7894
                                                                        42.0004
        27.7504
   1193970.49647    967983.60944
                  23163122.6174                                   23163120.1334
                                                                        44.5004
        27.2504
 09 10  3  1 13  0.0000000  0  9G02G04G05G13G29G10G23G16G25
 -18286355.98048 -14180966.73047
                  20562267.3524                                   20562261.9454
                                                                        51.7504
        42.5004
    976386.38348    806385.02745
                  22524680.1024                                   22524677.3444
                                                                        48.0004
        34.2504
  -6514496.80548  -5060490.16846
                  22318195.0004                                   22318192.0784
                                                                        49.7504
        38.0004
 -23229435.90248 -18001632.46546
                  21218532.3204                                   21218527.9804
                                                                        50.5004
        36.0004
 -10332797.41848  -8010997.78546
                  22304286.7424                                   22304283.9574
                                                                        49.2504
        36.0004
 -11331506.96548  -8760807.21146
                  21620168.9924                                   21620165.8054
                                                                        49.5004
        37.2504
  -3823740.40247  -2925018.54344
                  23246947.5554                                   23246941.9144
                                                                        42.7504
        28.0004
  12376492.46156   9656159.67253
                  24292080.2194                                   24292076.4844
                                                                        41.7504
        23.5004
   1044325.00847    851376.75844
                  23134646.5864                                   23134643.1844
                                                                        45.5004
        28.0004
 09 10  3  1 13 30.0000000  0  9G02G04G05G13G29G10G23G16G25
 -18339823.91048 -14222630.06647
                  20552092.8524                                   20552087.6764
                                                                        51.7504
        42.2504
    987288.33248    814880.03145
                  22526754.4534                                   22526751.3954
                                                                        48.0004
        34.0004
  -6693566.12948  -5200024.68046
                  22284119.2814                                   22284116.3714
                                                                        49.2504
        37.7504
 -23295171.26648 -18052854.82446
                  21206023.3984                                   21206019.0944
                                                                        50.7504
        36.5004
 -10466211.75848  -8114957.00446
                  22278898.6804                                   22278895.6094
                                                                        49.5004
        36.0004
 -11501262.79748  -8893084.45746
                  21587865.6644                                   21587862.5864
                                                                        49.5004
        37.5004
  -3820636.60247  -2922599.96544
                  23247537.8284                                   23247532.1484
                                                                        43.7504
        26.0004
  12221633.03546   9535490.00143
                  24262611.4384                                   24262607.9774
                                                                        40.5004
        22.0004
    895145.16447    735132.75844
                  23106258.1954                                   23106255.0314
                                                                        45.5004
        28.0004
 09 10  3  1 14  0.0000000  0  9G02G04G05G13G29G10G23G16G25
 -18392721.78148 -14263849.21147
                  20542026.7584                                   20542020.8634
                                                                        50.7504
        42.2504
    998483.05948    823603.18445
                  22528884.7034                                   22528882.0124
                                                                        48.0004
        34.0004
  -6872317.80548  -5339311.67246
                  22250103.9614                                   22250100.5124
                                                                        49.0004
        37.7504
 -23360253.16448 -18103567.98446
                  21193638.4384                                   21193634.0314
                                                                        50.7504
        36.5004
 -10599078.07848  -8218489.18046
                  22253615.4844                                   22253611.8954
                                                                        49.5004
        36.0004
 -11670608.42648  -9025042.07046
                  21555640.3364                                   21555637.0164
                                                                        49.0004
        37.5004
  -3817162.18447  -2919892.61344
                  23248199.6644                                   23248192.6134
                                                                        43.5004
        26.2504
  12067236.33646   9415180.96543
                  24233230.0004                                   24233226.7664
                                                                        38.2504
        19.5004
    746429.27047    619250.25844
                  23077958.0634                                   23077954.8404
                                                                        44.5004
        28.5004
 09 10  3  1 14 30.0000000  0  9G02G04G05G13G29G10G23G16G25
 -18445049.27348 -14304623.85947
                  20532069.0944                                   20532063.4414
                                                                        51.7504
        42.2504
   1009969.44147    832553.58645
                  22531070.4384                                   22531067.5314
                                                                        47.7504
        33.7504
  -7050748.56648  -5478348.61746
                  22216149.9614                                   22216146.5084
                                                                        49.5004
        37.5004
 -23424681.18748 -18153771.64146
                  21181378.3134                                   21181374.3134
                                                                        50.0004
        36.5004
 -10731393.13748  -8321591.80945
                  22228436.5084                                   22228433.7544
                                                                        48.5004
        35.5004
 -11839540.64848  -9156677.55146
                  21523493.8444                                   21523490.2304
                                                                        49.0004
        38.0004
  -3813318.33247  -2916897.37544
                  23248931.0474                                   23248924.8484
                                                                        43.5004
        24.2504
  11913306.19546   9295235.43842
                  24203938.4064                                   24203935.2154
                                                                        37.2504
        17.7504
    598180.73447    503731.93444
                  23049747.0474                                   23049744.2544
                                                                        44.5004
        26.7504
 09 10  3  1 15  0.0000000  0  9G02G04G05G13G29G10G23G16G25
 -18496803.15648 -14344951.56647
                  20522220.9064                                   20522215.5084
                                                                        51.0004
        42.5004
   1021749.86347    841733.10945
                  22533312.2504                                   22533309.5204
                                                                        47.5004
        33.5004
  -7228852.64848  -5617130.99646
                  22182257.6564                                   22182254.4264
                                                                        49.0004
        37.2504
 -23488452.55548 -18203463.60546
                  21169242.8674                                   21169239.0434
                                                                        50.0004
        36.5004
 -10863151.38748  -8424260.57046
                  22203363.9924                                   22203361.2664
                                                                        48.7504
        36.0004
 -12008053.22748  -9287986.02746
                  21491426.5784                                   21491423.4144
                                                                        48.2504
        37.5004
  -3809103.37147  -2913612.98444
                  23249732.5554                                   23249726.4384
                                                                        43.0004
        25.0004
  11759849.11346   9175658.51243
                  24174737.3364                                   24174733.0164
                                                                        39.7504
        18.2504
    450406.02047    388582.80944
                  23021627.2194                                   23021623.2544
                                                                        44.7504
        26.5004
 09 10  3  1 15 30.0000000  0  9G02G04G05G13G29G10G23G16G25
 -18547980.89548 -14384830.32847
                  20512481.8134                                   20512476.4774
                                                                        51.2504
        42.0004
   1033825.62547    851142.77345
                  22535610.7734                                   22535607.6094
                                                                        47.7504
        33.2504
  -7406624.53148  -5755654.52346
                  22148429.0634                                   22148425.8204
                                                                        49.5004
        38.0004
 -23551564.47748 -18252641.73445
                  21157233.3594                                   21157229.2074
                                                                        50.7504
        35.5004
 -10994348.20748  -8526491.84046
                  22178397.8364                                   22178394.9964
                                                                        48.5004
        36.7504
 -12176141.04748  -9418963.52346
                  21459440.5394                                   21459436.8834
                                                                        49.5004
        37.5004
  -3804516.80147  -2910039.04744
                  23250604.7274                                   23250599.7624
                                                                        42.0004
        26.5004
  11606870.85246   9056454.68043
                  24145626.7274                                   24145621.2504
                                                                        40.7504
        18.2504
    303110.43447    273807.03944
                  22993597.3444                                   22993594.1134
                                                                        44.0004
        27.5004
 09 10  3  1 16  0.0000000  0  9G02G04G05G13G29G10G23G16G25
 -18598582.68048 -14424260.28147
                  20502852.5704                                   20502847.2344
                                                                        50.7504
        42.0004
   1046194.78947    860781.08245
                  22537964.4844                                   22537961.2734
                                                                        47.5004
        34.2504
  -7584062.14548  -5893917.57446
                  22114663.3594                                   22114660.4534
                                                                        49.5004
        38.0004
 -23614017.68048 -18301306.57046
                  21145348.7274                                   21145344.4964
                                                                        51.0004
        36.5004
 -11124981.17648  -8628283.75046
                  22153539.0784                                   22153536.4614
                                                                        48.5004
        36.5004
 -12343801.87548  -9549608.31246
                  21427535.4694                                   21427532.2234
                                                                        49.2504
        37.7504
  -3799560.62547  -2906177.12944
                  23251548.7734                                   23251543.3364
                                                                        43.5004
        27.2504
  11454374.18447   8937626.07443
                  24116606.9064                                   24116602.1414
                                                                        42.5004
        20.0004
    156296.69947    159406.75844
                  22965659.8594                                   22965656.3754
                                                                        43.7504
        26.2504
 09 10  3  1 16 30.0000000  0  9G02G04G05G13G29G10G23G16G25
 -17073185.76248 -13235639.31647
                  20793125.9614                                   20793120.8984
                                                                        50.5004
        42.2504
   2634277.04747   2098247.79745
                  22840166.5474                                   22840163.1054
                                                                        46.2504
        33.5004
  -6185735.52048  -4804312.37946
                  22380756.0634                                   22380753.1134
                                                                        49.0004
        38.2504
 -22100389.27348 -17121855.86746
                  21433382.8204                                   21433378.5904
                                                                        50.7504
        36.0004
  -9679622.71148  -7502030.38346
                  22428581.4144                                   22428578.6484
                                                                        49.0004
        36.5004
 -10935606.35948  -8452313.09046
                  21695506.4694                                   21695503.1994
                                                                        48.0004
        38.2504
  -2218815.87947  -1674428.00844
                  23552354.9454                                   23552349.2154
                                                                        43.0004
        27.0004
  12877788.27047  10046779.90243
                  24387473.6954                                   24387469.0084
                                                                        42.5004
        19.0004
   1585393.69547   1272988.84044
                  23237608.0394                                   23237604.2854
                                                                        43.5004
        26.5004
 09 10  3  1 17  0.0000000  0  9G02G04G05G13G29G10G23G16G25
 -17122629.69948 -13274167.10246
                  20783717.4144                                   20783712.0124
                                                                        50.7504
        41.7504
   2647235.73447   2108345.48845
                  22842631.5784                                   22842629.5164
                                                                        45.2504
        33.0004
  -6362489.83248  -4942042.98846
                  22347121.0474                                   22347117.6334
                                                                        49.5004
        38.2504
 -22161519.70748 -17169489.97746
                  21421749.9694                                   21421745.9024
                                                                        50.7504
        36.5004
  -9809114.78948  -7602933.27346
                  22403939.8594                                   22403936.9264
                                                                        48.5004
        36.2504
 -11102398.61748  -8582281.07046
                  21663766.4224                                   21663763.9104
                                                                        48.7504
        38.5004
  -2213119.68447  -1669989.44544
                  23553438.1414                                   23553432.9184
                                                                        44.5004
        27.0004
  12726270.29347   9928713.94943
                  24358641.0474                                   24358636.3444
                                                                        43.0004
        20.5004
   1439558.52347   1159351.07044
                  23209856.4614                                   23209852.9534
                                                                        44.5004
        28.2504
 09 10  3  1 17 30.0000000  0  9G02G04G05G13G29G10G23G16G25
 -17171495.09848 -13312244.10947
                  20774418.4384                                   20774413.3364
                                                                        50.5004
        42.0004
   2660486.84447   2118671.01645
                  22845153.7504                                   22845150.9024
                                                                        47.0004
        32.5004
  -6538898.83648  -5079504.52046
                  22313551.3834                                   22313547.8014
                                                                        49.5004
        37.5004
 -22221989.30948 -17216609.14146
                  21410242.8594                                   21410239.2974
                                                                        51.0004
        36.0004
  -9938033.20348  -7703389.17646
                  22379407.9454                                   22379404.3794
                                                                        49.5004
        36.2504
 -11268752.49248  -8711907.45746
                  21632110.7114                                   21632107.8204
                                                                        49.2504
        38.7504
  -2207056.77747  -1665265.10944
                  23554592.2584                                   23554586.5744
                                                                        45.0004
        26.0004
  12575245.98847   9811032.65243
                  24329902.2504                                   24329897.5704
                                                                        43.0004
        22.5004
   1294216.79747   1046097.79344
                  23182198.9454                                   23182195.5784
                                                                        45.0004
        28.7504
 09 10  3  1 18  0.0000000  0 10G02G04G05G13G29G10G23G16G07G25
 -17219783.18448 -13349871.21547
                  20765229.5554                                   20765224.2344
                                                                        51.2504
        42.0004
   2674028.07047   2129222.61745
                  22847730.1024                                   22847727.6884
                                                                        47.0004
        32.7504
  -6714961.17248  -5216695.94146
                  22280048.1254                                   22280044.8284
                                                                        49.5004
        38.5004
 -22281799.69548 -17263214.62946
                  21398861.6094                                   21398857.4494
                                                                        50.0004
        36.0004
 -10066376.89848  -7803397.23846
                  22354984.8674                                   22354981.6884
                                                                        48.0004
        36.7504
 -11434667.07848  -8841191.53146
                  21600538.1564                                   21600535.0004
                                                                        49.0004
        38.5004
  -2200630.16847  -1660257.34044
                  23555815.0234                                   23555808.5204
                                                                        44.5004
        25.2504
  12424717.52746   9693737.80543
                  24301257.2344                                   24301253.1094
                                                                        41.2504
        21.7504
  13907188.12956  10876408.10553
                  24502827.5784                                   24502824.4884
                                                                        41.7504
        22.5004
   1149370.15647    933230.30944
                  23154635.5554                                   23154632.0824
                                                                        45.5004
        28.7504
 09 10  3  1 18 30.0000000  0 10G02G04G05G13G29G10G23G16G07G25
 -17267499.88348 -13387053.02047
                  20756149.3984                                   20756144.2074
                                                                        50.7504
        42.0004
   2687851.85247   2139994.36745
                  22850360.7584                                   22850358.5044
                                                                        45.7504
        32.5004
  -6890679.86748  -5353619.58246
                  22246609.9694                                   22246605.8794
                                                                        48.7504
        38.0004
 -22340957.35948 -17309311.53946
                  21387604.2734                                   21387600.4264
                                                                        49.5004
        36.5004
 -10194149.37948  -7902960.19546
                  22330670.3984                                   22330667.5204
                                                                        48.5004
        37.2504
 -11600145.18048  -8970135.50046
                  21569048.7584                                   21569045.2704
                                                                        49.5004
        38.5004
  -2193847.38347  -1654972.01243
                  23557105.4384                                   23557099.2384
                                                                        43.0004
        22.5004
  12274681.48846   9576826.65643
                  24272706.6564                                   24272702.6804
                                                                        41.0004
        23.0004
  13721540.98447  10731748.00844
                  24467500.3984                                   24467496.6454
                                                                        43.2504
        26.0004
   1005015.28147    820746.00044
                  23127165.5634                                   23127162.3634
                                                                        43.5004
        28.5004
 09 10  3  1 19  0.0000000  0 10G02G04G05G13G29G10G23G16G07G25
 -17314650.00048 -13423793.31246
                  20747176.9534                                   20747171.4534
                                                                        51.0004
        41.7504
   2701952.48047   2150981.85245
                  22853044.1334                                   22853041.6094
                                                                        47.5004
        33.0004
  -7066056.53148  -5490276.70746
                  22213236.7114                                   22213233.3524
                                                                        49.0004
        38.5004
 -22399467.02048 -17354903.56246
                  21376470.0474                                   21376466.0514
                                                                        48.2504
        36.2504
 -10321352.94948  -8002079.85246
                  22306464.7194                                   22306461.3134
                                                                        48.7504
        37.2504
 -11765188.57048  -9098740.74246
                  21537642.1094                                   21537638.8484
                                                                        49.0004
        38.2504
  -2186714.93046  -1649414.26243
                  23558462.3984                                   23558457.0044
                                                                        41.5004
        22.7504
  12125136.84446   9460298.39543
                  24244249.3674                                   24244245.2114
                                                                        40.7504
        22.5004
  13536152.16447  10587289.21544
                  24432222.3594                                   24432219.0784
                                                                        43.7504
        27.5004
    861150.55147    708643.63344
                  23099788.8204                                   23099786.0784
                                                                        44.5004
        29.0004
 09 10  3  1 19 30.0000000  0 10G02G04G05G13G29G10G23G16G07G25
 -17361230.37948 -13460089.66846
                  20738312.8914                                   20738307.3284
                                                                        51.5004
        41.7504
   2716332.05947   2162186.71145
                  22855780.7664                                   22855777.7344
                                                                        46.5004
        33.2504
  -7241085.28948  -5626662.74246
                  22179929.6564                                   22179926.5314
                                                                        48.5004
        38.0004
 -22457325.35248 -17399987.96145
                  21365459.9224                                   21365456.1564
                                                                        50.0004
        35.5004
 -10447981.73448  -8100751.62946
                  22282368.3134                                   22282365.1524
                                                                        49.2504
        37.2504
 -11929791.28948  -9227002.60946
                  21506319.4064                                   21506316.2974
                                                                        48.5004
        38.5004
  -2179231.31646  -1643582.90644
                  23559886.9924                                   23559881.4024
                                                                        41.7504
        24.7504
  11976090.33646   9344158.29743
                  24215886.0474                                   24215882.5474
                                                                        37.5004
        21.2504
  13351029.09447  10443037.50844
                  24396993.5234                                   24396990.6094
                                                                        42.2504
        27.7504
    717782.33647    596928.17244
                  23072507.0554                                   23072503.6764
                                                                        43.5004
        28.7504
