     2.11           OBSERVATION DATA    G (GPS)             RINEX VERSION / TYPE
teqc  2019Feb25                         20221121 12:28:22UTCPGM / RUN BY / DATE
OSX ker:10.11.6|Core i5|gcc 4.3 -m64|OSX ker:10.10+|=+      COMMENT
BIT 2 OF LLI FLAGS DATA COLLECTED UNDER A/S CONDITION       COMMENT
04712871                                                    MARKER NAME
2871                                                        MARKER NUMBER
-Unknown-           -Unknown-                               OBSERVER / AGENCY
0220400471          TRIMBLE R7          2.30                REC # / TYPE / VERS
-Unknown-           TRM39105.00     NONE                    ANT # / TYPE
  1449460.2104 -1709241.4171  5952441.9371                  APPROX POSITION XYZ
        0.0000        0.0000        0.0000                  ANTENNA: DELTA H/E/N
     1     1                                                WAVELENGTH FACT L1/2
    20    L1    L2    L5    L6    L7    L8    C1    P1    C2# / TYPES OF OBSERV
          P2    C5    C6    C7    C8    S1    S2    S5    S6# / TYPES OF OBSERV
          S7    S8                                          # / TYPES OF OBSERV
    30.0000                                                 INTERVAL
    15                                                      LEAP SECONDS
Forced Modulo Decimation to 30 seconds                      COMMENT
 SNR is mapped to RINEX snr flag value [0-9]                COMMENT
  L1 & L2: min(max(int(snr_dBHz/6), 0), 9)                  COMMENT
teqc edited: Beidou # 1 - 37 excluded                       COMMENT
  2009    10    14    23    10   30.0000000     GPS         TIME OF FIRST OBS
                                                            END OF HEADER
 09 10 14 23 10 30.0000000  0  6G02G04G13G23G30G31
   -273150.46558   -171647.32056
                  21046840.4304                                   21046835.1914
                                                                        51.7504
        41.7504
   -115517.27058    -74831.20356
                  20841793.5004                                   20841790.6334
                                                                        53.0004
        41.5004
   -311237.73458   -196914.47355
                  22196300.9614                                   22196297.3984
                                                                        49.5004
        34.0004
   -162390.77758   -101735.00455
                  21949357.6334                                   21949352.0944
                                                                        50.0004
        35.0004
   -104029.25057    -65713.20354
                  22863586.8204                                   22863584.9384
                                                                        43.7504
        29.2504
   -107761.07857    -72641.53954
                  23950591.0394                                   23950586.9184
                                                                        43.7504
        27.5004
 09 10 14 23 11  0.0000000  0  8G02G04G12G13G20G23G30G31
   -422327.32848   -287889.05546
                  21018452.9614                                   21018447.6484
                                                                        51.7504
        41.7504
   -179244.78948   -124488.98846
                  20829666.5474                                   20829663.5394
                                                                        53.2504
        41.7504
    -18813.36757    -13718.60254
                  23962967.1174                                   23962963.5204
                                                                        45.5004
        29.7504
   -482267.31248   -330184.25445
                  22163755.4144                                   22163751.1214
                                                                        49.0004
        33.5004
     18460.20756     11776.06653
                  24379284.8444                                   24379280.7774
                                                                        39.5004
        19.0004
   -251220.34848   -170952.89845
                  21932453.7814                                   21932448.4184
                                                                        49.0004
        35.0004
   -161376.55147   -110399.33644
                  22852673.8914                                   22852671.6804
                                                                        44.5004
        29.5004
   -170942.26247   -121873.64144
                  23938568.0314                                   23938564.1764
                                                                        43.0004
        26.7504
 09 10 14 23 11 30.0000000  0  8G02G04G12G13G20G23G30G31
   -570755.13748   -403547.07847
                  20990208.1804                                   20990203.2114
                                                                        51.7504
        42.0004
   -242176.10248   -173526.41046
                  20817691.0704                                   20817687.6414
                                                                        53.2504
        41.5004
    -30834.98047    -23086.10944
                  23960678.8204                                   23960675.4694
                                                                        45.5004
        28.7504
   -652515.45348   -462845.13745
                  22131358.0944                                   22131354.3404
                                                                        49.0004
        33.0004
     31408.61346     21865.70343
                  24381747.7734                                   24381744.8914
                                                                        40.0004
        19.2504
   -339158.14848   -239475.89545
                  21915719.9694                                   21915714.0204
                                                                        49.0004
        35.5004
   -217840.12947   -154396.87944
                  22841928.9064                                   22841926.6484
                                                                        44.5004
        29.0004
   -233303.68047   -170467.00844
                  23926701.0704                                   23926697.1374
                                                                        42.7504
        26.7504
 09 10 14 23 12  0.0000000  0  8G02G04G12G13G20G23G30G31
   -718282.06248   -518503.16847
                  20962134.8914                                   20962129.7384
                                                                        52.2504
        42.0004
   -304162.05148   -221827.12946
                  20805895.4774                                   20805892.4734
                                                                        53.2504
        41.5004
    -42090.02747    -31856.27344
                  23958537.6414                                   23958532.9734
                                                                        45.7504
        29.7504
   -821829.43448   -594778.10245
                  22099138.8054                                   22099135.0164
                                                                        49.5004
        34.0004
     44917.61746     32392.18443
                  24384318.9774                                   24384315.4884
                                                                        40.0004
        19.7504
   -426053.94948   -307186.93045
                  21899184.0634                                   21899179.0434
                                                                        49.2504
        35.5004
   -273271.35247   -197589.95744
                  22831380.5234                                   22831378.6914
                                                                        45.0004
        29.2504
   -294696.12947   -218305.29344
                  23915018.3204                                   23915014.9614
                                                                        42.2504
        26.0004
 09 10 14 23 12 30.0000000  0  8G02G04G12G13G20G23G30G31
   -864850.86748   -632712.64146
                  20934243.3984                                   20934238.2894
                                                                        51.0004
        41.7504
   -365148.26248   -269348.86346
                  20794289.8444                                   20794286.6994
                                                                        53.0004
        41.2504
    -52526.00447    -39988.19144
                  23956551.8284                                   23956547.3404
                                                                        46.5004
        29.7504
   -990151.66848   -725938.28145
                  22067107.9534                                   22067104.1414
                                                                        48.2504
        33.5004
     59040.16046     43396.71543
                  24387006.7274                                   24387002.5314
                                                                        40.0004
        19.2504
   -511853.53548   -374043.88345
                  21882857.4924                                   21882851.9144
                                                                        48.2504
        35.2504
   -327616.78547   -239936.99644
                  22821039.1954                                   22821036.4384
                                                                        44.5004
        28.5004
   -355065.59846   -265346.41844
                  23903530.2194                                   23903527.0634
                                                                        41.5004
        26.2504
 09 10 14 23 13  0.0000000  0  8G02G04G12G13G20G23G30G31
  -1010450.23848   -746166.69547
                  20906536.9384                                   20906531.7854
                                                                        51.0004
        42.0004
   -425125.66048   -316084.48846
                  20782876.7034                                   20782873.7344
                                                                        52.5004
        41.5004
    -62135.32847    -47475.97745
                  23954722.9384                                   23954719.6764
                                                                        44.2504
        30.0004
  -1157469.17248   -856315.53945
                  22035268.7814                                   22035264.7234
                                                                        49.0004
        34.2504
     73784.37546     54885.69943
                  24389811.8594                                   24389808.2664
                                                                        39.7504
        21.0004
   -596546.35547   -440038.28145
                  21866740.4144                                   21866735.2974
                                                                        47.7504
        35.0004
   -380868.20747   -281431.51645
                  22810905.6884                                   22810903.4534
                                                                        45.2504
        30.5004
   -414403.67646   -311583.90644
                  23892238.3914                                   23892235.3054
                                                                        41.7504
        26.0004
 09 10 14 23 13 30.0000000  0  7G02G04G12G13G23G30G31
  -1155083.57048   -858868.02346
                  20879014.0314                                   20879008.7304
                                                                        51.5004
        41.5004
   -484100.44148   -362038.93046
                  20771654.5004                                   20771651.5124
                                                                        52.7504
        41.2504
    -70926.27347    -54326.07444
                  23953049.5234                                   23953046.1644
                                                                        44.2504
        29.2504
  -1323784.95748   -985912.25845
                  22003619.7734                                   22003616.0664
                                                                        49.0004
        33.5004
   -680138.22748   -505174.87545
                  21850833.2584                                   21850828.0204
                                                                        49.0004
        35.0004
   -433032.20347   -322078.68045
                  22800979.4534                                   22800976.7704
                                                                        44.5004
        30.0004
   -472716.47347   -357022.48444
                  23881142.3134                                   23881138.9224
                                                                        42.0004
        27.0004
 09 10 14 23 14  0.0000000  0  7G02G04G12G13G23G30G31
  -1298760.77348   -970824.27047
                  20851673.2814                                   20851668.3204
                                                                        52.0004
        42.0004
   -542085.25448   -407221.90246
                  20760620.0474                                   20760617.2974
                                                                        53.0004
        41.5004
    -78913.21547    -60549.70744
                  23951529.4384                                   23951526.9024
                                                                        44.0004
        29.7504
  -1489108.39148  -1114735.71945
                  21972159.6174                                   21972155.9384
                                                                        50.2504
        33.5004
   -762641.46548   -569463.10945
                  21835134.1334                                   21835127.7114
                                                                        48.5004
        35.5004
   -484122.57847   -361889.27044
                  22791256.9304                                   22791254.4224
                                                                        44.0004
        29.2504
   -530017.28947   -401672.44144
                  23870238.1724                                   23870234.8094
                                                                        43.2504
        27.5004
 09 10 14 23 14 30.0000000  0  8G02G04G12G13G29G23G30G31
  -1441488.56248  -1082040.73847
                  20824513.1094                                   20824507.8834
                                                                        52.0004
        42.2504
   -599089.08648   -451640.50446
                  20749772.4614                                   20749769.5314
                                                                        53.0004
        41.2504
    -86107.02347    -66155.32044
                  23950161.3914                                   23950157.7384
                                                                        44.5004
        29.2504
  -1653444.58648  -1242789.88745
                  21940887.7974                                   21940883.8444
                                                                        49.5004
        33.7504
   -292217.50856   -186392.78153
                  24400537.0084                                   24400534.0594
                                                                        40.5004
        22.5004
   -844064.17648   -632909.27045
                  21819639.6954                                   21819633.9184
                                                                        49.5004
        35.2504
   -534149.54347   -400871.24244
                  22781737.2194                                   22781735.1764
                                                                        45.2504
        29.0004
   -586315.48447   -445541.19144
                  23859524.9614                                   23859521.4024
                                                                        43.0004
        27.0004
 09 10 14 23 15  0.0000000  0  8G02G04G12G13G29G23G30G31
  -1583283.21148  -1192530.06647
                  20797530.7974                                   20797525.1644
                                                                        51.2504
        42.0004
   -655131.19148   -495309.72746
                  20739108.1174                                   20739105.2584
                                                                        53.2504
        41.5004
    -92528.69547    -71159.27744
                  23948938.4614                                   23948935.9494
                                                                        45.0004
        29.0004
  -1816809.62148  -1370087.30945
                  21909800.3524                                   21909796.4884
                                                                        49.7504
        34.0004
   -489806.23846   -340358.15243
                  24362936.5864                                   24362933.6024
                                                                        41.5004
        22.7504
   -924425.78948   -695528.80545
                  21804347.5234                                   21804342.0004
                                                                        49.5004
        35.0004
   -583132.99647   -439040.08645
                  22772415.7194                                   22772413.7584
                                                                        45.0004
        30.5004
   -641630.65647   -488643.93444
                  23848998.8284                                   23848995.3754
                                                                        42.5004
        27.2504
 09 10 14 23 15 30.0000000  0  8G02G04G12G13G29G23G30G31
  -1724172.08648  -1302313.59447
                  20770720.3444                                   20770714.9884
                                                                        51.0004
        42.0004
   -710242.26648   -538253.68446
                  20728621.2734                                   20728618.1054
                                                                        53.0004
        41.5004
    -98209.61747    -75585.96944
                  23947857.9224                                   23947854.6454
                                                                        44.7504
        29.2504
  -1979230.07848  -1496648.69945
                  21878892.7504                                   21878888.7814
                                                                        49.5004
        33.5004
   -686760.71547   -493829.16044
                  24325457.4144                                   24325455.3674
                                                                        42.0004
        27.2504
  -1003755.41448   -757344.14145
                  21789251.6644                                   21789246.0314
                                                                        48.7504
        35.2504
   -631103.54747   -476419.75044
                  22763287.4454                                   22763285.0274
                                                                        44.7504
        29.7504
   -695993.00046   -531004.19944
                  23838653.8834                                   23838650.6414
                                                                        41.2504
        27.5004
 09 10 14 23 16  0.0000000  0  8G02G04G12G13G29G23G30G31
  -1864171.63348  -1411404.12947
                  20744079.2424                                   20744074.3324
                                                                        50.5004
        42.5004
   -764440.29748   -580485.96946
                  20718307.7424                                   20718304.7074
                                                                        52.2504
        41.2504
   -103171.03147    -79452.05944
                  23946914.1644                                   23946910.7424
                                                                        45.5004
        29.5004
  -2140721.69948  -1622486.32445
                  21848161.4614                                   21848157.8444
                                                                        50.0004
        34.2504
   -883096.95747   -646818.40644
                  24288095.8984                                   24288093.9964
                                                                        42.0004
        27.0004
  -1082071.25848   -818369.37145
                  21774348.2344                                   21774342.8554
                                                                        49.0004
        35.5004
   -678081.02347   -513025.60245
                  22754347.8054                                   22754345.8404
                                                                        43.2504
        30.0004
   -749422.17246   -572637.30544
                  23828487.0864                                   23828482.5664
                                                                        40.7504
        27.5004
 09 10 14 23 16 30.0000000  0  8G02G04G12G13G29G23G30G31
  -2003295.77748  -1519812.56247
                  20717604.9064                                   20717599.7194
                                                                        50.0004
        42.5004
   -817741.71148   -622019.47346
                  20708164.5234                                   20708161.9104
                                                                        53.0004
        41.5004
   -107430.83247    -82771.43445
                  23946103.7664                                   23946099.7344
                                                                        44.7504
        30.5004
  -2301297.03548  -1747609.93745
                  21817605.4694                                   21817601.4964
                                                                        50.0004
        34.2504
  -1078827.11346   -799335.44944
                  24250849.6724                                   24250847.9694
                                                                        40.0004
        26.5004
  -1159389.36348   -878617.15245
                  21759634.7504                                   21759629.7704
                                                                        48.0004
        35.0004
   -724082.72747   -548871.11344
                  22745593.7894                                   22745591.7854
                                                                        44.2504
        29.5004
   -801934.68747   -613556.12144
                  23818494.0554                                   23818490.3404
                                                                        42.2504
        28.5004
 09 10 14 23 17  0.0000000  0  8G02G04G12G13G29G23G30G31
  -2141559.84848  -1627550.82847
                  20691293.9614                                   20691288.6764
                                                                        50.5004
        42.5004
   -870164.69948   -662868.36746
                  20698188.8754                                   20698186.0984
                                                                        52.7504
        41.5004
   -111008.70747    -85559.43444
                  23945422.2584                                   23945419.1294
                                                                        44.5004
        29.5004
  -2460971.05548  -1872031.25845
                  21787220.2814                                   21787216.6054
                                                                        50.0004
        34.5004
  -1273965.57446   -951391.31244
                  24213716.3444                                   24213714.1564
                                                                        40.0004
        26.5004
  -1235727.57848   -938101.48845
                  21745108.3054                                   21745102.5784
                                                                        48.5004
        35.2504
   -769127.56247   -583970.96944
                  22737022.0314                                   22737020.0204
                                                                        44.7504
        28.7504
   -853549.43447   -653775.42244
                  23808672.2034                                   23808668.8794
                                                                        43.2504
        28.5004
 09 10 14 23 17 30.0000000  0  8G02G04G12G13G29G23G30G31
  -2278974.86348  -1734627.45747
                  20665144.6804                                   20665139.7114
                                                                        51.2504
        42.0004
   -921723.32048   -703043.86746
                  20688377.4384                                   20688374.4264
                                                                        52.5004
        41.5004
   -113920.24247    -87828.21144
                  23944868.8364                                   23944865.2034
                                                                        45.5004
        27.5004
  -2619753.63348  -1995757.96945
                  21757004.9614                                   21757001.0664
                                                                        50.0004
        34.0004
  -1468522.37146  -1102993.84044
                  24176692.3834                                   24176690.8954
                                                                        40.0004
        25.0004
  -1311098.85948   -996832.31245
                  21730765.7664                                   21730760.3284
                                                                        49.2504
        35.2504
   -813230.37547   -618336.87545
                  22728630.1254                                   22728627.8204
                                                                        44.5004
        30.0004
   -904280.17647   -693305.88744
                  23799018.4694                                   23799014.5784
                                                                        43.5004
        26.2504
 09 10 14 23 18  0.0000000  0  8G02G04G12G13G29G23G30G31
  -2415557.58648  -1841055.57047
                  20639153.8754                                   20639148.9804
                                                                        50.5004
        42.2504
   -972437.32448   -742561.40246
                  20678726.9224                                   20678724.2544
                                                                        52.5004
        41.2504
   -116186.43447    -89594.08644
                  23944437.6954                                   23944433.4804
                                                                        45.0004
        27.5004
  -2777660.68448  -2118802.41445
                  21726956.4064                                   21726952.4414
                                                                        50.2504
        34.0004
  -1662513.40646  -1254155.59044
                  24139777.7664                                   24139775.5784
                                                                        41.5004
        26.7504
  -1385522.43747  -1054824.80145
                  21716603.7584                                   21716597.9654
                                                                        47.5004
        34.7504
   -856410.96947   -651984.14844
                  22720412.5704                                   22720410.0084
                                                                        44.5004
        29.0004
   -954146.52747   -732162.84444
                  23789529.2894                                   23789525.3834
                                                                        43.2504
        28.0004
 09 10 14 23 18 30.0000000  0  9G02G04G12G13G29G23G10G30G31
  -2551320.59048  -1946844.93047
                  20613319.0704                                   20613314.1954
                                                                        49.5004
        42.0004
  -1022321.55548   -781432.40646
                  20669234.3914                                   20669231.4264
                                                                        51.7504
        41.5004
   -117824.24647    -90870.30944
                  23944125.7424                                   23944121.7034
                                                                        44.5004
        27.0004
  -2934704.62148  -2241174.30545
                  21697071.7114                                   21697067.6024
                                                                        49.5004
        34.0004
  -1855950.38346  -1404885.60244
                  24102968.2584                                   24102965.1724
                                                                        41.7504
        25.5004
  -1459012.64547  -1112089.88345
                  21702618.9534                                   21702612.8244
                                                                        47.0004
        35.5004
   -311673.90657   -230754.73854
                  23977390.2734                                   23977387.4844
                                                                        43.0004
        24.0004
   -898685.52347   -684925.41844
                  22712368.5864                                   22712365.7234
                                                                        44.0004
        29.2504
  -1003164.29747   -770358.57444
                  23780201.3204                                   23780197.8244
                                                                        43.7504
        28.7504
 09 10 14 23 19  0.0000000  0  9G02G04G12G13G29G23G10G30G31
  -1110854.02348   -824403.43747
                  20887430.7504                                   20887425.4574
                                                                        50.5004
        42.5004
    504029.54748    407932.32846
                  20959689.0634                                   20959686.5004
                                                                        52.7504
        41.7504
   1456567.75047   1135928.62144
                  24243722.3834                                   24243719.2114
                                                                        43.2504
        27.5004
  -1515473.30948  -1135279.74645
                  21967142.5554                                   21967138.9534
                                                                        49.5004
        34.7504
   -473419.99646   -327589.17243
                  24366054.2194                                   24366051.5124
                                                                        40.5004
        23.2504
     43835.89148     58960.79745
                  21988601.8444                                   21988596.0164
                                                                        49.0004
        35.7504
   1052749.35247    832432.29743
                  24237031.2424                                   24237028.4774
                                                                        43.7504
        23.5004
    635349.57047    510426.57845
                  23004285.0554                                   23004283.0744
                                                                        44.7504
        30.0004
    524070.43046    419694.38744
                  24070824.7814                                   24070821.0704
                                                                        41.5004
        27.0004
 09 10 14 23 19 30.0000000  0  9G02G04G12G13G29G23G10G30G31
  -1245020.67648   -928948.92647
                  20861899.7424                                   20861894.2194
                                                                        51.0004
        42.5004
    455754.82448    370315.62547
                  20950502.7734                                   20950500.1094
                                                                        52.0004
        42.0004
   1456131.06347   1135588.28144
                  24243639.3054                                   24243636.4884
                                                                        44.2504
        28.0004
  -1670830.16848  -1256337.02045
                  21937578.9844                                   21937575.5434
                                                                        49.5004
        34.7504
   -665787.93046   -477486.19544
                  24329447.6724                                   24329445.3794
                                                                        41.5004
        25.7504
    -27837.22348      3111.62945
                  21974962.2274                                   21974956.6914
                                                                        48.5004
        34.5004
    842164.81347    668340.55544
                  24196957.9144                                   24196956.1134
                                                                        43.0004
        26.2504
    594833.95347    478855.94144
                  22996575.3134                                   22996573.4064
                                                                        44.0004
        28.7504
    476697.68846    382780.49644
                  24061810.2274                                   24061806.4224
                                                                        40.7504
        26.2504
 09 10 14 23 20  0.0000000  0  9G02G04G12G13G29G23G10G30G31
  -1378403.10948  -1032883.34447
                  20836517.9064                                   20836512.8164
                                                                        50.7504
        42.5004
    408266.30548    333311.49647
                  20941466.0004                                   20941463.3714
                                                                        52.7504
        42.2504
   1456274.33247   1135699.87544
                  24243666.4924                                   24243663.7304
                                                                        44.5004
        29.2504
  -1825357.10948  -1376747.60945
                  21908173.6564                                   21908170.0984
                                                                        49.0004
        35.7504
   -857633.96146   -626976.58644
                  24292940.9844                                   24292938.8284
                                                                        41.2504
        26.0004
    -98619.60547    -52043.48045
                  21961492.8524                                   21961487.1644
                                                                        47.0004
        34.7504
    631992.90646    504570.33244
                  24156963.1564                                   24156961.2074
                                                                        41.2504
        24.7504
    555178.11747    447955.25444
                  22989028.8134                                   22989027.0124
                                                                        44.0004
        28.7504
    430128.80146    346493.10244
                  24052948.1804                                   24052944.2934
                                                                        40.7504
        28.2504
 09 10 14 23 20 30.0000000  0  9G02G04G12G13G29G23G10G30G31
  -1511008.21148  -1136212.11747
                  20811284.2274                                   20811279.0904
                                                                        51.0004
        42.2504
    361554.70348    296912.85946
                  20932577.3204                                   20932574.3914
                                                                        52.5004
        41.0004
   1456986.14547   1136254.47744
                  24243802.5944                                   24243799.6764
                                                                        45.5004
        29.0004
  -1979059.86348  -1496515.99245
                  21878925.0634                                   21878921.7034
                                                                        49.2504
        35.2504
  -1048963.91846   -776064.93044
                  24256531.9454                                   24256529.3914
                                                                        40.7504
        25.0004
   -168520.07048   -106511.51645
                  21948191.5234                                   21948186.2894
                                                                        49.0004
        35.0004
    422227.66847    341117.02044
                  24117046.5234                                   24117044.0784
                                                                        43.5004
        26.2504
    516371.63747    417716.39844
                  22981644.4454                                   22981642.9574
                                                                        44.5004
        28.7504
    384353.80946    310824.25844
                  24044236.7194                                   24044233.5634
                                                                        40.7504
        26.0004
 09 10 14 23 21  0.0000000  0  9G02G04G12G13G29G23G10G30G31
  -1642841.41848  -1238939.31647
                  20786197.0944                                   20786191.9534
                                                                        51.7504
        42.2504
    315611.91848    261113.28546
                  20923834.4924                                   20923831.5864
                                                                        52.5004
        41.0004
   1458256.96947   1137244.70744
                  24244044.1954                                   24244040.9654
                                                                        45.5004
        29.0004
  -2131943.41848  -1615646.04345
                  21849832.1174                                   21849828.8094
                                                                        49.2504
        35.0004
  -1239782.33246   -924754.62944
                  24220220.3134                                   24220218.7234
                                                                        40.0004
        26.0004
   -237545.80548   -160297.81245
                  21935056.3984                                   21935051.0234
                                                                        49.5004
        35.5004
    212864.40647    177976.88344
                  24077206.0944                                   24077203.3364
                                                                        43.5004
        24.5004
    478405.50447    388132.53544
                  22974419.9224                                   22974417.8714
                                                                        45.0004
        28.5004
    339364.12946    275767.30944
                  24035675.6724                                   24035672.4774
                                                                        41.0004
        26.0004
 09 10 14 23 21 30.0000000  0  9G02G04G12G13G29G23G10G30G31
  -1773908.35548  -1341069.44547
                  20761256.0084                                   20761250.6644
                                                                        51.0004
        42.2504
    270429.40248    225906.10546
                  20915236.6254                                   20915233.9264
                                                                        52.5004
        41.2504
   1460076.61347   1138662.57844
                  24244390.7894                                   24244387.3444
                                                                        44.2504
        29.2504
  -2284012.23848  -1734141.27345
                  21820894.5864                                   21820890.9804
                                                                        49.5004
        34.2504
  -1430093.16446  -1073048.80544
                  24184005.9224                                   24184003.3984
                                                                        40.7504
        26.5004
   -305705.27347   -213409.16045
                  21922085.8284                                   21922080.3444
                                                                        47.2504
        34.2504
      3898.19146     15146.10943
                  24037440.2194                                   24037438.4024
                                                                        41.5004
        23.2504
    441270.43047    359196.21144
                  22967353.3834                                   22967350.8954
                                                                        45.5004
        28.7504
    295150.99246    241315.46944
                  24027262.5784                                   24027258.5864
                                                                        41.5004
        25.5004
 09 10 14 23 22  0.0000000  0  9G02G04G12G13G29G23G10G30G31
  -1904216.95348  -1442608.79747
                  20736459.1954                                   20736454.1724
                                                                        51.0004
        43.0004
    225997.34848    191283.70346
                  20906781.5474                                   20906779.0434
                                                                        52.2504
        41.2504
   1462433.97747   1140499.48444
                  24244838.4774                                   24244835.8954
                                                                        43.5004
        28.0004
  -2435273.09048  -1852006.88345
                  21792110.4384                                   21792106.7304
                                                                        50.0004
        34.7504
  -1619902.89547  -1220952.52344
                  24147886.3444                                   24147884.0124
                                                                        42.5004
        27.5004
   -373007.85948   -265852.60245
                  21909278.6804                                   21909272.9414
                                                                        48.5004
        34.7504
   -204677.63747   -147380.41844
                  23997749.8524                                   23997747.4654
                                                                        42.0004
        26.5004
    404955.43447    330898.89144
                  22960442.7034                                   22960440.3834
                                                                        45.0004
        29.5004
    251704.14846    207460.83643
                  24018994.1724                                   24018991.3954
                                                                        41.2504
        23.7504
 09 10 14 23 22 30.0000000  0  9G02G04G12G13G29G23G10G30G31
  -2033772.94948  -1543561.62147
                  20711805.7664                                   20711800.5434
                                                                        51.5004
        43.2504
    182306.84048    157239.20746
                  20898467.5004                                   20898464.8094
                                                                        52.5004
        41.5004
   1465318.26247   1142746.96544
                  24245386.9144                                   24245384.3714
                                                                        43.0004
        26.0004
  -2585731.65648  -1969247.31645
                  21763479.1884                                   21763475.3674
                                                                        49.5004
        34.2504
  -1809217.00847  -1368470.09844
                  24111860.8204                                   24111858.8914
                                                                        42.5004
        27.7504
   -439462.08248   -317635.04345
                  21896632.9304                                   21896627.6684
                                                                        48.7504
        35.5004
   -412868.26647   -309606.81644
                  23958132.7034                                   23958131.2704
                                                                        42.7504
        26.0004
    369450.57047    303232.77044
                  22953686.5474                                   22953684.1094
                                                                        44.5004
        29.5004
    209013.94146    174195.75444
                  24010870.9064                                   24010867.0124
                                                                        39.7504
        24.5004
 09 10 14 23 23  0.0000000  0  9G02G04G12G13G29G23G10G30G31
  -2162582.06648  -1643932.40247
                  20687293.9774                                   20687288.6994
                                                                        51.0004
        42.5004
    139349.48448    123765.99246
                  20890292.7034                                   20890290.1764
                                                                        52.2504
        41.5004
   1468718.89547   1145396.78144
                  24246034.8284                                   24246031.0594
                                                                        42.7504
        26.5004
  -2735392.66048  -2085866.25445
                  21734999.4534                                   21734995.7504
                                                                        49.5004
        34.7504
  -1998039.40147  -1515604.46844
                  24075929.1724                                   24075926.6564
                                                                        42.5004
        26.5004
   -505076.13748   -368762.80945
                  21884146.7114                                   21884141.2074
                                                                        48.2504
        34.5004
   -620678.58647   -471536.89144
                  23918588.0784                                   23918585.6644
                                                                        43.0004
        27.7504
    334746.75847    276190.80145
                  22947082.6094                                   22947080.3484
                                                                        45.0004
        30.5004
    167071.78546    141513.54744
                  24002890.2584                                   24002886.5354
                                                                        40.0004
        25.5004
 09 10 14 23 23 30.0000000  0  9G02G04G12G13G29G23G10G30G31
  -2290651.18748  -1743726.55947
                  20662923.2424                                   20662918.4614
                                                                        52.2504
        42.7504
     97115.50048     90856.40246
                  20882255.9844                                   20882253.3594
                                                                        52.5004
        41.0004
   1472625.25047   1148440.70744
                  24246777.7344                                   24246774.7974
                                                                        43.0004
        26.2504
  -2884262.46948  -2201868.66845
                  21706670.1484                                   21706666.3054
                                                                        50.0004
        35.0004
  -2186376.05147  -1662360.39844
                  24040089.7974                                   24040087.2344
                                                                        42.5004
        27.0004
   -569859.36348   -419243.19545
                  21871818.8524                                   21871813.7704
                                                                        49.2504
        34.5004
   -828114.85947   -633175.46944
                  23879113.7504                                   23879111.4964
                                                                        42.2504
        26.5004
    300833.48847    249764.84444
                  22940628.9144                                   22940626.7664
                                                                        45.7504
        29.0004
    125867.59846    109406.39844
                  23995048.6094                                   23995045.4224
                                                                        41.5004
        26.0004
 09 10 14 23 24  0.0000000  0  9G02G04G12G13G29G23G10G30G31
  -2417988.34448  -1842950.39146
                  20638692.0314                                   20638686.9534
                                                                        51.2504
        41.7504
     55594.30148     58502.10246
                  20874354.6954                                   20874352.6134
                                                                        52.0004
        41.2504
   1477024.97747   1151869.06344
                  24247615.3134                                   24247612.1054
                                                                        44.0004
        27.0004
  -3032348.33248  -2317260.22745
                  21678490.6564                                   21678486.9024
                                                                        49.5004
        34.7504
  -2374233.89547  -1808743.23444
                  24004341.9844                                   24004339.0314
                                                                        42.0004
        25.2504
   -633821.65248   -469083.88345
                  21859647.4224                                   21859641.7934
                                                                        48.5004
        34.0004
  -1035183.96947   -794527.98444
                  23839709.7194                                   23839707.4964
                                                                        42.7504
        27.7504
    267699.16047    223945.83244
                  22934323.9454                                   22934321.4184
                                                                        46.5004
        29.2504
     85390.18047     77865.62144
                  23987346.6174                                   23987342.2974
                                                                        42.0004
        26.5004
 09 10 14 23 24 30.0000000  0  9G02G04G12G13G29G23G10G30G31
  -2544601.91848  -1941610.35247
                  20614597.9614                                   20614593.2464
                                                                        51.2504
        43.0004
     14775.43048     26695.36746
                  20866587.2504                                   20866584.2774
                                                                        52.0004
        41.0004
   1481905.78947   1155672.30144
                  24248544.0634                                   24248541.5044
                                                                        44.2504
        28.5004
  -3179657.79348  -2432046.80945
                  21650458.6564                                   21650454.7074
                                                                        49.7504
        34.7504
  -2561620.06646  -1954758.60544
                  23968683.0234                                   23968680.6564
                                                                        40.5004
        25.0004
   -696973.85248   -518293.35945
                  21847630.0554                                   21847624.3794
                                                                        48.5004
        34.5004
  -1241893.31647   -955600.14844
                  23800374.3834                                   23800372.2034
                                                                        43.7504
        26.2504
    235331.84047    198724.51244
                  22928164.3444                                   22928162.1564
                                                                        44.7504
        29.0004
     45628.08647     46882.14844
                  23979780.1174                                   23979776.1254
                                                                        42.0004
        25.7504
 09 10 14 23 25  0.0000000  0  9G02G04G12G13G29G23G10G30G31
  -2670495.75448  -2039709.46547
                  20590641.5234                                   20590636.2194
                                                                        51.0004
        42.2504
    -25348.13748     -4569.75046
                  20858951.8984                                   20858948.9104
                                                                        52.2504
        41.2504
   1487259.25847   1159843.78944
                  24249563.2584                                   24249560.0594
                                                                        43.5004
        28.5004
  -3326194.51248  -2546231.25045
                  21622573.7424                                   21622569.7464
                                                                        50.0004
        35.5004
  -2748537.02346  -2100408.23844
                  23933114.2584                                   23933112.4024
                                                                        40.7504
        26.5004
   -759322.35248   -566876.61745
                  21835765.4454                                   21835759.8094
                                                                        48.5004
        35.0004
  -1448246.53547  -1116394.83244
                  23761106.3674                                   23761104.0354
                                                                        43.7504
        27.0004
    203723.96947    174095.00044
                  22922149.4304                                   22922147.3054
                                                                        46.0004
        29.2504
      6574.34447     16450.62944
                  23972348.0164                                   23972344.7734
                                                                        42.0004
        26.2504
 09 10 14 23 25 30.0000000  0  9G02G04G12G13G29G23G10G30G31
  -2795674.59848  -2137251.50047
                  20566820.5864                                   20566815.5314
                                                                        52.0004
        42.5004
    -64783.96548    -35298.98046
                  20851447.5084                                   20851444.7814
                                                                        52.0004
        41.2504
   1493076.22347   1164376.47745
                  24250669.8134                                   24250667.6214
                                                                        43.2504
        30.0004
  -3471961.65648  -2659816.01645
                  21594835.1724                                   21594831.4304
                                                                        50.2504
        35.0004
  -2934988.28546  -2245695.00444
                  23897633.9774                                   23897632.1024
                                                                        41.2504
        27.2504
   -820873.82448   -614838.78145
                  21824052.0234                                   21824046.7664
                                                                        49.0004
        34.2504
  -1654247.02747  -1276914.65244
                  23721906.0394                                   23721903.4064
                                                                        43.2504
        26.7504
    172867.04347    150050.57044
                  22916278.2034                                   22916275.6414
                                                                        45.0004
        28.2504
    -31778.78946    -13434.96544
                  23965049.9614                                   23965046.4454
                                                                        41.0004
        27.5004
 09 10 14 23 26  0.0000000  0  9G02G04G12G13G29G23G10G30G31
  -2920143.61348  -2234240.34847
                  20543134.8594                                   20543129.9264
                                                                        51.7504
        42.7504
   -103539.64848    -65498.22746
                  20844072.6564                                   20844069.8164
                                                                        52.0004
        41.0004
   1499347.59447   1169263.21544
                  24251863.6024                                   24251860.7464
                                                                        42.0004
        27.0004
  -3616964.15648  -2772804.98045
                  21567241.9384                                   21567238.1954
                                                                        50.0004
        35.2504
  -3120977.38746  -2390621.59044
                  23862241.4224                                   23862239.7584
                                                                        41.5004
        27.7504
   -881636.07048   -662186.02345
                  21812489.6644                                   21812483.8284
                                                                        49.2504
        35.0004
  -1859899.17247  -1437163.05944
                  23682771.8834                                   23682769.1764
                                                                        43.2504
        26.7504
    142752.54747    126584.71144
                  22910547.3134                                   22910545.3444
                                                                        44.7504
        28.5004
    -69439.76247    -42781.20744
                  23957882.8914                                   23957879.8754
                                                                        42.0004
        28.2504
 09 10 14 23 26 30.0000000  0  9G02G04G12G13G29G23G10G30G31
  -3043907.96948  -2330680.10247
                  20519583.1254                                   20519578.2774
                                                                        51.5004
        42.5004
   -141623.05148    -95173.64546
                  20836825.9454                                   20836822.7114
                                                                        52.5004
        41.5004
   1506063.91047   1174496.62144
                  24253141.2974                                   24253138.6054
                                                                        42.0004
        27.0004
  -3761206.60248  -2885201.64845
                  21539793.6724                                   21539789.4494
                                                                        50.0004
        35.5004
  -3306508.81246  -2535191.48044
                  23826936.3054                                   23826934.1914
                                                                        40.5004
        28.0004
   -941616.74248   -708924.28545
                  21801075.6644                                   21801070.2974
                                                                        49.0004
        34.7504
  -2065207.37547  -1597143.46944
                  23643702.9454                                   23643699.8134
                                                                        43.0004
        25.0004
    113370.96147    103689.84044
                  22904956.1804                                   22904953.8444
                                                                        44.2504
        27.7504
   -106417.01647    -71594.66044
                  23950846.7814                                   23950843.8094
                                                                        42.2504
        27.2504
 09 10 14 23 27  0.0000000  0  9G02G04G12G13G29G23G10G30G31
  -3166971.26248  -2426573.55547
                  20496165.1804                                   20496160.3834
                                                                        51.5004
        42.5004
   -179040.24248   -124329.84846
                  20829705.2034                                   20829702.4734
                                                                        51.0004
        41.5004
   1513217.43447   1180070.75444
                  24254502.5004                                   24254500.0044
                                                                        42.7504
        27.2504
  -3904692.12148  -2997008.54345
                  21512489.2504                                   21512485.3634
                                                                        49.5004
        35.5004
  -3491584.72346  -2679406.49244
                  23791717.3594                                   23791715.4924
                                                                        41.2504
        28.2504
  -1000821.22748   -755057.58645
                  21789809.4694                                   21789804.0204
                                                                        48.7504
        35.0004
  -2270173.96147  -1756857.66044
                  23604698.5704                                   23604696.3204
                                                                        42.5004
        27.5004
     84715.20347     81360.48444
                  22899503.5314                                   22899500.7344
                                                                        43.7504
        28.2504
   -142717.04746    -99880.37944
                  23943939.1484                                   23943935.9144
                                                                        41.5004
        27.5004
 09 10 14 23 27 30.0000000  0  9G02G04G12G13G29G23G10G30G31
  -1713917.84848  -1294324.07447
                  20772671.8134                                   20772667.0204
                                                                        51.5004
        42.7504
   1359618.67648   1074625.12146
                  21122502.6804                                   21122500.1094
                                                                        52.0004
        41.2504
   3096215.26647   2413575.57444
                  24555737.3204                                   24555733.9384
                                                                        44.2504
        27.5004
  -2472003.24648  -1880627.59045
                  21785120.9924                                   21785116.9884
                                                                        50.0004
        35.5004
  -2100786.22346  -1595667.45344
                  24056377.7034                                   24056375.2304
                                                                        41.2504
        27.5004
    516161.21948    427006.69145
                  22078481.6254                                   22078476.2544
                                                                        48.2504
        34.0004
   -899379.16447   -688705.79344
                  23865552.5394                                   23865549.9414
                                                                        43.0004
        29.5004
   1632194.62147   1287188.52344
                  23193978.8984                                   23193977.0314
                                                                        44.5004
        29.7504
   1397069.68047   1099953.44944
                  24236950.8984                                   24236947.6684
                                                                        42.2504
        27.0004
 09 10 14 23 28  0.0000000  0  9G02G04G12G13G29G23G10G30G31
  -1835599.32048  -1389140.73447
                  20749516.8984                                   20749511.9844
                                                                        51.2504
        42.5004
   1323505.53948   1046485.05946
                  21115630.0864                                   21115627.1374
                                                                        52.0004
        41.5004
   3104210.39147   2419805.55144
                  24557259.1884                                   24557255.2504
                                                                        45.5004
        28.0004
  -2613992.43448  -1991268.50045
                  21758101.0314                                   21758097.4614
                                                                        50.0004
        35.7504
  -2284967.40246  -1739185.14544
                  24021328.5944                                   24021326.4414
                                                                        40.0004
        26.0004
    458480.94148    382060.98845
                  22067505.5314                                   22067499.7704
                                                                        49.2504
        34.2504
  -1103679.29747   -847900.65244
                  23826675.4304                                   23826673.6484
                                                                        42.2504
        28.2504
   1604960.23447   1265966.92244
                  23188796.1644                                   23188794.4064
                                                                        43.7504
        26.5004
   1362094.22747   1072699.83244
                  24230295.4384                                   24230291.4264
                                                                        42.0004
        27.5004
 09 10 14 23 28 30.0000000  0  9G02G04G12G13G29G23G10G30G31
  -1956592.99248  -1483421.49647
                  20726492.3054                                   20726487.4614
                                                                        51.2504
        42.5004
   1288037.10248   1018847.31646
                  21108880.6804                                   21108877.9494
                                                                        51.2504
        41.2504
   3112617.09047   2426356.21944
                  24558858.7194                                   24558855.0664
                                                                        44.0004
        26.5004
  -2755235.62548  -2101328.12145
                  21731223.3204                                   21731219.9804
                                                                        50.0004
        35.5004
  -2468702.15246  -1882354.92244
                  23986364.6414                                   23986362.1994
                                                                        40.5004
        25.0004
    401556.00448    337703.79745
                  22056673.3284                                   22056667.8484
                                                                        48.0004
        34.7504
  -1307648.17646  -1006837.35244
                  23787861.2274                                   23787858.6094
                                                                        41.5004
        27.0004
   1578427.68847   1245292.18844
                  23183747.3204                                   23183745.2274
                                                                        43.7504
        27.7504
   1327773.21947   1045956.14844
                  24223763.9384                                   24223760.4534
                                                                        42.2504
        27.5004
 09 10 14 23 29  0.0000000  0  9G02G04G12G13G29G23G10G30G31
  -2076903.28948  -1577169.76247
                  20703597.9144                                   20703593.0514
                                                                        51.0004
        43.0004
   1253206.50048    991706.57046
                  21102252.8914                                   21102250.0004
                                                                        52.0004
        40.7504
   3121426.78546   2433220.90644
                  24560534.4224                                   24560531.5084
                                                                        41.5004
        26.0004
  -2895736.51648  -2210809.32045
                  21704486.7344                                   21704483.1604
                                                                        50.0004
        35.2504
  -2651993.86346  -2025179.46544
                  23951485.7974                                   23951483.1914
                                                                        40.5004
        26.2504
    345380.09848    293930.34445
                  22045983.5084                                   22045978.3954
                                                                        48.7504
        34.7504
  -1511289.31247  -1165518.68744
                  23749109.7814                                   23749106.8054
                                                                        42.0004
        26.5004
   1552588.68447   1225157.71144
                  23178830.7584                                   23178828.4654
                                                                        43.7504
        29.0004
   1294099.34847   1019716.70344
                  24217355.9614                                   24217352.6804
                                                                        42.2504
        25.2504
 09 10 14 23 29 30.0000000  0  9G02G04G12G13G29G23G10G30G31
  -2196532.90648  -1670387.66447
                  20680833.5474                                   20680828.4574
                                                                        51.5004
        42.7504
   1219008.69148    965058.94946
                  21095745.0394                                   21095742.5274
                                                                        52.0004
        40.5004
   3130632.55947   2440394.13344
                  24562287.0474                                   24562284.5514
                                                                        42.0004
        27.2504
  -3035497.00048  -2319713.59045
                  21677891.5394                                   21677888.0084
                                                                        51.0004
        35.5004
  -2834844.18046  -2167660.19144
                  23916690.2194                                   23916688.6134
                                                                        41.7504
        27.5004
    289948.49248    250736.88345
                  22035434.9454                                   22035429.5474
                                                                        48.7504
        34.0004
  -1714604.25447  -1323945.87544
                  23710419.8594                                   23710417.3094
                                                                        43.0004
        28.5004
   1527437.30947   1205559.16444
                  23174044.5864                                   23174042.3984
                                                                        44.5004
        29.2504
   1261066.71146    993977.00844
                  24211070.8444                                   24211066.8594
                                                                        41.7504
        25.0004
 09 10 14 23 30  0.0000000  0  9G02G04G12G13G29G23G10G30G31
  -2315484.95748  -1763077.60947
                  20658197.3834                                   20658192.7814
                                                                        51.5004
        42.5004
   1185437.47748    938899.58246
                  21089356.5704                                   21089354.0824
                                                                        51.7504
        41.0004
   3140227.50446   2447870.70744
                  24564112.2114                                   24564109.6604
                                                                        40.7504
        27.5004
  -3174519.85548  -2428043.07446
                  21651436.2194                                   21651432.6604
                                                                        50.2504
        36.0004
  -3017254.08247  -2309797.68444
                  23881978.3914                                   23881976.9264
                                                                        42.0004
        28.5004
    235254.52348    208118.18045
                  22025027.3524                                   22025021.8164
                                                                        49.2504
        34.5004
  -1917595.02747  -1482120.46144
                  23671792.4534                                   23671789.6564
                                                                        44.2504
        27.5004
   1502966.52747   1186490.93844
                  23169388.1334                                   23169385.8914
                                                                        45.7504
        27.5004
   1228668.93446    968731.97344
                  24204904.9614                                   24204901.4024
                                                                        41.5004
        25.7504
 09 10 14 23 30 30.0000000  0  9G02G04G12G13G29G23G10G30G31
  -2433759.29348  -1855239.45347
                  20635690.6884                                   20635685.9104
                                                                        52.2504
        42.7504
   1152490.57848    913226.61746
                  21083087.1334                                   21083084.2584
                                                                        52.5004
        40.5004
   3150207.35546   2455647.18044
                  24566012.0554                                   24566008.6294
                                                                        41.2504
        27.0004
  -3312804.31248  -2535797.19545
                  21625121.6804                                   21625117.9304
                                                                        50.2504
        35.5004
  -3199222.79347  -2451591.50445
                  23847351.6804                                   23847349.6684
                                                                        43.2504
        30.0004
    181296.50448    166072.98845
                  22014758.9614                                   22014753.7584
                                                                        49.0004
        33.5004
  -2120260.48047  -1640041.56644
                  23633226.7114                                   23633223.6844
                                                                        44.0004
        28.5004
   1479172.64847   1167950.07044
                  23164860.6484                                   23164858.4844
                                                                        46.0004
        28.0004
   1196902.87946    943979.18443
                  24198860.3984                                   24198857.0704
                                                                        40.5004
        23.7504
 09 10 14 23 31  0.0000000  0  9G02G04G12G13G29G23G10G30G31
  -2551362.85948  -1946878.62947
                  20613311.5164                                   20613306.9024
                                                                        52.2504
        42.7504
   1120158.50848    888032.82446
                  21076934.7504                                   21076931.6294
                                                                        52.0004
        40.7504
   3160560.95747   2463714.89844
                  24567981.9304                                   24567978.9654
                                                                        42.0004
        27.5004
  -3450356.51648  -2642980.73046
                  21598946.1644                                   21598942.4024
                                                                        51.0004
        36.2504
  -3380755.35547  -2593045.39144
                  23812806.8984                                   23812805.1844
                                                                        44.0004
        29.5004
    128065.17248    124594.05545
                  22004629.3134                                   22004623.6954
                                                                        48.5004
        33.0004
  -2322606.27047  -1797713.55544
                  23594720.5314                                   23594718.8794
                                                                        43.2504
        29.0004
   1456045.91047   1149929.21144
                  23160459.7734                                   23160457.6334
                                                                        45.5004
        27.0004
   1165758.59446    919710.89544
                  24192933.6334                                   24192930.1214
                                                                        40.7504
        24.2504
 09 10 14 23 31 30.0000000  0  8G02G04G13G29G23G10G30G31
  -2668294.02748  -2037993.78547
                  20591060.3524                                   20591055.0594
                                                                        52.5004
        42.7504
   1088439.96148    863317.09046
                  21070898.6254                                   21070895.7424
                                                                        52.5004
        40.2504
  -3587174.41848  -2749592.07845
                  21572911.0394                                   21572906.7504
                                                                        50.5004
        35.5004
  -3561849.12947  -2734157.47344
                  23778345.2034                                   23778343.8364
                                                                        42.5004
        29.0004
     75559.41448     83680.49645
                  21994637.8914                                   21994632.1914
                                                                        48.7504
        34.0004
  -2524630.14547  -1955134.73044
                  23556277.2424                                   23556275.0314
                                                                        44.0004
        29.5004
   1433583.84447   1132426.34844
                  23156185.0474                                   23156183.2074
                                                                        43.7504
        27.7504
   1135234.44946    895925.83243
                  24187124.3524                                   24187121.6604
                                                                        39.2504
        23.5004
 09 10 14 23 32  0.0000000  0  8G02G04G13G29G23G10G30G31
  -2784558.68448  -2128589.66447
                  20568935.9454                                   20568930.7464
                                                                        52.2504
        43.0004
   1057326.85248    839073.11746
                  21064978.0554                                   21064975.2664
                                                                        52.0004
        40.7504
  -3723263.07848  -2855635.18745
                  21547013.5704                                   21547010.2584
                                                                        50.0004
        35.5004
  -3742508.23447  -2874930.78944
                  23743968.1094                                   23743965.3984
                                                                        43.0004
        26.7504
     23771.27348     43326.10545
                  21984782.9844                                   21984777.8014
                                                                        48.5004
        34.0004
  -2726336.33647  -2112308.34444
                  23517893.6954                                   23517891.8914
                                                                        43.5004
        29.5004
   1411776.57847   1115433.71144
                  23152035.2504                                   23152032.8874
                                                                        45.0004
        29.2504
   1105321.73446    872617.24244
                  24181432.7344                                   24181429.9734
                                                                        39.5004
        25.0004
 09 10 14 23 32 30.0000000  0  8G02G04G13G29G23G10G30G31
  -2900154.30548  -2218664.19547
                  20546938.8754                                   20546933.8794
                                                                        52.0004
        43.2504
   1026818.74648    815300.59046
                  21059172.8984                                   21059169.9414
                                                                        53.0004
        40.7504
  -3858619.49648  -2961107.71945
                  21521256.7114                                   21521252.5744
                                                                        51.2504
        35.7504
  -3922729.00447  -3015362.52344
                  23709672.2504                                   23709670.1914
                                                                        43.2504
        27.0004
    -27299.33248      3530.82445
                  21975064.8134                                   21975059.1334
                                                                        49.0004
        34.0004
  -2927721.58647  -2269231.85944
                  23479571.6564                                   23479568.9494
                                                                        44.2504
        28.7504
   1390623.14547   1098950.59044
                  23148010.0314                                   23148007.8444
                                                                        45.2504
        28.5004
   1076019.35247    849784.23844
                  24175857.4304                                   24175852.9104
                                                                        43.0004
        26.0004
 09 10 14 23 33  0.0000000  0  8G02G04G13G29G23G10G30G31
  -3015083.11748  -2308219.10247
                  20525068.7034                                   20525063.7114
                                                                        52.2504
        42.7504
    996910.60548    791995.56646
                  21053481.2034                                   21053478.4454
                                                                        52.7504
        40.7504
  -3993245.70348  -3066011.28146
                  21495637.8134                                   21495633.9694
                                                                        50.7504
        36.0004
  -4102512.06247  -3155453.13344
                  23675461.1484                                   23675458.3874
                                                                        44.7504
        29.2504
    -77657.49248    -35709.34045
                  21965481.9224                                   21965476.7704
                                                                        48.5004
        34.5004
  -3128787.26247  -2425906.41044
                  23441310.6954                                   23441306.7304
                                                                        43.0004
        28.5004
   1370116.66047   1082971.41844
                  23144107.4534                                   23144105.5554
                                                                        45.0004
        28.0004
   1047321.79747    827422.50444
                  24170396.6254                                   24170392.5234
                                                                        42.5004
        26.0004
 09 10 14 23 33 30.0000000  0  8G02G04G13G29G23G10G30G31
  -3129349.30148  -2397257.64847
                  20503324.2424                                   20503319.3484
                                                                        52.7504
        42.7504
    967595.96148    769152.97746
                  21047902.8594                                   21047900.1644
                                                                        52.2504
        41.0004
  -4127144.96548  -3170348.38346
                  21470157.7274                                   21470153.8914
                                                                        50.5004
        36.0004
  -4281860.16847  -3295204.81644
                  23641332.8984                                   23641329.7344
                                                                        46.0004
        28.0004
   -127309.38748    -74399.15645
                  21956033.4304                                   21956028.0744
                                                                        49.0004
        34.2504
  -3329535.83247  -2582333.82444
                  23403108.3674                                   23403105.7344
                                                                        42.7504
        27.7504
   1350250.70347   1067491.53544
                  23140327.0164                                   23140325.4804
                                                                        44.2504
        27.5004
   1019222.31347    805526.78144
                  24165048.7424                                   24165045.4264
                                                                        43.5004
        26.0004
 09 10 14 23 34  0.0000000  0  9G02G04G05G13G29G23G10G30G31
  -3242956.18748  -2485782.40647
                  20481705.6094                                   20481700.7584
                                                                        52.2504
        43.2504
    938868.91048    746768.27746
                  21042436.0314                                   21042433.5044
                                                                        52.0004
        40.7504
   2851702.62157   2234722.80154
                  24245598.5394                                   24245595.7774
                                                                        42.0004
        26.0004
  -4260320.00048  -3274121.09446
                  21444815.4614                                   21444811.7074
                                                                        51.5004
        36.0004
  -4460775.15247  -3434619.04744
                  23607285.9844                                   23607283.1994
                                                                        45.0004
        29.5004
   -176260.65648   -112543.04745
                  21946718.1254                                   21946712.8594
                                                                        49.2504
        34.2504
  -3529969.50847  -2738515.87544
                  23364967.7344                                   23364964.5164
                                                                        42.5004
        29.5004
   1331017.89547   1052505.00444
                  23136666.9694                                   23136665.5474
                                                                        44.0004
        28.5004
    991714.39547    784092.05144
                  24159814.6024                                   24159810.9534
                                                                        42.2504
        26.5004
 09 10 14 23 34 30.0000000  0  9G02G04G05G13G29G23G10G30G31
  -3355912.60948  -2573800.37947
                  20460210.5314                                   20460205.5744
                                                                        52.7504
        42.7504
    910718.04348    724832.60946
                  21037079.4844                                   21037076.4964
                                                                        53.0004
        41.0004
   2649811.16446   2077404.87144
                  24207179.5944                                   24207177.5864
                                                                        39.7504
        26.7504
  -4392778.84048  -3377335.74646
                  21419609.1414                                   21419605.4694
                                                                        50.5004
        36.2504
  -4639264.16447  -3573701.36345
                  23573320.9064                                   23573318.0204
                                                                        44.7504
        30.2504
   -224522.53148   -150149.73445
                  21937534.3284                                   21937528.6884
                                                                        48.7504
        33.5004
  -3730096.30147  -2894458.80144
                  23326884.5474                                   23326881.4804
                                                                        42.2504
        29.0004
   1312404.85947   1038001.29344
                  23133125.2974                                   23133122.9304
                                                                        43.5004
        26.7504
    964785.87547    763108.79744
                  24154690.0004                                   24154686.3914
                                                                        42.0004
        26.2504
 09 10 14 23 35  0.0000000  0  9G02G04G05G13G29G23G10G30G31
  -3468226.46148  -2661317.61747
                  20438838.0004                                   20438832.8444
                                                                        52.5004
        43.0004
    883132.71548    703337.53146
                  21031829.8364                                   21031827.0554
                                                                        52.2504
        40.7504
   2448134.12147   1920254.02344
                  24168802.3754                                   24168799.8524
                                                                        43.0004
        28.5004
  -4524528.93748  -3479998.17646
                  21394537.9694                                   21394534.5234
                                                                        51.2504
        36.0004
  -4817334.16447  -3712457.27044
                  23539434.7504                                   23539432.4104
                                                                        43.7504
        28.7504
   -272105.64148   -187227.53145
                  21928479.9844                                   21928474.2274
                                                                        49.2504
        33.5004
  -3929922.55546  -3050167.51644
                  23288858.6954                                   23288855.9884
                                                                        41.7504
        27.7504
   1294400.95747   1023972.38744
                  23129699.0004                                   23129697.4654
                                                                        43.5004
        26.5004
    938425.55947    742568.28944
                  24149674.0704                                   24149670.3134
                                                                        42.5004
        27.5004
 09 10 14 23 35 30.0000000  0  9G02G04G05G13G29G23G10G30G31
  -3579897.26648  -2748333.79347
                  20417587.7114                                   20417582.5124
                                                                        52.2504
        42.7504
    856111.07848    682281.72346
                  21026687.9224                                   21026685.1954
                                                                        53.0004
        40.5004
   2246672.87547   1763271.28144
                  24130466.2584                                   24130462.7894
                                                                        44.5004
        28.5004
  -4655569.26248  -3582107.59046
                  21369601.7584                                   21369598.1644
                                                                        50.5004
        36.2504
  -4994982.54347  -3850884.52745
                  23505629.2274                                   23505627.3484
                                                                        44.0004
        30.0004
   -319011.72748   -223777.75445
                  21919553.7734                                   21919548.1294
                                                                        49.7504
        34.0004
  -4129446.83647  -3205640.95744
                  23250890.5234                                   23250887.9414
                                                                        42.7504
        29.5004
   1277002.93047   1010415.64544
                  23126388.6564                                   23126386.0984
                                                                        44.2504
        27.5004
    912630.99646    722468.62544
                  24144765.5554                                   24144762.1954
                                                                        41.2504
        26.5004
 09 10 14 23 36  0.0000000  0  9G02G04G05G13G29G23G10G30G31
  -3690923.14548  -2834847.41447
                  20396460.0634                                   20396454.7894
                                                                        52.5004
        43.0004
    829652.00848    661664.25846
                  21021652.7194                                   21021650.2274
                                                                        52.7504
        40.7504
   2045429.80947   1606458.52344
                  24092170.2894                                   24092167.1054
                                                                        44.5004
        29.2504
  -4785897.64848  -3683662.23446
                  21344800.9534                                   21344797.8324
                                                                        51.0004
        36.0004
  -5172206.57847  -3988981.23445
                  23471905.1564                                   23471902.4454
                                                                        44.2504
        30.2504
   -365241.61748   -259801.04745
                  21910756.7114                                   21910751.0514
                                                                        49.2504
        34.0004
  -4328666.21547  -3360876.82045
                  23212980.4224                                   23212977.8244
                                                                        43.5004
        30.0004
   1260208.52747    997329.17244
                  23123192.5084                                   23123190.2544
                                                                        44.2504
        27.5004
    887400.84446    702808.75844
                  24139963.5864                                   24139960.8204
                                                                        41.2504
        25.7504
 09 10 14 23 36 30.0000000  0  9G02G04G05G13G29G23G10G30G31
  -2225879.16048  -1693254.62547
                  20675248.7424                                   20675243.5234
                                                                        52.5004
        43.0004
   2379175.41048   1869085.13346
                  21316517.4224                                   21316514.7544
                                                                        52.7504
        40.5004
   3419834.19147   2677422.98844
                  24353709.8754                                   24353707.2734
                                                                        42.5004
        27.5004
  -3340087.77748  -2557057.18046
                  21619929.7814                                   21619926.1454
                                                                        51.7504
        36.5004
  -3773576.68747  -2899139.66844
                  23738054.9844                                   23738052.8054
                                                                        44.2504
        28.0004
   1164625.22748    932302.96545
                  22201880.6334                                   22201874.6604
                                                                        50.0004
        33.5004
  -2952151.22347  -2288267.71144
                  23474922.3204                                   23474919.3874
                                                                        43.2504
        29.5004
   2819436.05947   2212311.85244
                  23419903.6484                                   23419900.9654
                                                                        45.0004
        28.0004
   2438153.81346   1911187.68843
                  24435062.4774                                   24435059.2704
                                                                        41.7504
        23.7504
 09 10 14 23 37  0.0000000  0  9G02G04G05G13G29G23G10G30G31
  -2335610.45348  -1778759.38347
                  20654367.4694                                   20654362.0824
                                                                        52.7504
        43.2504
   2353839.00848   1849342.49646
                  21311695.8364                                   21311693.1564
                                                                        52.0004
        40.7504
   3219035.58646   2520956.59444
                  24315499.9534                                   24315496.9654
                                                                        41.7504
        27.5004
  -3468985.39848  -2657496.90245
                  21595401.1804                                   21595397.6844
                                                                        51.5004
        35.7504
  -3949941.78547  -3036566.98444
                  23704494.3834                                   23704491.8364
                                                                        44.5004
        29.5004
   1119745.10948    897331.40245
                  22193340.1804                                   22193334.6294
                                                                        49.0004
        33.0004
  -3150751.71147  -2443021.32044
                  23437129.9064                                   23437127.1374
                                                                        43.0004
        29.5004
   2803842.69547   2200161.35544
                  23416935.7664                                   23416933.4264
                                                                        45.2504
        27.0004
   2414047.61746   1892403.64544
                  24430475.0314                                   24430472.3054
                                                                        40.0004
        25.7504
 09 10 14 23 37 30.0000000  0  9G02G04G05G13G29G23G10G30G31
  -2444693.07848  -1863758.66047
                  20633609.4384                                   20633603.9844
                                                                        52.5004
        43.0004
   2329061.15248   1830035.06346
                  21306980.9064                                   21306978.3284
                                                                        51.2504
        40.0004
   3018462.00847   2364665.48844
                  24277332.1644                                   24277329.2664
                                                                        42.5004
        28.5004
  -3597165.83648  -2757377.75846
                  21571009.5234                                   21571006.0314
                                                                        51.2504
        36.2504
  -4125873.93447  -3173656.92645
                  23671016.1094                                   23671012.5664
                                                                        44.7504
        30.0004
   1075537.53948    862883.88745
                  22184927.9064                                   22184922.2234
                                                                        49.5004
        33.5004
  -3349040.21947  -2597531.82845
                  23399396.2114                                   23399394.3444
                                                                        45.0004
        30.0004
   2788845.64147   2188475.53144
                  23414081.9064                                   23414079.3954
                                                                        45.0004
        26.5004
   2390500.01246   1874054.85244
                  24425994.6644                                   24425991.1024
                                                                        39.2504
        25.2504
 09 10 14 23 38  0.0000000  0  9G02G04G05G13G29G23G10G30G31
  -2553128.68448  -1948253.91047
                  20612974.8054                                   20612969.9144
                                                                        52.5004
        43.0004
   2304838.16048   1811159.97746
                  21302371.5234                                   21302368.6414
                                                                        51.5004
        40.5004
   2818113.38347   2208549.74644
                  24239206.6414                                   24239204.2934
                                                                        42.0004
        28.5004
  -3724629.58248  -2856700.14846
                  21546753.6884                                   21546750.5124
                                                                        50.7504
        36.5004
  -4301372.84847  -3310409.38744
                  23637619.2734                                   23637616.7814
                                                                        44.7504
        29.0004
   1031998.73848    828957.45745
                  22176642.6804                                   22176637.5434
                                                                        49.2504
        34.0004
  -3547015.94947  -2751798.59445
                  23361723.2424                                   23361720.8874
                                                                        45.7504
        30.5004
   2774439.62147   2177250.11744
                  23411340.6024                                   23411337.9804
                                                                        44.5004
        26.2504
   2367506.60946   1856137.93044
                  24421618.9924                                   24421615.4804
                                                                        39.0004
        25.5004
 09 10 14 23 38 30.0000000  0  9G02G04G05G13G29G23G10G30G31
  -2660918.88748  -2032246.26247
                  20592463.0864                                   20592458.0824
                                                                        52.5004
        43.2504
   2281165.59048   1792713.80946
                  21297866.6174                                   21297864.1684
                                                                        51.7504
        40.2504
   2617988.67246   2052608.45744
                  24201124.2814                                   24201121.8634
                                                                        41.2504
        29.5004
  -3851378.04348  -2955465.16446
                  21522634.2424                                   21522631.0084
                                                                        51.2504
        36.5004
  -4476438.75447  -3446824.42644
                  23604305.5474                                   23604302.6174
                                                                        44.0004
        29.2504
    989124.50848    795548.94145
                  22168484.3984                                   22168479.0234
                                                                        48.7504
        33.0004
  -3744679.57047  -2905822.18745
                  23324109.2194                                   23324106.9534
                                                                        45.7504
        31.2504
   2760619.70347   2166481.40244
                  23408710.7344                                   23408708.4304
                                                                        44.0004
        27.0004
   2345062.29746   1838648.85943
                  24417348.2504                                   24417344.2304
                                                                        41.5004
        22.7504
 09 10 14 23 39  0.0000000  0  9G02G04G05G13G29G23G10G30G31
  -2768065.44948  -2115737.05147
                  20572073.8444                                   20572069.0474
                                                                        52.5004
        43.0004
   2258039.29348   1774693.29746
                  21293466.0704                                   21293462.9184
                                                                        51.7504
        40.2504
   2418087.00446   1896840.94544
                  24163084.3134                                   24163081.4844
                                                                        41.2504
        29.0004
  -3977412.30148  -3053673.69946
                  21498650.7504                                   21498647.2304
                                                                        51.7504
        36.7504
  -4651071.62147  -3582901.97344
                  23571073.0704                                   23571071.3874
                                                                        43.0004
        29.0004
    946910.43848    762654.87145
                  22160450.7504                                   22160445.8594
                                                                        48.2504
        33.0004
  -3942031.28147  -3059602.71545
                  23286554.1804                                   23286552.0594
                                                                        44.7504
        30.0004
   2747380.19947   2156164.95344
                  23406191.1804                                   23406189.0434
                                                                        43.2504
        27.5004
   2323162.42246   1821584.06343
                  24413180.9304                                   24413176.3754
                                                                        41.2504
        22.0004
 09 10 14 23 39 30.0000000  0  9G02G04G05G13G29G23G10G30G31
  -2874570.39148  -2198727.89847
                  20551806.5704                                   20551801.3874
                                                                        52.2504
        43.2504
   2235454.37948   1757094.65646
                  21289168.1024                                   21289165.2304
                                                                        51.5004
        40.0004
   2218407.65247   1741246.68844
                  24125086.4614                                   24125083.6524
                                                                        42.0004
        29.5004
  -4102734.21548  -3151327.06246
                  21474803.0004                                   21474799.4224
                                                                        50.7504
        36.5004
  -4825272.40647  -3718642.94545
                  23537924.6564                                   23537922.3914
                                                                        43.0004
        30.5004
    905351.91448    730271.57445
                  22152542.5944                                   22152537.5784
                                                                        49.0004
        33.2504
  -4139072.59047  -3213141.40244
                  23249058.4774                                   23249055.2934
                                                                        43.5004
        29.0004
   2734715.02347   2146296.03544
                  23403781.1024                                   23403779.2664
                                                                        42.5004
        26.7504
   2301801.52346   1804939.27043
                  24409116.0084                                   24409111.6844
                                                                        40.5004
        22.5004
 09 10 14 23 40  0.0000000  0  9G02G04G05G13G29G23G10G30G31
  -2980433.06648  -2281218.29747
                  20531661.8134                                   20531656.2664
                                                                        52.5004
        42.7504
   2213409.21948   1739916.62946
                  21284973.0394                                   21284970.2774
                                                                        52.0004
        40.2504
   2018952.32047   1585826.98445
                  24087131.2664                                   24087128.9414
                                                                        42.7504
        30.5004
  -4227342.60248  -3248424.44146
                  21451090.8364                                   21451086.7894
                                                                        51.0004
        36.7504
  -4999038.47347  -3854045.21545
                  23504857.8914                                   23504856.3204
                                                                        42.5004
        30.5004
    864447.10548    698397.61745
                  22144759.0234                                   22144753.6214
                                                                        49.2504
        33.0004
  -4335801.29347  -3366436.48444
                  23211622.6334                                   23211618.7854
                                                                        45.0004
        28.5004
   2722621.36347   2136872.44144
                  23401479.1174                                   23401478.0164
                                                                        42.0004
        27.5004
   2280977.27347   1788712.63344
                  24405153.1024                                   24405148.6954
                                                                        42.5004
        25.2504
 09 10 14 23 40 30.0000000  0  9G02G04G05G13G29G23G10G30G31
  -3085656.25848  -2363210.39547
                  20511638.4144                                   20511633.0984
                                                                        52.5004
        43.5004
   2191898.41048   1723154.96146
                  21280879.7344                                   21280876.6724
                                                                        51.5004
        40.5004
   1819719.45346   1430580.60544
                  24049218.4614                                   24049215.5434
                                                                        41.7504
        29.7504
  -4351239.58248  -3344967.51246
                  21427514.0164                                   21427510.3014
                                                                        51.2504
        36.0004
  -5172370.68747  -3989109.18045
                  23471873.8594                                   23471871.9494
                                                                        44.2504
        31.5004
    824190.94548    667029.16445
                  22137098.4534                                   22137093.4104
                                                                        49.2504
        33.0004
  -4532218.63347  -3519488.95344
                  23174245.4694                                   23174242.5354
                                                                        44.5004
        29.5004
   2711092.76247   2127889.16044
                  23399285.2664                                   23399283.9654
                                                                        42.7504
        27.5004
   2260683.76247   1772899.55144
                  24401291.5944                                   24401287.3324
                                                                        43.5004
        24.0004
 09 10 14 23 41  0.0000000  0  9G02G04G05G13G29G23G10G30G31
  -3190239.14548  -2444703.59047
                  20491737.0164                                   20491731.6294
                                                                        52.7504
        43.2504
   2170920.32448   1706808.42246
                  21276887.7584                                   21276885.1484
                                                                        51.5004
        40.7504
   1620710.99647   1275509.13344
                  24011348.1414                                   24011345.6764
                                                                        42.0004
        27.7504
  -4474423.98048  -3440955.34446
                  21404072.6484                                   21404069.0164
                                                                        50.7504
        36.7504
  -5345266.62147  -4123833.20745
                  23438972.8524                                   23438970.8094
                                                                        44.0004
        31.0004
    784581.69148    636164.75845
                  22129560.8524                                   22129555.8284
                                                                        49.0004
        33.0004
  -4728322.25047  -3672296.96145
                  23136927.7894                                   23136925.5824
                                                                        44.7504
        31.5004
   2700126.64147   2119344.13744
                  23397199.1884                                   23397197.2194
                                                                        44.0004
        26.2504
   2240918.84447   1757498.29344
                  24397530.0084                                   24397526.6764
                                                                        42.5004
        25.0004
 09 10 14 23 41 30.0000000  0  9G02G04G05G13G29G23G10G30G31
  -3294181.62148  -2525697.77347
                  20471957.1254                                   20471952.1914
                                                                        52.2504
        43.0004
   2150472.52748   1690875.09046
                  21272996.4694                                   21272993.8754
                                                                        51.5004
        40.2504
   1421928.17247   1120613.48044
                  23973521.6724                                   23973518.7114
                                                                        43.0004
        29.5004
  -4596895.14148  -3536387.38746
                  21380767.2504                                   21380763.0394
                                                                        50.7504
        36.2504
  -5517725.13347  -4258216.54345
                  23406155.0554                                   23406153.0784
                                                                        43.7504
        30.0004
    745616.58648    605802.20745
                  22122146.0164                                   22122141.1804
                                                                        48.7504
        32.2504
  -4924110.68747  -3824859.35545
                  23099670.9454                                   23099668.5474
                                                                        45.5004
        31.7504
   2689719.46147   2111234.65244
                  23395218.6484                                   23395216.6804
                                                                        44.0004
        28.2504
   2221679.46146   1742506.52344
                  24393868.2114                                   24393865.4614
                                                                        40.7504
        25.2504
 09 10 14 23 42  0.0000000  0  9G02G04G05G13G29G23G10G30G31
  -3397488.99648  -2606197.05547
                  20452298.4534                                   20452293.4964
                                                                        52.0004
        43.0004
   2130547.04748   1675348.77046
                  21269204.8914                                   21269202.1954
                                                                        51.5004
        40.0004
   1223366.62547    965890.23844
                  23935736.1804                                   23935733.4264
                                                                        42.7504
        28.2504
  -4718657.89548  -3631267.43046
                  21357596.6334                                   21357593.0004
                                                                        50.5004
        36.7504
  -5689749.47347  -4392261.52345
                  23373420.1094                                   23373417.6764
                                                                        43.5004
        30.5004
    707288.28948    575935.88345
                  22114852.8204                                   22114847.5274
                                                                        49.0004
        33.0004
  -5119588.02747  -3977179.34045
                  23062472.8984                                   23062470.1024
                                                                        43.2504
        31.5004
   2679861.74247   2103553.29344
                  23393343.2274                                   23393340.3554
                                                                        44.0004
        26.0004
   2202957.07046   1727917.61343
                  24390305.1644                                   24390303.1094
                                                                        39.7504
        23.7504
 09 10 14 23 42 30.0000000  0  9G02G04G05G13G29G23G10G30G31
  -3500159.57448  -2686200.10947
                  20432761.0084                                   20432755.7624
                                                                        52.0004
        43.0004
   2111143.14548   1660228.86346
                  21265512.5634                                   21265509.6134
                                                                        52.0004
        39.5004
   1025029.18847    811341.65645
                  23897993.8914                                   23897991.3674
                                                                        44.2504
        31.0004
  -4839710.41448  -3725594.04746
                  21334560.8674                                   21334556.9574
                                                                        50.2504
        36.2504
  -5861336.23847  -4525965.52044
                  23340768.2194                                   23340765.4304
                                                                        43.2504
        29.5004
    669596.01248    546565.25445
                  22107680.0944                                   22107674.5744
                                                                        49.5004
        33.5004
  -5314751.30547  -4129254.59845
                  23025334.6414                                   23025331.8954
                                                                        43.2504
        30.0004
   2670552.03947   2096299.07044
                  23391571.3914                                   23391568.8674
                                                                        42.5004
        26.2504
   2184750.36746   1713730.53144
                  24386841.2974                                   24386838.7814
                                                                        40.7504
        24.0004
 09 10 14 23 43  0.0000000  0  9G02G04G05G13G29G23G10G30G31
  -3602193.71948  -2765707.23847
                  20413344.4534                                   20413339.3834
                                                                        51.2504
        43.5004
   2092258.09448   1645513.23846
                  21261918.5314                                   21261915.5784
                                                                        51.5004
        39.0004
    826916.80947    656968.43445
                  23860294.1954                                   23860291.9104
                                                                        43.7504
        31.0004
  -4960052.34848  -3819366.96546
                  21311660.5554                                   21311656.8554
                                                                        51.0004
        36.0004
  -6032484.14847  -4659327.57444
                  23308199.7894                                   23308196.9924
                                                                        42.7504
        29.2504
    632536.92248    517688.02045
                  22100627.9774                                   22100622.4844
                                                                        49.0004
        33.2504
  -5509599.21547  -4281084.10244
                  22988255.6414                                   22988252.8094
                                                                        43.0004
        29.5004
   2661786.28547   2089468.68844
                  23389903.1254                                   23389900.4884
                                                                        43.0004
        24.7504
   2167055.58646   1699942.34444
                  24383473.8754                                   24383471.7034
                                                                        41.0004
        26.2504
 09 10 14 23 43 30.0000000  0  9G02G04G05G13G29G23G10G30G31
  -3703590.97348  -2844718.06647
                  20394049.1564                                   20394044.3014
                                                                        52.2504
        43.0004
   2073889.33648   1631199.93446
                  21258423.3054                                   21258420.4734
                                                                        51.5004
        39.7504
    629030.93847    502771.70745
                  23822638.0084                                   23822634.8244
                                                                        44.7504
        30.0004
  -5079683.30948  -3912585.88346
                  21288895.4064                                   21288891.8054
                                                                        51.0004
        36.5004
  -6203190.94147  -4792345.81644
                  23275715.1254                                   23275712.7934
                                                                        42.7504
        29.0004
    596108.57448    489302.35245
                  22093695.7034                                   22093690.1644
                                                                        49.0004
        33.0004
  -5704129.84047  -4432666.39545
                  22951238.1804                                   22951234.9184
                                                                        44.5004
        30.7504
   2653561.06647   2083059.60544
                  23388337.8524                                   23388334.9614
                                                                        42.5004
        25.7504
   2149870.28947   1686551.20344
                  24380204.3914                                   24380200.9734
                                                                        42.2504
        26.5004
 09 10 14 23 44  0.0000000  0  9G02G04G05G13G29G23G10G30G31
  -3804355.43048  -2923235.76247
                  20374874.4844                                   20374869.4384
                                                                        52.7504
        43.2504
   2056030.82848   1617284.19546
                  21255024.8134                                   21255022.2384
                                                                        51.2504
        40.2504
    431369.04747    348749.49245
                  23785024.1334                                   23785021.1254
                                                                        45.0004
        30.7504
  -5198606.30548  -4005253.12546
                  21266264.9844                                   21266261.5984
                                                                        50.5004
        37.0004
  -6373459.26247  -4925022.37545
                  23243313.8364                                   23243311.6724
                                                                        43.5004
        30.5004
    560304.53948    461403.07045
                  22086882.6024                                   22086877.1374
                                                                        48.7504
        32.2504
  -5898345.91847  -4584003.59045
                  22914280.0084                                   22914276.7384
                                                                        44.7504
        30.0004
   2645868.37147   2077065.25444
                  23386873.6484                                   23386871.0594
                                                                        42.2504
        26.0004
   2133187.32447   1673551.48444
                  24377029.5314                                   24377026.5204
                                                                        43.0004
        25.7504
 09 10 14 23 44 30.0000000  0  9G02G04G05G13G29G23G10G30G31
  -3904483.88748  -3001257.92647
                  20355820.7504                                   20355815.5824
                                                                        52.0004
        43.2504
   2038683.34048   1603766.66446
                  21251723.8364                                   21251720.7664
                                                                        51.2504
        39.7504
    233935.64847    194905.32844
                  23747453.4614                                   23747450.8754
                                                                        43.5004
        29.7504
  -5316817.76648  -4097365.93446
                  21243770.3444                                   21243766.6374
                                                                        50.5004
        37.5004
  -6543283.71947  -5057353.03545
                  23210997.4384                                   23210995.8984
                                                                        43.5004
        30.5004
    525125.61348    433990.93845
                  22080188.2734                                   22080182.9534
                                                                        48.5004
        32.2504
  -6092242.47747  -4735091.79745
                  22877382.7734                                   22877379.4144
                                                                        44.7504
        31.0004
   2638708.44946   2071486.06644
                  23385510.9384                                   23385508.7304
                                                                        41.2504
        26.0004
   2117007.04347   1660943.48844
                  24373950.5554                                   24373947.0864
                                                                        43.0004
        26.5004
 09 10 14 23 45  0.0000000  0  9G02G04G05G13G29G23G10G30G31
  -4003979.13748  -3078786.62947
                  20336887.3054                                   20336882.1994
                                                                        53.0004
        42.5004
   2021841.51648   1590643.17246
                  21248519.0394                                   21248516.6054
                                                                        51.0004
        40.2504
     36729.03147     41237.88744
                  23709926.0314                                   23709923.0634
                                                                        43.0004
        29.2504
  -5434320.32048  -4188926.38346
                  21221410.1884                                   21221406.5004
                                                                        50.2504
        36.5004
  -6712665.57447  -5189338.75845
                  23178765.5704                                   23178763.3594
                                                                        44.0004
        31.7504
    490566.34448    407061.62145
                  22073611.8364                                   22073606.3164
                                                                        49.2504
        33.2504
  -6285821.08247  -4885932.21945
                  22840545.8984                                   22840543.2464
                                                                        44.5004
        31.0004
   2632074.14147   2066316.44944
                  23384248.6884                                   23384246.7774
                                                                        42.2504
        27.0004
   2101323.05546   1648722.21144
                  24370966.1414                                   24370962.3404
                                                                        41.2504
        25.5004
 09 10 14 23 45 30.0000000  0  9G02G04G05G13G29G23G10G30G31
  -2527416.61448  -1928218.30847
                  20617867.7274                                   20617862.3244
                                                                        52.5004
        43.2504
   3580924.66948   2805513.14146
                  21545202.7584                                   21545199.9224
                                                                        51.2504
        40.0004
   1415178.08547   1115354.05845
                  23972236.3134                                   23972233.7114
                                                                        43.7504
        30.0004
  -3975688.36948  -3052330.05746
                  21498978.7344                                   21498974.9924
                                                                        50.7504
        37.0004
  -5306176.51347  -4093373.35345
                  23446411.6884                                   23446409.4184
                                                                        44.0004
        31.7504
   2032046.93448   1608215.39345
                  22366945.9924                                   22366940.3094
                                                                        49.0004
        32.5004
  -4903652.22847  -3808917.45745
                  23103563.7584                                   23103561.1214
                                                                        44.5004
        31.5004
   4201383.42947   3289154.83944
                  23682878.7584                                   23682876.3914
                                                                        42.2504
        27.2504
   3661554.41247   2864486.92343
                  24667867.9774                                   24667863.2704
                                                                        42.0004
        22.5004
 09 10 14 23 46  0.0000000  0  9G02G04G05G13G29G23G10G30G31
  -2625645.23448  -2004760.07047
                  20599175.4144                                   20599169.9144
                                                                        52.2504
        43.5004
   3565087.16048   2793172.22746
                  21542188.9224                                   21542186.0864
                                                                        51.0004
        39.5004
   1218429.05947    962043.14845
                  23934796.7584                                   23934793.4574
                                                                        44.5004
        30.7504
  -4091771.50448  -3142784.45346
                  21476888.8914                                   21476885.1174
                                                                        50.7504
        36.0004
  -5474667.84847  -4224665.35945
                  23414348.7114                                   23414346.4344
                                                                        43.5004
        31.2504
   1998720.05148   1582246.36345
                  22360603.9614                                   22360598.5004
                                                                        49.0004
        33.0004
  -5096589.95747  -3959258.47345
                  23066848.9304                                   23066846.2344
                                                                        45.0004
        31.5004
   4195790.71147   3284796.96944
                  23681814.4774                                   23681812.4184
                                                                        43.0004
        28.0004
   3646854.60546   2853032.59043
                  24665070.2114                                   24665066.1134
                                                                        41.5004
        22.0004
 09 10 14 23 46 30.0000000  0  9G02G04G05G13G29G23G10G30G31
  -2723243.05948  -2080810.29347
                  20580602.7504                                   20580597.6994
                                                                        52.0004
        43.0004
   3549745.64848   2781217.79746
                  21539269.4454                                   21539266.8014
                                                                        50.5004
        39.7504
   1021908.60547    808910.33245
                  23897400.1094                                   23897397.0314
                                                                        43.7504
        30.5004
  -4207146.71548  -3232687.21546
                  21454933.2664                                   21454929.9774
                                                                        51.0004
        37.0004
  -5642713.73447  -4355610.46545
                  23382370.0164                                   23382368.3094
                                                                        43.2504
        31.2504
   1966003.23048   1556752.69545
                  22354378.6254                                   22354372.8484
                                                                        48.7504
        32.7504
  -5289207.03547  -4109349.63745
                  23030194.9534                                   23030192.8554
                                                                        44.5004
        31.7504
   4190710.68846   3280838.53944
                  23680847.7664                                   23680845.7424
                                                                        41.5004
        26.5004
   3632639.88346   2841956.15243
                  24662365.2194                                   24662361.3444
                                                                        39.0004
        20.5004
 09 10 14 23 47  0.0000000  0  9G02G04G05G13G29G23G10G30G31
  -2820210.04348  -2156368.98847
                  20562150.8594                                   20562145.9534
                                                                        52.2504
        43.2504
   3534897.55548   2769647.84846
                  21536444.0084                                   21536441.1644
                                                                        50.0004
        40.0004
    825617.84447    655956.51245
                  23860047.0234                                   23860044.3554
                                                                        43.5004
        30.7504
  -4321813.72348  -3322038.12146
                  21433113.5314                                   21433109.9144
                                                                        51.2504
        37.2504
  -5810312.02747  -4486206.54345
                  23350477.9304                                   23350475.6844
                                                                        43.5004
        30.7504
   1933893.48848   1531732.04745
                  22348268.0234                                   22348262.8484
                                                                        48.7504
        33.5004
  -5481502.42647  -4259190.16845
                  22993602.2194                                   22993599.5664
                                                                        45.5004
        31.7504
   4186139.64147   3277276.75044
                  23679977.6804                                   23679975.3324
                                                                        42.2504
        26.7504
   3618907.30146   2831255.37943
                  24659752.2274                                   24659748.3754
                                                                        36.0004
        21.0004
 09 10 14 23 47 30.0000000  0  9G02G04G05G13G29G23G10G30G31
  -2916540.51248  -2231431.65647
                  20543819.7974                                   20543814.7704
                                                                        52.7504
        43.0004
   3520546.23048   2758464.98446
                  21533712.8984                                   21533710.0314
                                                                        50.0004
        39.2504
    629563.67646    503187.07445
                  23822739.1024                                   23822736.1054
                                                                        41.7504
        30.2504
  -4435766.68748  -3410832.64846
                  21411429.0084                                   21411424.9924
                                                                        51.0004
        36.7504
  -5977455.99247  -4616448.70745
                  23318670.9924                                   23318668.6484
                                                                        44.5004
        30.2504
   1902394.37148   1507187.18045
                  22342273.9224                                   22342268.9734
                                                                        49.0004
        32.7504
  -5673468.58647  -4408774.15645
                  22957073.1564                                   22957069.8834
                                                                        46.5004
        31.7504
   4182079.98447   3274113.49644
                  23679205.1094                                   23679202.7584
                                                                        42.7504
        25.7504
   3605659.27746   2820932.19943
                  24657231.0234                                   24657227.8714
                                                                        37.5004
        21.7504
 09 10 14 23 48  0.0000000  0  9G02G04G05G13G29G23G10G30G31
  -3012236.60248  -2305999.96547
                  20525609.2814                                   20525604.3674
                                                                        52.5004
        43.0004
   3506687.18048   2747665.71946
                  21531075.7424                                   21531072.7194
                                                                        50.7504
        39.5004
    433745.37947    350601.40645
                  23785476.0234                                   23785473.3054
                                                                        44.5004
        30.7504
  -4549007.14548  -3499071.99246
                  21389879.9304                                   21389876.1844
                                                                        50.7504
        36.5004
  -6144145.18047  -4746336.42645
                  23286951.0634                                   23286949.0434
                                                                        44.2504
        30.5004
   1871501.17248   1483114.55145
                  22336395.1094                                   22336390.3714
                                                                        48.0004
        31.5004
  -5865106.41447  -4558102.31645
                  22920605.2814                                   22920602.2154
                                                                        45.5004
        32.0004
   4178525.73447   3271344.12144
                  23678528.6804                                   23678525.7894
                                                                        42.5004
        26.0004
   3592890.46546   2810982.36343
                  24654801.1484                                   24654798.1174
                                                                        39.7504
        23.5004
 09 10 14 23 48 30.0000000  0  9G02G04G05G13G29G23G10G30G31
  -3107303.52048  -2380078.03147
                  20507518.5944                                   20507513.0124
                                                                        52.0004
        43.0004
   3493312.70348   2737244.05946
                  21528530.6414                                   21528527.7384
                                                                        50.0004
        39.5004
    238159.46547    198196.80545
                  23748257.5784                                   23748254.6484
                                                                        44.0004
        30.7504
  -4661539.78548  -3586759.73446
                  21368465.2894                                   21368461.8134
                                                                        50.5004
        36.7504
  -6310383.56247  -4875873.07045
                  23255317.2814                                   23255315.0704
                                                                        44.2504
        30.7504
   1841206.72348   1459508.63345
                  22330629.9144                                   22330625.2704
                                                                        48.7504
        33.5004
  -6056419.10947  -4707177.07045
                  22884199.1334                                   22884196.6214
                                                                        44.5004
        31.7504
   4175467.89847   3268961.46543
                  23677947.0474                                   23677943.9024
                                                                        42.0004
        23.7504
   3580593.16047   2801399.98044
                  24652461.9304                                   24652458.6564
                                                                        42.2504
        25.2504
 09 10 14 23 49  0.0000000  0 10G02G04G05G13G29G23G10G30G31G25
  -3201741.43048  -2453666.00047
                  20489547.7344                                   20489542.5784
                                                                        52.5004
        43.2504
   3480420.26648   2727197.99646
                  21526077.4774                                   21526074.5824
                                                                        50.7504
        39.2504
     42806.68847     45973.86745
                  23711082.5554                                   23711079.8204
                                                                        43.7504
        30.7504
  -4773364.79748  -3673896.10946
                  21347186.0234                                   21347182.3554
                                                                        51.0004
        36.7504
  -6476168.98847  -5005056.60945
                  23223769.5394                                   23223767.3594
                                                                        46.0004
        32.0004
   1811507.62548   1436366.50045
                  22324979.0474                                   22324973.4414
                                                                        49.0004
        32.7504
  -6247405.55547  -4855997.62945
                  22847855.4534                                   22847853.5164
                                                                        45.2504
        32.0004
   4172903.11746   3266963.01644
                  23677458.2584                                   23677455.5234
                                                                        41.2504
        25.0004
   3568763.66447   2792182.19944
                  24650211.1254                                   24650207.7074
                                                                        44.0004
        28.7504
   6042420.32856   4744780.06653
                  24239642.9774                                   24239640.4614
                                                                        39.5004
        20.2504
 09 10 14 23 49 30.0000000  0 10G02G04G05G13G29G23G10G30G31G25
  -3295555.84848  -2526768.14147
                  20471695.5554                                   20471690.0824
                                                                        52.5004
        43.0004
   3468002.12148   2717521.51246
                  21523714.1484                                   21523711.8524
                                                                        51.0004
        38.5004
   -152316.78147   -106070.34845
                  23673951.8754                                   23673949.5784
                                                                        44.5004
        31.5004
  -4884487.66048  -3760485.50046
                  21326039.9384                                   21326036.0824
                                                                        50.7504
        37.5004
  -6641504.90247  -5133889.75845
                  23192307.7114                                   23192305.5004
                                                                        45.7504
        31.7504
   1782396.16848   1413682.32845
                  22319438.4844                                   22319433.4024
                                                                        48.5004
        32.0004
  -6438069.40647  -5004566.82845
                  22811573.6644                                   22811570.9844
                                                                        46.2504
        33.0004
   4170822.12147   3265341.48443
                  23677062.7894                                   23677059.4064
                                                                        42.0004
        23.0004
   3557393.75847   2783322.54744
                  24648047.1884                                   24648044.0354
                                                                        43.0004
        27.7504
   5867845.61746   4608747.84443
                  24206422.5394                                   24206419.7734
                                                                        40.5004
        21.5004
 09 10 14 23 50  0.0000000  0  9G02G04G05G13G29G23G10G30G25
  -3388748.18048  -2599385.53547
                  20453961.6804                                   20453956.3674
                                                                        52.2504
        43.5004
   3456054.44148   2708211.62546
                  21521440.5554                                   21521437.9884
                                                                        50.5004
        38.7504
   -347210.93047   -257935.89545
                  23636864.9614                                   23636861.8204
                                                                        44.7504
        31.2504
  -4994908.88348  -3846528.24246
                  21305027.3364                                   21305023.9384
                                                                        51.2504
        36.5004
  -6806391.44147  -5262372.92645
                  23160930.3594                                   23160928.6214
                                                                        45.0004
        32.7504
   1753868.18447   1391452.73845
                  22314010.0704                                   22314004.1914
                                                                        47.7504
        32.0004
  -6628410.37547  -5152884.42645
                  22775352.8284                                   22775350.0204
                                                                        45.5004
        32.7504
   4169220.00447   3264093.02344
                  23676757.5084                                   23676754.6994
                                                                        42.7504
        25.0004
   5693603.10946   4472974.48844
                  24173265.6254                                   24173262.6484
                                                                        41.2504
        25.0004
 09 10 14 23 50 30.0000000  0  9G02G04G05G13G29G23G10G30G25
  -3481314.91448  -2671515.41847
                  20436346.5314                                   20436341.3954
                                                                        52.0004
        43.2504
   3444577.96148   2699268.90646
                  21519256.7584                                   21519253.4264
                                                                        50.5004
        38.5004
   -541870.87147   -409618.93745
                  23599822.4534                                   23599819.0864
                                                                        44.2504
        31.5004
  -5104624.84448  -3932021.26246
                  21284149.4774                                   21284145.8094
                                                                        51.0004
        36.5004
  -6970822.98047  -5390501.51645
                  23129640.3834                                   23129638.5044
                                                                        44.5004
        32.2504
   1725924.89848   1369678.78145
                  22308692.7814                                   22308687.4884
                                                                        48.5004
        32.2504
  -6818423.44947  -5300946.51645
                  22739194.7034                                   22739191.4414
                                                                        45.7504
        31.0004
   4168096.33247   3263217.34444
                  23676544.2734                                   23676541.4384
                                                                        43.0004
        26.0004
   5519698.31647   4337464.30944
                  24140171.5474                                   24140169.7544
                                                                        42.0004
        25.2504
 09 10 14 23 51  0.0000000  0  9G02G04G05G13G29G23G10G30G25
  -3573251.93448  -2743154.65247
                  20418851.6564                                   20418846.2464
                                                                        51.5004
        43.5004
   3433575.27748   2690695.37546
                  21517163.1094                                   21517160.2194
                                                                        50.5004
        38.7504
   -736290.52047   -561114.74245
                  23562826.0474                                   23562822.7974
                                                                        45.0004
        31.0004
  -5213630.78148  -4016961.10546
                  21263406.6484                                   21263402.8244
                                                                        51.0004
        36.7504
  -7134792.69547  -5518269.98045
                  23098437.8204                                   23098436.1094
                                                                        45.0004
        32.0004
   1698568.13348   1348361.77045
                  22303487.0784                                   22303481.8524
                                                                        48.5004
        32.2504
  -7008102.54347  -5448748.37545
                  22703099.6254                                   22703096.5434
                                                                        46.5004
        32.5004
   4167452.23447   3262715.44944
                  23676421.7274                                   23676419.1094
                                                                        42.5004
        26.0004
   5346138.18047   4202222.68444
                  24107145.1484                                   24107142.0744
                                                                        42.7504
        25.2504
 09 10 14 23 51 30.0000000  0  9G02G04G05G13G29G23G10G30G25
  -3664554.43048  -2814299.44147
                  20401477.3754                                   20401472.0904
                                                                        52.0004
        43.5004
   3423048.49248   2682492.67246
                  21515159.7194                                   21515156.8094
                                                                        51.0004
        39.2504
   -930464.32847   -712418.94945
                  23525875.3364                                   23525872.5044
                                                                        44.5004
        31.2504
  -5321921.64548  -4101343.70746
                  21242799.5944                                   21242795.8284
                                                                        50.7504
        37.0004
  -7298294.67247  -5645673.99245
                  23067324.3284                                   23067322.4104
                                                                        44.7504
        31.7504
   1671799.89548   1327503.34845
                  22298393.3674                                   22298387.8054
                                                                        48.7504
        32.2504
  -7197441.46947  -5596285.16845
                  22667069.4224                                   22667066.9804
                                                                        46.0004
        32.5004
   4167288.81647   3262588.11344
                  23676390.0704                                   23676388.1374
                                                                        42.5004
        25.5004
   5172929.46547   4067254.89144
                  24074184.8444                                   24074181.7234
                                                                        42.0004
        24.0004
 09 10 14 23 52  0.0000000  0  9G02G04G05G13G29G23G10G30G25
  -3755223.20348  -2884950.41847
                  20384223.5474                                   20384218.6374
                                                                        52.5004
        43.2504
   3412994.35248   2674658.28946
                  21513246.5944                                   21513243.9804
                                                                        51.0004
        38.5004
  -1124391.26647   -863530.82045
                  23488971.9384                                   23488969.1054
                                                                        44.0004
        31.0004
  -5429498.22348  -4185169.68046
                  21222328.3914                                   21222324.6844
                                                                        49.7504
        37.0004
  -7461328.12147  -5772712.96945
                  23036299.9694                                   23036297.9654
                                                                        44.7504
        31.5004
   1645616.95748   1307100.99645
                  22293410.8594                                   22293405.8914
                                                                        48.2504
        32.5004
  -7386438.90647  -5743555.84445
                  22631105.0084                                   22631101.5664
                                                                        46.5004
        32.5004
   4167601.75847   3262831.89144
                  23676450.0474                                   23676447.2464
                                                                        44.5004
        26.0004
   5000073.44946   3932561.92243
                  24041291.2114                                   24041288.1644
                                                                        41.2504
        22.5004
 09 10 14 23 52 30.0000000  0  9G02G04G05G13G29G23G10G30G25
  -3845260.15648  -2955109.07847
                  20367090.0554                                   20367084.8914
                                                                        52.5004
        43.2504
   3403408.63748   2667188.89546
                  21511422.6414                                   21511419.9884
                                                                        51.0004
        39.0004
  -1318071.57847  -1014450.51645
                  23452115.5554                                   23452113.4574
                                                                        44.2504
        31.0004
  -5536361.94148  -4268440.19946
                  21201992.7424                                   21201989.3134
                                                                        51.0004
        37.0004
  -7623892.77347  -5899386.71145
                  23005365.1174                                   23005362.7584
                                                                        44.7504
        32.0004
   1620015.35247   1287151.71145
                  22288538.9454                                   22288533.3634
                                                                        47.5004
        31.2504
  -7575095.16447  -5890560.68445
                  22595204.5784                                   22595201.7894
                                                                        47.5004
        33.0004
   4168385.50847   3263442.59044
                  23676599.3674                                   23676596.5554
                                                                        44.5004
        27.5004
   4827570.91046   3798144.41843
                  24008464.5314                                   24008461.5394
                                                                        40.7504
        22.0004
 09 10 14 23 53  0.0000000  0  9G02G04G05G13G29G23G10G30G25
  -3934668.94148  -3024778.25447
                  20350076.1804                                   20350071.1054
                                                                        52.0004
        43.2504
   3394285.45348   2660079.91846
                  21509686.2664                                   21509683.4304
                                                                        51.0004
        39.0004
  -1511507.32047  -1165179.64145
                  23415306.5784                                   23415303.7504
                                                                        45.0004
        32.5004
  -5642516.24648  -4351157.85246
                  21181792.9384                                   21181789.1724
                                                                        50.0004
        36.7504
  -7785990.05947  -6025696.24645
                  22974518.9774                                   22974516.6724
                                                                        44.2504
        30.7504
   1594988.37147   1267650.07445
                  22283776.3524                                   22283770.8014
                                                                        47.7504
        32.2504
  -7763412.01647  -6037301.03545
                  22559368.8834                                   22559366.5044
                                                                        45.7504
        33.5004
   4169633.15247   3264414.78944
                  23676836.5314                                   23676833.8444
                                                                        45.0004
        27.0004
   4655420.23846   3664001.12543
                  23975705.0554                                   23975702.5824
                                                                        40.0004
        20.7504
 09 10 14 23 53 30.0000000  0  9G02G04G05G13G29G23G10G30G25
  -4023451.61748  -3093959.53547
                  20333181.3284                                   20333176.0554
                                                                        52.5004
        43.5004
   3385620.59448   2653328.09046
                  21508037.7424                                   21508034.9064
                                                                        51.0004
        38.7504
  -1704699.29347  -1315718.78945
                  23378543.1804                                   23378540.9654
                                                                        44.2504
        33.0004
  -5747962.75848  -4433323.97346
                  21161726.9454                                   21161723.2974
                                                                        51.0004
        36.5004
  -7947620.44147  -6151641.93745
                  22943761.7344                                   22943759.5314
                                                                        45.0004
        32.0004
   1570531.69147   1248592.85245
                  22279122.6024                                   22279116.8954
                                                                        47.7504
        31.5004
  -7951390.48447  -6183777.73045
                  22523597.8524                                   22523594.9224
                                                                        46.7504
        33.2504
   4171338.65247   3265743.80944
                  23677160.8444                                   23677158.7034
                                                                        43.5004
        26.0004
   4483621.80946   3530132.26643
                  23943013.0164                                   23943010.4884
                                                                        41.5004
        21.0004
 09 10 14 23 54  0.0000000  0  9G02G04G05G13G29G23G10G30G25
  -4111611.57848  -3162655.60547
                  20316405.2584                                   20316400.0004
                                                                        51.7504
        43.0004
   3377408.00048   2646928.65646
                  21506474.6724                                   21506471.9304
                                                                        50.0004
        39.0004
  -1897649.00447  -1466069.16845
                  23341826.5084                                   23341822.9574
                                                                        44.7504
        32.0004
  -5852704.96548  -4514941.32046
                  21141795.0084                                   21141791.4064
                                                                        50.0004
        36.7504
  -8108785.07447  -6277224.69545
                  22913093.1414                                   22913091.0704
                                                                        44.0004
        32.5004
   1546639.44947   1229975.48045
                  22274576.2034                                   22274570.3164
                                                                        47.5004
        31.2504
  -8139031.25447  -6329991.28545
                  22487891.3364                                   22487887.8914
                                                                        47.5004
        32.5004
   4173495.88347   3267424.89844
                  23677571.2664                                   23677568.8984
                                                                        44.2504
        25.7504
   4312174.55547   3396537.07043
                  23910388.1024                                   23910384.8094
                                                                        42.5004
        22.2504
 09 10 14 23 54 30.0000000  0  9G02G04G05G13G29G23G10G30G25
  -4199147.91848  -3230865.85247
                  20299747.3754                                   20299742.5314
                                                                        52.5004
        43.2504
   3369646.93448   2640881.06346
                  21504998.1094                                   21504994.7384
                                                                        51.5004
        38.5004
  -2090353.70747  -1616228.64545
                  23305155.8914                                   23305153.0004
                                                                        45.0004
        31.5004
  -5956741.31248  -4596008.57446
                  21121997.4224                                   21121994.3444
                                                                        50.0004
        37.5004
  -8269480.92247  -6402442.16445
                  22882513.7734                                   22882511.4224
                                                                        43.7504
        32.5004
   1523310.62947   1211797.18845
                  22270136.7894                                   22270131.3914
                                                                        47.0004
        31.7504
  -8326331.65647  -6475939.63745
                  22452249.1024                                   22452245.7814
                                                                        47.5004
        33.0004
   4176101.96947   3269455.62944
                  23678066.9534                                   23678064.7854
                                                                        43.0004
        26.0004
   4141082.05547   3263218.22344
                  23877830.5394                                   23877827.7774
                                                                        43.2504
        24.2504
 09 10 14 23 55  0.0000000  0  9G02G04G05G13G29G23G10G30G25
  -2710639.32048  -2070989.07447
                  20583001.6094                                   20582996.1994
                                                                        51.7504
        43.2504
   4937753.42648   3862782.19946
                  21803398.8284                                   21803395.6094
                                                                        50.7504
        38.7504
   -707386.94147   -538592.12545
                  23568325.1644                                   23568322.4734
                                                                        45.5004
        32.0004
  -4484649.89148  -3448924.27346
                  21402127.1174                                   21402123.8204
                                                                        50.0004
        37.2504
  -6854282.68447  -5299690.26245
                  23151816.8594                                   23151814.3054
                                                                        44.5004
        31.5004
   3075961.34047   2421654.87145
                  22565596.4694                                   22565591.2974
                                                                        46.5004
        32.2504
  -6937865.60547  -5394018.01645
                  22716465.0474                                   22716462.2584
                                                                        47.0004
        33.5004
   5754571.42647   4499431.83644
                  23978440.2274                                   23978437.9304
                                                                        44.2504
        26.2504
   5545770.60547   4357780.77044
                  24145133.6414                                   24145130.2774
                                                                        43.2504
        25.0004
 09 10 14 23 55 30.0000000  0  9G02G04G05G13G29G23G10G30G25
  -2796932.07448  -2138230.21147
                  20566580.5394                                   20566575.3524
                                                                        53.0004
        43.5004
   4930884.12548   3857429.48846
                  21802091.7424                                   21802088.5514
                                                                        51.0004
        39.0004
   -899601.26247   -688369.48045
                  23531748.0864                                   23531744.8524
                                                                        44.5004
        31.5004
  -4587278.02748  -3528894.24646
                  21382597.7114                                   21382594.2544
                                                                        50.7504
        37.5004
  -7014039.35247  -5424175.91045
                  23121415.9144                                   23121413.4184
                                                                        44.5004
        33.0004
   3053747.04347   2404345.03945
                  22561369.2274                                   22561364.0944
                                                                        47.5004
        32.5004
  -7124483.94147  -5539434.86745
                  22680953.1414                                   22680949.6954
                                                                        46.7504
        33.5004
   5758060.50447   4502150.43843
                  23979103.9924                                   23979101.8554
                                                                        43.5004
        22.7504
   5375390.61347   4225017.20743
                  24112711.0634                                   24112708.7114
                                                                        42.5004
        23.5004
 09 10 14 23 56  0.0000000  0  9G02G04G05G13G29G23G10G30G25
  -2882602.62948  -2204986.54747
                  20550278.0234                                   20550272.7034
                                                                        52.5004
        43.5004
   4924457.84448   3852421.98446
                  21800868.5394                                   21800865.5664
                                                                        51.5004
        38.7504
  -1091567.55947   -837953.56645
                  23495217.8984                                   23495214.9224
                                                                        45.0004
        31.2504
  -4689201.18448  -3608314.84846
                  21363202.5784                                   21363198.7774
                                                                        50.2504
        37.0004
  -7173323.03547  -5548293.06245
                  23091105.3364                                   23091102.9574
                                                                        43.7504
        32.5004
   3032087.12947   2387467.16045
                  22557247.5394                                   22557242.4454
                                                                        47.5004
        31.7504
  -7310758.45347  -5684583.81645
                  22645505.9924                                   22645503.6644
                                                                        47.0004
        33.5004
   5761986.61747   4505209.64843
                  23979851.2734                                   23979848.5864
                                                                        42.5004
        21.5004
   5205370.93046   4092534.42643
                  24080356.5084                                   24080354.7504
                                                                        40.5004
        23.0004
 09 10 14 23 56 30.0000000  0  9G02G04G05G13G29G23G10G30G25
  -2967653.08248  -2271259.65647
                  20534093.3594                                   20534088.1684
                                                                        52.5004
        43.0004
   4918470.45748   3847756.48446
                  21799729.1484                                   21799726.3364
                                                                        50.7504
        38.5004
  -1283286.18047   -987344.66445
                  23458735.3834                                   23458732.8054
                                                                        46.0004
        33.0004
  -4790421.36348  -3687187.74646
                  21343940.7424                                   21343937.1214
                                                                        50.0004
        36.7504
  -7332133.84847  -5672041.77345
                  23060884.4144                                   23060882.6094
                                                                        43.7504
        33.2504
   3010976.85548   2371017.59445
                  22553230.2814                                   22553224.7974
                                                                        48.7504
        32.0004
  -7496689.08247  -5829464.79745
                  22610124.1644                                   22610121.2774
                                                                        47.5004
        33.0004
   5766344.17247   4508605.22743
                  23980680.0784                                   23980676.7974
                                                                        42.7504
        21.5004
   5035711.78546   3960332.60243
                  24048071.5704                                   24048069.4804
                                                                        41.0004
        23.5004
 09 10 14 23 57  0.0000000  0  9G02G04G05G13G29G23G10G30G25
  -3052083.84448  -2337049.89147
                  20518026.7814                                   20518021.5474
                                                                        52.5004
        43.2504
   4912918.93848   3843430.61346
                  21798672.8984                                   21798669.9344
                                                                        50.5004
        38.5004
  -1474755.58647  -1136541.57045
                  23422299.7344                                   23422297.0004
                                                                        47.0004
        34.0004
  -4890938.82048  -3765513.18446
                  21324813.2274                                   21324809.7504
                                                                        50.0004
        37.0004
  -7490469.89847  -5795420.45745
                  23030754.2734                                   23030751.9534
                                                                        44.0004
        32.5004
   2990413.38747   2354994.08645
                  22549317.2114                                   22549311.9144
                                                                        47.0004
        31.5004
  -7682274.39147  -5974076.71945
                  22574808.8594                                   22574806.0824
                                                                        47.2504
        33.2504
   5771129.40247   4512334.09044
                  23981590.7894                                   23981588.0084
                                                                        44.0004
        25.2504
   4866415.10246   3828413.16043
                  24015855.6724                                   24015853.2234
                                                                        41.7504
        22.5004
 09 10 14 23 57 30.0000000  0  9G02G04G05G13G29G23G10G30G25
  -3135896.62148  -2402358.50447
                  20502077.6954                                   20502072.4574
                                                                        52.7504
        43.0004
   4907799.58248   3839441.50046
                  21797698.6884                                   21797695.4224
                                                                        50.5004
        37.7504
  -1665976.19147  -1285544.57845
                  23385911.5004                                   23385908.8554
                                                                        45.5004
        33.5004
  -4990754.89548  -3843292.00046
                  21305818.7894                                   21305815.2194
                                                                        50.0004
        37.0004
  -7648330.99647  -5918429.05945
                  23000714.4144                                   23000711.7814
                                                                        43.5004
        33.0004
   2970392.55948   2339393.47345
                  22545507.1644                                   22545502.0664
                                                                        48.0004
        31.5004
  -7867514.32447  -6118419.48045
                  22539558.6644                                   22539555.8444
                                                                        47.2504
        33.7504
   5776336.55947   4516391.60544
                  23982581.9614                                   23982578.5904
                                                                        45.2504
        26.0004
   4697481.77347   3696776.80943
                  23983708.7034                                   23983705.7114
                                                                        42.2504
        22.7504
 09 10 14 23 58  0.0000000  0  9G02G04G05G13G29G23G10G30G25
  -3219092.80148  -2467186.75847
                  20486245.8364                                   20486240.8554
                                                                        52.7504
        43.2504
   4903109.10548   3835786.59446
                  21796805.6804                                   21796803.0314
                                                                        49.5004
        37.7504
  -1856946.84847  -1434352.82045
                  23349571.0634                                   23349568.0394
                                                                        45.0004
        33.0004
  -5089870.31648  -3920524.75046
                  21286957.6644                                   21286953.9924
                                                                        49.2504
        37.0004
  -7805716.16447  -6041066.76245
                  22970764.8524                                   22970762.6454
                                                                        44.5004
        33.5004
   2950910.81647   2324212.94945
                  22541799.9534                                   22541794.7734
                                                                        47.0004
        31.5004
  -8052407.46147  -6262492.02345
                  22504375.0474                                   22504371.8674
                                                                        47.2504
        33.7504
   5781961.82047   4520774.89844
                  23983652.2974                                   23983649.8054
                                                                        44.2504
        27.7504
   4528913.08247   3565424.61343
                  23951631.2974                                   23951628.6294
                                                                        42.7504
        22.5004
 09 10 14 23 58 30.0000000  0  9G02G04G05G13G29G23G10G30G25
  -3301671.22348  -2531533.60947
                  20470531.7344                                   20470526.7934
                                                                        52.0004
        42.7504
   4898846.00848   3832464.66846
                  21795994.5864                                   21795991.6334
                                                                        50.0004
        38.0004
  -2047665.50447  -1582964.67645
                  23313277.8524                                   23313274.8674
                                                                        44.5004
        32.2504
  -5188284.45748  -3997211.05546
                  21268230.1024                                   21268226.4184
                                                                        49.7504
        37.2504
  -7962622.72747  -6163331.53545
                  22940906.3204                                   22940904.0514
                                                                        45.0004
        33.7504
   2931966.30547   2309450.98845
                  22538195.0084                                   22538189.3364
                                                                        46.5004
        30.7504
  -8236951.79747  -6406292.78945
                  22469257.0704                                   22469254.1804
                                                                        46.5004
        34.2504
   5788002.45347   4525481.84844
                  23984802.2424                                   23984799.4304
                                                                        42.5004
        26.5004
   4360712.30547   3434359.10543
                  23919624.4304                                   23919620.6134
                                                                        43.0004
        22.5004
 09 10 14 23 59  0.0000000  0  9G02G04G05G13G29G23G10G30G25
  -3383632.50848  -2595399.56647
                  20454935.4064                                   20454929.8834
                                                                        51.5004
        43.2504
   4895007.83248   3829473.88346
                  21795264.6174                                   21795261.8914
                                                                        49.7504
        38.5004
  -2238130.30947  -1731378.74645
                  23277034.1804                                   23277030.6764
                                                                        45.7504
        32.2504
  -5285997.47348  -4073351.02346
                  21249635.7344                                   21249631.8914
                                                                        49.0004
        37.0004
  -8119049.00847  -6285222.02745
                  22911139.3594                                   22911136.8794
                                                                        44.2504
        33.5004
   2913556.46947   2295105.70745
                  22534691.4224                                   22534686.0434
                                                                        45.5004
        30.5004
  -8421145.65647  -6549820.46945
                  22434206.2814                                   22434203.1484
                                                                        46.7504
        35.0004
   5794454.44546   4530509.32444
                  23986029.6174                                   23986027.1954
                                                                        39.5004
        25.2504
   4192881.60247   3303581.94943
                  23887687.5084                                   23887683.9064
                                                                        42.7504
        23.2504
 09 10 14 23 59 30.0000000  0  9G02G04G05G13G29G23G10G30G25
  -3464977.52048  -2658785.25447
                  20439455.6804                                   20439450.1054
                                                                        52.2504
        43.5004
   4891591.45348   3826811.77046
                  21794614.4144                                   21794611.7424
                                                                        50.0004
        37.7504
  -2428341.13347  -1879594.93745
                  23240838.4064                                   23240835.0124
                                                                        46.2504
        33.2504
  -5383010.21948  -4148945.31246
                  21231174.8204                                   21231171.5234
                                                                        48.5004
        36.7504
  -8274993.89547  -6406737.43445
                  22881463.9774                                   22881461.5234
                                                                        43.5004
        32.7504
   2895677.93047   2281174.42645
                  22531289.7814                                   22531283.9844
                                                                        46.5004
        30.7504
  -8604987.85247  -6693074.11745
                  22399222.1804                                   22399219.1604
                                                                        46.7504
        33.5004
   5801313.52346   4535854.05544
                  23987334.7114                                   23987332.2424
                                                                        41.0004
        24.0004
   4025422.26646   3173094.23844
                  23855820.6644                                   23855817.2894
                                                                        41.5004
        24.2504
