     2.11           OBSERVATION DATA    G (GPS)             RINEX VERSION / TYPE
teqc  2019Feb25                         20221121 12:28:50UTCPGM / RUN BY / DATE
OSX ker:10.11.6|Core i5|gcc 4.3 -m64|OSX ker:10.10+|=+      COMMENT
BIT 2 OF LLI FLAGS DATA COLLECTED UNDER A/S CONDITION       COMMENT
04713011                                                    MARKER NAME
3011                                                        MARKER NUMBER
-Unknown-           -Unknown-                               OBSERVER / AGENCY
0220400471          TRIMBLE R7          2.30                REC # / TYPE / VERS
-Unknown-           TRM39105.00     NONE                    ANT # / TYPE
  1449458.9533 -1709243.7591  5952442.7358                  APPROX POSITION XYZ
        0.0000        0.0000        0.0000                  ANTENNA: DELTA H/E/N
     1     1                                                WAVELENGTH FACT L1/2
    20    L1    L2    L5    L6    L7    L8    C1    P1    C2# / TYPES OF OBSERV
          P2    C5    C6    C7    C8    S1    S2    S5    S6# / TYPES OF OBSERV
          S7    S8                                          # / TYPES OF OBSERV
    30.0000                                                 INTERVAL
    15                                                      LEAP SECONDS
Forced Modulo Decimation to 30 seconds                      COMMENT
 SNR is mapped to RINEX snr flag value [0-9]                COMMENT
  L1 & L2: min(max(int(snr_dBHz/6), 0), 9)                  COMMENT
teqc edited: Beidou # 1 - 37 excluded                       COMMENT
  2009    10    28    23    11   30.0000000     GPS         TIME OF FIRST OBS
                                                            END OF HEADER
 09 10 28 23 11 30.0000000  0  7G02G04G05G10G13G23G29
   -153026.28558    -97519.83257
                  20557372.2504                                   20557365.9414
                                                                        53.0004
        42.5004
    -14769.50858     -9958.04356
                  22241033.1484                                   22241029.3204
                                                                        49.5004
        36.0004
   -359537.05958   -228650.12155
                  22911165.1334                                   22911160.8404
                                                                        48.7504
        35.5004
   -340795.14558   -220566.82056
                  22012938.4694                                   22012935.0474
                                                                        49.2504
        36.5004
   -176418.93058   -112391.34856
                  21303356.5944                                   21303352.0784
                                                                        50.5004
        37.2504
    -41412.14557    -26947.65655
                  22837267.5864                                   22837260.5634
                                                                        46.2504
        31.0004
   -289094.96157   -184777.67255
                  22702328.8754                                   22702324.8244
                                                                        45.7504
        34.5004
 09 10 28 23 12  0.0000000  0  7G02G04G05G10G13G23G29
   -237734.48848   -163526.23047
                  20541252.9774                                   20541246.7854
                                                                        53.0004
        42.0004
    -23783.44948    -16982.28545
                  22239317.8914                                   22239314.5164
                                                                        49.2504
        35.5004
   -558296.98848   -383528.02045
                  22873342.8984                                   22873338.4224
                                                                        48.5004
        35.0004
   -529085.74648   -367286.80546
                  21977107.8134                                   21977104.1644
                                                                        48.0004
        36.2504
   -273879.14848   -188334.37146
                  21284810.7194                                   21284805.9654
                                                                        49.5004
        36.5004
    -64973.11747    -45306.87545
                  22832784.2114                                   22832777.3404
                                                                        47.2504
        30.0004
   -448787.78147   -309213.62945
                  22671940.1334                                   22671936.4224
                                                                        45.2504
        34.5004
 09 10 28 23 12 30.0000000  0  7G02G04G05G10G13G23G29
   -321494.90648   -228794.09447
                  20525313.6644                                   20525307.6294
                                                                        53.2504
        42.7504
    -32091.36347    -23456.08645
                  22237737.2274                                   22237733.7854
                                                                        47.7504
        35.7504
   -756424.94148   -537913.41445
                  22835639.8914                                   22835635.6914
                                                                        48.5004
        35.2504
   -716632.93748   -513427.49646
                  21941418.7194                                   21941415.2034
                                                                        48.0004
        36.0004
   -370306.49248   -263472.58246
                  21266461.1564                                   21266456.5234
                                                                        49.5004
        37.2504
    -87714.72747    -63027.63744
                  22828455.9924                                   22828449.6254
                                                                        46.5004
        29.5004
   -607619.23047   -432978.40645
                  22641715.7034                                   22641711.7424
                                                                        45.5004
        34.2504
 09 10 28 23 13  0.0000000  0  7G02G04G05G10G13G23G29
   -404166.30548   -293213.37547
                  20509581.8674                                   20509575.8594
                                                                        53.0004
        42.5004
    -39554.60548    -29271.80945
                  22236316.5704                                   22236313.2034
                                                                        48.0004
        35.0004
   -953777.80548   -691694.90645
                  22798085.3984                                   22798080.9304
                                                                        49.0004
        35.7504
   -903292.85248   -658876.83246
                  21905898.5554                                   21905894.7274
                                                                        48.2504
        36.0004
   -465559.76248   -337695.94146
                  21248335.1954                                   21248330.6484
                                                                        49.0004
        36.7504
   -109497.93047    -80001.59044
                  22824311.0634                                   22824304.5824
                                                                        45.5004
        29.0004
   -765445.84847   -555960.18445
                  22611682.5784                                   22611678.2114
                                                                        46.7504
        34.7504
 09 10 28 23 13 30.0000000  0  7G02G04G05G10G13G23G29
   -485708.50848   -356752.73847
                  20494064.9454                                   20494058.6214
                                                                        51.7504
        42.7504
    -46134.21548    -34398.88745
                  22235065.2664                                   22235061.7424
                                                                        48.5004
        35.0004
  -1150312.64148   -844838.97346
                  22760685.6804                                   22760681.9384
                                                                        49.0004
        36.0004
  -1089022.62948   -803601.23446
                  21870555.3284                                   21870551.5204
                                                                        48.7504
        36.5004
   -559598.11748   -410972.58246
                  21230440.2344                                   21230435.7464
                                                                        49.0004
        36.7504
   -130284.81647    -96199.18744
                  22820355.6254                                   22820349.1954
                                                                        45.7504
        28.2504
   -922225.18747   -678125.90645
                  22581847.9924                                   22581844.2774
                                                                        47.5004
        35.2504
 09 10 28 23 14  0.0000000  0  7G02G04G05G10G13G23G29
   -566119.29348   -419410.50447
                  20478763.0554                                   20478757.0784
                                                                        51.7504
        42.7504
    -51830.31248    -38837.43745
                  22233980.8524                                   22233977.6174
                                                                        48.5004
        34.7504
  -1346025.25048   -997342.28146
                  22723442.9144                                   22723438.7274
                                                                        48.2504
        36.0004
  -1273818.43048   -947597.85246
                  21835390.1174                                   21835385.9384
                                                                        48.5004
        37.0004
   -652420.29748   -483301.60246
                  21212776.8984                                   21212772.3554
                                                                        48.5004
        36.0004
   -150075.02047   -111620.10944
                  22816589.0634                                   22816582.9264
                                                                        46.0004
        29.2504
  -1077952.97347   -799472.24645
                  22552214.3674                                   22552209.8674
                                                                        46.0004
        35.0004
 09 10 28 23 14 30.0000000  0  7G02G04G05G10G13G23G29
   -645413.84448   -481198.45347
                  20463673.8984                                   20463667.7664
                                                                        52.5004
        42.7504
    -56659.23048    -42600.13345
                  22233062.0084                                   22233059.0864
                                                                        48.5004
        35.7504
  -1540928.78148  -1149215.02745
                  22686353.4384                                   22686350.1024
                                                                        48.2504
        35.5004
  -1457693.19147  -1090876.92246
                  21800399.6414                                   21800395.9384
                                                                        47.2504
        36.5004
   -744040.88748   -554694.26646
                  21195342.3054                                   21195337.3324
                                                                        48.2504
        37.0004
   -168886.19947   -126278.18144
                  22813010.3594                                   22813003.5514
                                                                        46.5004
        29.2504
  -1232642.15247   -920009.27745
                  22522777.5784                                   22522773.7464
                                                                        46.0004
        35.0004
 09 10 28 23 15  0.0000000  0  7G02G04G05G10G13G23G29
   -723617.37548   -542136.32847
                  20448792.4304                                   20448786.2974
                                                                        53.0004
        42.5004
    -60648.37148    -45708.34845
                  22232302.6094                                   22232299.4924
                                                                        48.2504
        35.5004
  -1735046.50447  -1300475.65245
                  22649414.5314                                   22649410.3834
                                                                        47.7504
        35.5004
  -1640669.38348  -1233455.74246
                  21765580.5084                                   21765576.6414
                                                                        48.0004
        36.7504
   -834485.61348   -625170.68446
                  21178130.9694                                   21178126.2624
                                                                        49.7504
        37.0004
   -186745.86747   -140194.83644
                  22809611.7194                                   22809605.3054
                                                                        47.0004
        29.5004
  -1386315.57447  -1039754.81245
                  22493534.2894                                   22493530.6454
                                                                        47.0004
        34.5004
 09 10 28 23 15 30.0000000  0  7G02G04G05G10G13G23G29
   -800755.26248   -602243.77047
                  20434113.1724                                   20434107.4844
                                                                        52.0004
        42.7504
    -63825.85948    -48184.32045
                  22231698.1254                                   22231694.9384
                                                                        48.7504
        35.0004
  -1928401.42647  -1451141.86346
                  22612620.1484                                   22612616.5784
                                                                        47.0004
        36.5004
  -1822770.76648  -1375352.93446
                  21730927.7664                                   21730923.8204
                                                                        48.5004
        36.5004
   -923780.05948   -694750.79346
                  21161138.7974                                   21161134.4144
                                                                        50.0004
        37.2504
   -203681.39147   -153391.37544
                  22806388.7584                                   22806382.1914
                                                                        46.7504
        29.7504
  -1538996.25847  -1158726.78545
                  22464480.3524                                   22464476.5864
                                                                        47.7504
        35.5004
 09 10 28 23 16  0.0000000  0  7G02G04G05G10G13G23G29
   -876855.25448   -661542.43447
                  20419632.5164                                   20419626.1454
                                                                        52.7504
        42.7504
    -66219.66048    -50049.28145
                  22231242.1804                                   22231238.9264
                                                                        48.5004
        35.5004
  -2121019.03148  -1601233.52746
                  22575966.7344                                   22575962.5474
                                                                        48.0004
        36.5004
  -2004022.34448  -1516588.01646
                  21696436.7424                                   21696433.0594
                                                                        49.0004
        36.5004
  -1011951.53948   -763455.85246
                  21144360.4384                                   21144355.4454
                                                                        50.0004
        37.0004
   -219722.88347   -165891.25845
                  22803336.1174                                   22803329.8054
                                                                        47.0004
        30.0004
  -1690710.20747  -1276945.44945
                  22435610.2974                                   22435606.3984
                                                                        47.0004
        35.5004
 09 10 28 23 16 30.0000000  0  7G02G04G05G10G13G23G29
   -951938.59848   -720048.99647
                  20405344.2974                                   20405338.3674
                                                                        52.0004
        42.5004
    -67853.66848    -51322.27345
                  22230931.0634                                   22230928.4454
                                                                        48.0004
        35.2504
  -2312917.96947  -1750765.27045
                  22539449.5314                                   22539445.0784
                                                                        46.5004
        35.5004
  -2184443.05148  -1657175.60246
                  21662103.9774                                   21662100.2384
                                                                        48.5004
        37.5004
  -1099021.68748   -831302.73046
                  21127791.5234                                   21127786.7504
                                                                        50.5004
        37.0004
   -234893.77347   -177712.76244
                  22800449.5164                                   22800442.8954
                                                                        46.0004
        29.2504
  -1841476.31648  -1394425.56245
                  22406920.4224                                   22406916.5514
                                                                        48.0004
        34.7504
 09 10 28 23 17  0.0000000  0  7G02G04G05G10G13G23G29
  -1026026.46548   -777779.74247
                  20391245.8284                                   20391239.5394
                                                                        52.2504
        42.7504
    -68751.30148    -52021.65245
                  22230760.2584                                   22230757.2074
                                                                        48.0004
        34.7504
  -2504117.43447  -1899751.94946
                  22503065.6724                                   22503061.4264
                                                                        46.5004
        36.0004
  -2364051.78148  -1797130.49246
                  21627925.5944                                   21627921.8754
                                                                        48.5004
        37.5004
  -1185011.96148   -898308.15246
                  21111428.0084                                   21111422.8054
                                                                        50.0004
        37.0004
   -249217.25447   -188873.93744
                  22797723.5394                                   22797717.0634
                                                                        45.7504
        28.7504
  -1991313.18047  -1511181.57845
                  22378407.6254                                   22378403.7234
                                                                        47.5004
        35.2504
 09 10 28 23 17 30.0000000  0  7G02G04G05G10G13G23G29
  -1099140.55548   -834751.75847
                  20377332.7114                                   20377326.5434
                                                                        52.2504
        43.0004
    -68935.54348    -52165.19545
                  22230725.0164                                   22230721.7664
                                                                        48.7504
        34.7504
  -2694636.81247  -2048208.63346
                  22466810.5944                                   22466807.0234
                                                                        46.2504
        36.2504
  -2542867.85548  -1936467.67646
                  21593898.0554                                   21593893.8874
                                                                        48.7504
        37.0004
  -1269943.76648   -964488.78946
                  21095265.9454                                   21095261.1024
                                                                        50.7504
        36.2504
   -262716.63747   -199392.94944
                  22795154.6564                                   22795147.5314
                                                                        46.0004
        27.2504
  -2140240.21147  -1627228.63745
                  22350067.2974                                   22350063.7384
                                                                        47.5004
        35.5004
 09 10 28 23 18  0.0000000  0  7G02G04G05G10G13G23G29
  -1171298.46948   -890978.66447
                  20363601.5394                                   20363595.2504
                                                                        51.7504
        42.0004
    -68425.71948    -51767.89845
                  22230822.1414                                   22230818.7074
                                                                        48.0004
        34.5004
  -2884491.35247  -2196147.23046
                  22430683.0784                                   22430678.8094
                                                                        46.7504
        36.5004
  -2720906.75848  -2075199.18746
                  21560018.5004                                   21560014.4694
                                                                        48.5004
        37.0004
  -1353835.52348  -1029859.00046
                  21079301.9694                                   21079297.1214
                                                                        50.5004
        36.7504
   -275412.91447   -209286.14144
                  22792738.1174                                   22792732.0664
                                                                        45.5004
        27.5004
  -2288273.40647  -1742579.19545
                  22321897.6254                                   22321893.9694
                                                                        47.0004
        35.0004
 09 10 28 23 18 30.0000000  0  7G02G04G05G10G13G23G29
    332902.09848    281125.67247
                  20649841.1564                                   20649835.0004
                                                                        52.2504
        42.5004
   1508176.38347   1176753.24245
                  22530839.5864                                   22530836.1644
                                                                        46.7504
        34.0004
  -1498272.21947  -1115976.43046
                  22694471.5164                                   22694467.1214
                                                                        47.0004
        36.0004
  -1322760.01648   -985734.14146
                  21826076.6414                                   21826072.9384
                                                                        49.0004
        37.0004
    138716.09048    133168.20746
                  21363325.0234                                   21363320.7234
                                                                        51.2504
        37.2504
   1288093.07047   1009030.18844
                  23090264.3054                                   23090257.0514
                                                                        45.7504
        29.0004
   -860004.84047   -629642.67245
                  22593688.2034                                   22593684.3634
                                                                        47.2504
        35.5004
 09 10 28 23 19  0.0000000  0  7G02G04G05G10G13G23G29
    262600.58648    226345.32047
                  20636463.3914                                   20636457.1994
                                                                        52.0004
        42.0004
   1510013.41047   1178184.68445
                  22531189.2734                                   22531185.4964
                                                                        47.7504
        34.5004
  -1686845.91447  -1262916.96946
                  22658587.0314                                   22658583.0004
                                                                        47.5004
        36.0004
  -1499293.21548  -1123292.50046
                  21792483.6954                                   21792479.9924
                                                                        49.5004
        37.7504
     56849.10948     69375.73846
                  21347746.2734                                   21347741.5554
                                                                        51.0004
        36.5004
   1276942.18447   1000341.18044
                  23088142.3594                                   23088135.5634
                                                                        45.5004
        28.2504
  -1006298.21947   -743637.52745
                  22565849.5234                                   22565845.3484
                                                                        47.7504
        35.5004
 09 10 28 23 19 30.0000000  0  7G02G04G05G10G13G23G29
    193203.29748    172269.50047
                  20623257.3674                                   20623251.4264
                                                                        52.0004
        42.2504
   1512488.03947   1180112.98845
                  22531660.3914                                   22531656.4964
                                                                        47.5004
        34.2504
  -1874799.22347  -1409374.00846
                  22622820.6644                                   22622816.3794
                                                                        46.7504
        37.0004
  -1675093.57848  -1260279.79346
                  21759029.9064                                   21759025.9384
                                                                        50.0004
        37.7504
    -24029.25848      6353.63346
                  21332355.8284                                   21332350.9024
                                                                        51.5004
        37.0004
   1266537.27747    992233.43844
                  23086161.8594                                   23086155.7384
                                                                        45.2504
        28.7504
  -1151742.24647   -856970.53945
                  22538172.5864                                   22538168.3014
                                                                        47.7504
        35.2504
 09 10 28 23 20  0.0000000  0  7G02G04G05G10G13G23G29
    124694.52048    118886.05147
                  20610220.6724                                   20610214.5704
                                                                        52.5004
        42.5004
   1515582.11747   1182523.98045
                  22532248.5554                                   22532245.4414
                                                                        47.5004
        34.5004
  -2062145.94148  -1555358.32846
                  22587169.4924                                   22587165.4264
                                                                        48.5004
        36.7504
  -1850175.12148  -1396707.00446
                  21725712.9694                                   21725708.8594
                                                                        49.7504
        38.5004
   -103935.37548    -55910.88346
                  21317150.2974                                   21317145.2384
                                                                        51.2504
        36.5004
   1256859.97747    984692.67644
                  23084320.6564                                   23084314.5204
                                                                        45.5004
        29.5004
  -1296350.53947   -969652.33245
                  22510654.4844                                   22510650.2424
                                                                        47.2504
        35.2504
 09 10 28 23 20 30.0000000  0  7G02G04G05G10G13G23G29
     57061.03148     66184.70346
                  20597350.1334                                   20597344.0274
                                                                        51.5004
        41.7504
   1519281.16047   1185406.35945
                  22532952.9064                                   22532949.3634
                                                                        47.0004
        34.7504
  -2248896.99248  -1700878.61346
                  22551632.0704                                   22551627.8524
                                                                        48.5004
        36.5004
  -2024548.26248  -1532582.11746
                  21692530.8444                                   21692527.0354
                                                                        50.2504
        37.7504
   -182882.69548   -117428.27346
                  21302126.7424                                   21302122.0664
                                                                        51.0004
        37.0004
   1247895.09847    977707.03544
                  23082614.8134                                   23082608.6024
                                                                        44.0004
        29.5004
  -1440134.50047  -1081691.81245
                  22483293.0164                                   22483289.2624
                                                                        47.5004
        35.2504
 09 10 28 23 21  0.0000000  0  7G02G04G05G10G13G23G29
     -9710.99648     14154.62547
                  20584643.8594                                   20584637.7074
                                                                        51.5004
        42.2504
   1523569.71547   1188748.05545
                  22533768.5554                                   22533765.5354
                                                                        47.0004
        33.2504
  -2435063.68048  -1845943.54746
                  22516205.8054                                   22516201.5274
                                                                        48.0004
        36.0004
  -2198224.36748  -1667914.13346
                  21659481.1024                                   21659477.2664
                                                                        49.5004
        38.0004
   -260885.23848   -178209.48046
                  21287283.6484                                   21287279.1484
                                                                        50.5004
        36.5004
   1239626.94147    971264.27344
                  23081041.4064                                   23081034.9414
                                                                        43.7504
        29.2504
  -1583105.16047  -1193097.51645
                  22456086.7344                                   22456082.8364
                                                                        47.7504
        34.7504
 09 10 28 23 21 30.0000000  0  7G02G04G05G10G13G23G29
    -75633.10248    -37213.28547
                  20572099.5314                                   20572093.7034
                                                                        52.5004
        42.7504
   1528434.52047   1192538.87545
                  22534694.7664                                   22534691.1644
                                                                        46.7504
        34.5004
  -2620654.90248  -1990560.09846
                  22480888.6564                                   22480884.9574
                                                                        48.5004
        36.5004
  -2371212.36348  -1802710.01646
                  21626562.7424                                   21626558.8754
                                                                        50.0004
        37.5004
   -337954.34448   -238263.31645
                  21272617.6954                                   21272612.9264
                                                                        51.0004
        35.7504
   1232042.07447    965353.97344
                  23079597.7194                                   23079591.4774
                                                                        42.2504
        28.0004
  -1725271.36747  -1303876.38745
                  22429033.3984                                   22429029.8054
                                                                        47.7504
        35.5004
 09 10 28 23 22  0.0000000  0  7G02G04G05G10G13G23G29
   -140720.44548    -87930.70346
                  20559713.9924                                   20559707.8284
                                                                        52.7504
        41.7504
   1533858.89847   1196765.66045
                  22535726.4144                                   22535722.8594
                                                                        47.0004
        33.7504
  -2805683.91448  -2134738.53146
                  22445679.3754                                   22445674.6374
                                                                        48.2504
        36.7504
  -2543525.18048  -1936979.76246
                  21593773.0944                                   21593769.2934
                                                                        50.5004
        38.0004
   -414105.63348   -297601.97346
                  21258126.5704                                   21258121.9924
                                                                        50.5004
        36.5004
   1225122.71147    959962.24244
                  23078281.1484                                   23078274.9454
                                                                        43.0004
        26.5004
  -1866646.74248  -1414039.02046
                  22402130.4614                                   22402126.8014
                                                                        48.0004
        36.0004
 09 10 28 23 22 30.0000000  0  7G02G04G05G10G13G23G29
   -204981.27748   -138004.05147
                  20547484.7894                                   20547478.7704
                                                                        52.0004
        42.2504
   1539833.05947   1201420.79745
                  22536863.7664                                   22536859.8404
                                                                        47.0004
        33.7504
  -2990156.03148  -2278483.01246
                  22410575.0314                                   22410570.7974
                                                                        48.5004
        36.5004
  -2715168.33248  -2070727.67246
                  21561110.1414                                   21561106.4184
                                                                        49.5004
        38.7504
   -489347.34848   -356231.89146
                  21243808.5634                                   21243803.8444
                                                                        50.2504
        36.5004
   1218858.98447    955081.39544
                  23077089.3674                                   23077082.6334
                                                                        43.5004
        27.5004
  -2007236.82447  -1523589.72345
                  22375377.0784                                   22375373.7114
                                                                        47.2504
        35.5004
 09 10 28 23 23  0.0000000  0  7G02G04G05G10G13G23G29
   -268427.83248   -187442.88746
                  20535411.8204                                   20535405.5474
                                                                        51.2504
        41.7504
   1546342.87147   1206493.29345
                  22538102.5634                                   22538099.2274
                                                                        47.5004
        34.0004
  -3174081.06648  -2421801.17246
                  22375575.5314                                   22375570.8484
                                                                        48.7504
        37.0004
  -2886152.07048  -2203961.78146
                  21528572.5864                                   21528569.3164
                                                                        49.5004
        37.2504
   -563692.58248   -414163.23846
                  21229661.1174                                   21229656.7034
                                                                        50.0004
        36.5004
   1213236.38747    950700.19544
                  23076019.6174                                   23076012.2154
                                                                        44.0004
        27.0004
  -2147051.91847  -1632536.55146
                  22348771.3594                                   22348767.5664
                                                                        47.5004
        36.2504
 09 10 28 23 23 30.0000000  0  7G02G04G05G10G13G23G29
   -331071.21548   -236255.89547
                  20523490.9614                                   20523484.8794
                                                                        51.7504
        42.2504
   1553376.19947   1211973.77345
                  22539440.7114                                   22539437.7464
                                                                        46.2504
        34.2504
  -3357467.87148  -2564700.03146
                  22340677.8284                                   22340674.0164
                                                                        48.5004
        37.0004
  -3056484.86748  -2336688.67646
                  21496159.5704                                   21496155.7934
                                                                        49.5004
        37.7504
   -637152.00048   -471404.34446
                  21215682.3284                                   21215677.7034
                                                                        51.0004
        36.5004
   1208242.06347    946808.52744
                  23075068.8914                                   23075062.0124
                                                                        43.7504
        28.5004
  -2286100.83647  -1740886.34845
                  22322310.8364                                   22322307.5704
                                                                        47.5004
        35.7504
 09 10 28 23 24  0.0000000  0  7G02G04G05G10G13G23G29
   -392920.85948   -284450.41047
                  20511721.5554                                   20511715.6804
                                                                        51.2504
        43.2504
   1560922.12947   1217853.73445
                  22540876.7114                                   22540873.4414
                                                                        46.5004
        33.2504
  -3540322.86748  -2707184.46146
                  22305881.7424                                   22305877.4924
                                                                        48.5004
        36.7504
  -3226173.27748  -2468913.43046
                  21463869.1724                                   21463864.9184
                                                                        49.7504
        38.5004
   -709734.89548   -527962.44146
                  21201870.2504                                   21201865.8484
                                                                        50.2504
        36.5004
   1203865.01647    943397.80944
                  23074236.0164                                   23074229.5634
                                                                        43.0004
        27.5004
  -2424390.09448  -1848644.20346
                  22295995.7424                                   22295992.0394
                                                                        48.5004
        36.0004
 09 10 28 23 24 30.0000000  0  7G02G04G05G10G13G23G29
   -453986.09848   -332033.69547
                  20500101.3984                                   20500095.0164
                                                                        52.0004
        42.0004
   1568969.37547   1224124.19545
                  22542408.2814                                   22542404.8914
                                                                        47.7504
        33.5004
  -3722653.08648  -2849260.00446
                  22271185.6174                                   22271181.5594
                                                                        48.5004
        37.0004
  -3395224.88748  -2600641.98446
                  21431699.8204                                   21431696.2504
                                                                        49.7504
        37.7504
   -781451.36348   -583845.39546
                  21188223.0784                                   21188218.4964
                                                                        51.0004
        36.2504
   1200093.34047    940458.85244
                  23073517.6414                                   23073511.2704
                                                                        43.5004
        28.0004
  -2561927.14847  -1955815.93446
                  22269823.3524                                   22269819.5474
                                                                        47.7504
        36.2504
 09 10 28 23 25  0.0000000  0  7G02G04G05G10G13G23G29
   -514274.43748   -379011.60247
                  20488628.7974                                   20488622.5124
                                                                        51.7504
        42.7504
   1577508.73847   1230778.08645
                  22544033.5474                                   22544029.5314
                                                                        47.2504
        33.0004
  -3904463.94947  -2990930.90246
                  22236588.1024                                   22236584.5004
                                                                        47.5004
        37.2504
  -3563644.04348  -2731877.75446
                  21399650.6884                                   21399646.7424
                                                                        49.7504
        38.0004
   -852309.13348   -639059.25046
                  21174739.0634                                   21174734.5514
                                                                        50.7504
        36.0004
   1196917.48847    937984.14544
                  23072913.8524                                   23072907.4344
                                                                        44.0004
        27.5004
  -2698717.62148  -2062405.90246
                  22243792.6804                                   22243789.1174
                                                                        48.7504
        36.0004
 09 10 28 23 25 30.0000000  0  8G02G04G05G10G13G23G29G16
   -573793.73448   -425390.24647
                  20477302.4694                                   20477296.2544
                                                                        51.7504
        42.0004
   1586531.35247   1237808.46545
                  22545750.5474                                   22545747.2424
                                                                        47.0004
        33.7504
  -4085760.33647  -3132200.92646
                  22202088.5554                                   22202085.0474
                                                                        46.5004
        38.5004
  -3731435.92648  -2862624.60246
                  21367720.8524                                   21367717.1884
                                                                        49.2504
        38.2504
   -922316.22748   -693610.22346
                  21161417.2504                                   21161412.9104
                                                                        51.0004
        36.5004
   1194327.95347    935966.31344
                  23072420.9064                                   23072415.0554
                                                                        42.5004
        27.0004
  -2834766.43048  -2168417.96545
                  22217903.4304                                   22217899.8404
                                                                        48.2504
        35.7504
   1339495.03956   1082606.76253
                  24243920.5634                                   24243915.8524
                                                                        37.2504
        19.2504
 09 10 28 23 26  0.0000000  0  8G02G04G05G10G13G23G29G16
   -632555.52348   -471178.68047
                  20466120.4384                                   20466114.1174
                                                                        51.7504
        42.5004
   1596024.73047   1245205.82045
                  22547557.3284                                   22547553.6724
                                                                        47.5004
        33.5004
  -4266551.01247  -3273076.78546
                  22167685.2274                                   22167681.4734
                                                                        47.0004
        37.2504
  -3898609.95748  -2992890.09446
                  21335908.7584                                   21335904.7304
                                                                        50.0004
        38.2504
   -991484.07048   -747507.25846
                  21148255.0704                                   21148250.2584
                                                                        51.0004
        36.2504
   1192311.43047    934394.96944
                  23072037.2974                                   23072031.1094
                                                                        43.7504
        28.2504
  -2970082.78148  -2273859.27045
                  22192153.8524                                   22192149.9844
                                                                        48.7504
        35.7504
   1181603.35246    959574.34043
                  24213875.1954                                   24213870.0314
                                                                        37.2504
        19.0004
 09 10 28 23 26 30.0000000  0  8G02G04G05G10G13G23G29G16
   -690573.57848   -516387.50447
                  20455079.8594                                   20455074.2704
                                                                        51.0004
        42.2504
   1605973.09847   1252957.79345
                  22549450.4844                                   22549447.0594
                                                                        47.0004
        33.0004
  -4446847.32847  -3413567.35546
                  22133376.0164                                   22133372.1884
                                                                        47.5004
        38.0004
  -4065177.39148  -3122682.83246
                  21304212.0164                                   21304208.4144
                                                                        50.5004
        38.2504
  -1059827.18748   -800761.64146
                  21135250.2894                                   21135245.0514
                                                                        50.5004
        36.7504
   1190851.82047    933257.63744
                  23071759.7274                                   23071753.3554
                                                                        44.0004
        28.0004
  -3104678.41448  -2378738.98446
                  22166541.2194                                   22166537.1954
                                                                        49.2504
        36.0004
   1024343.23446    837034.03543
                  24183949.0004                                   24183944.8134
                                                                        39.0004
        20.5004
 09 10 28 23 27  0.0000000  0  8G02G04G05G10G13G23G29G16
    827571.43048    666582.65647
                  20743973.5474                                   20743967.1484
                                                                        51.0004
        42.0004
   3191791.42247   2488660.06645
                  22851221.5944                                   22851218.1334
                                                                        47.7504
        31.5004
  -3051223.34048  -2326068.18746
                  22398954.8054                                   22398950.2854
                                                                        48.2504
        38.0004
  -2655712.56648  -2024398.47746
                  21572424.0084                                   21572420.0084
                                                                        51.0004
        38.5004
    448074.29348    374226.52746
                  21422193.9614                                   21422189.4884
                                                                        50.2504
        36.0004
   2765364.79347   2160150.82444
                  23371379.2664                                   23371373.1564
                                                                        45.2504
        27.0004
  -1663128.99648  -1255453.73446
                  22440858.8054                                   22440854.9454
                                                                        49.0004
        36.5004
   2443140.53946   1942590.41443
                  24453938.2034                                   24453932.7194
                                                                        41.2504
        21.0004
 09 10 28 23 27 30.0000000  0  8G02G04G05G10G13G23G29G16
    771031.71148    622525.73047
                  20733214.1414                                   20733207.8554
                                                                        50.7504
        42.2504
   3202636.22748   2497110.34045
                  22853285.2584                                   22853281.8054
                                                                        48.2504
        32.5004
  -3230531.99648  -2465789.23446
                  22364833.2734                                   22364828.7934
                                                                        48.2504
        37.7504
  -2821067.93748  -2153246.77746
                  21540958.1254                                   21540954.1604
                                                                        49.0004
        38.2504
    381371.53948    322250.34446
                  21409500.6254                                   21409496.2384
                                                                        50.2504
        36.0004
   2765004.92647   2159870.39844
                  23371311.2424                                   23371304.5394
                                                                        45.0004
        27.2504
  -1796284.99247  -1359211.64845
                  22415520.1884                                   22415516.3954
                                                                        46.7504
        35.7504
   2287144.19547   1821034.83643
                  24424252.8204                                   24424247.3874
                                                                        43.0004
        23.0004
 09 10 28 23 28  0.0000000  0  8G02G04G05G10G13G23G29G16
    715227.66448    579042.04747
                  20722594.9774                                   20722588.9344
                                                                        51.5004
        42.0004
   3213923.71548   2505905.73045
                  22855433.7194                                   22855430.0904
                                                                        48.2504
        33.0004
  -3409346.60948  -2605125.23046
                  22330805.7504                                   22330802.2074
                                                                        48.0004
        37.2504
  -2985817.03548  -2281622.65646
                  21509607.2814                                   21509603.5824
                                                                        50.2504
        38.7504
    315484.85948    270910.09846
                  21396962.7734                                   21396958.7504
                                                                        51.0004
        36.5004
   2765188.25447   2160013.20344
                  23371346.1644                                   23371339.5314
                                                                        45.0004
        26.5004
  -1928721.52747  -1462408.95346
                  22390318.4144                                   22390314.0124
                                                                        47.7504
        36.2504
   2131780.87547   1699972.50843
                  24394688.1414                                   24394683.0944
                                                                        43.0004
        23.5004
 09 10 28 23 28 30.0000000  0  8G02G04G05G10G13G23G29G16
    660153.67648    536127.24246
                  20712114.9064                                   20712108.8164
                                                                        52.7504
        41.7504
   3225646.69947   2515040.29745
                  22857664.3524                                   22857661.3404
                                                                        47.2504
        33.0004
  -3587670.44148  -2744078.86346
                  22296871.9224                                   22296867.9024
                                                                        49.2504
        38.0004
  -3149962.91048  -2409528.46146
                  21478371.4064                                   21478367.7194
                                                                        50.2504
        39.0004
    250408.19148    220201.00046
                  21384579.1884                                   21384574.7704
                                                                        50.7504
        36.7504
   2765907.43447   2160573.57444
                  23371483.0634                                   23371476.5634
                                                                        45.0004
        26.5004
  -2060441.66048  -1565048.00846
                  22365252.5084                                   22365248.8404
                                                                        48.0004
        36.0004
   1977047.57447   1579401.07843
                  24365243.4224                                   24365238.1644
                                                                        42.5004
        22.2504
 09 10 28 23 29  0.0000000  0  8G02G04G05G10G13G23G29G16
    605803.25848    493776.22747
                  20701772.2194                                   20701766.2234
                                                                        52.2504
        42.0004
   3237797.59047   2524508.24245
                  22859976.6174                                   22859973.9774
                                                                        47.2504
        32.5004
  -3765506.77048  -2882652.59446
                  22263030.5864                                   22263026.5204
                                                                        49.0004
        38.2504
  -3313509.41448  -2536967.17646
                  21447249.4694                                   21447245.2974
                                                                        50.0004
        38.7504
    186135.27048    170118.21146
                  21372348.3204                                   21372343.7704
                                                                        50.7504
        36.2504
   2767154.47747   2161545.27344
                  23371720.3834                                   23371714.0634
                                                                        44.2504
        27.0004
  -2191449.77747  -1667132.25846
                  22340322.6884                                   22340318.6644
                                                                        47.5004
        36.0004
   1822941.50446   1459318.43443
                  24335917.7194                                   24335912.9654
                                                                        41.5004
        20.2504
 09 10 28 23 29 30.0000000  0  8G02G04G05G10G13G23G29G16
    552173.12148    451986.51647
                  20691566.7664                                   20691560.7624
                                                                        52.7504
        42.0004
   3250372.59047   2534307.18845
                  22862369.3594                                   22862366.9264
                                                                        47.5004
        33.0004
  -3942856.84048  -3020847.43046
                  22229282.1414                                   22229278.0514
                                                                        50.0004
        38.0004
  -3476457.39148  -2663939.59846
                  21416241.5784                                   21416237.3594
                                                                        51.0004
        39.0004
    122661.86748    120658.41446
                  21360270.1884                                   21360265.3754
                                                                        51.5004
        36.0004
   2768923.41847   2162923.64844
                  23372056.6564                                   23372050.3794
                                                                        44.2504
        26.5004
  -2321746.98047  -1768662.53546
                  22315527.5784                                   22315524.3324
                                                                        47.7504
        36.2504
   1669461.88746   1339723.91843
                  24306709.9844                                   24306706.6804
                                                                        38.5004
        20.7504
 09 10 28 23 30  0.0000000  0  8G02G04G05G10G13G23G29G16
    499262.25448    410757.28146
                  20681497.9224                                   20681491.9654
                                                                        53.0004
        41.5004
   3263368.17247   2544433.61745
                  22864842.8524                                   22864839.7194
                                                                        47.7504
        33.0004
  -4119718.26248  -3158661.50846
                  22195626.5084                                   22195622.9224
                                                                        49.5004
        38.5004
  -3638804.91048  -2790444.11746
                  21385347.3834                                   21385343.7624
                                                                        50.7504
        38.5004
     59987.20748     71820.99246
                  21348343.5314                                   21348338.8714
                                                                        51.0004
        36.5004
   2771212.34047   2164707.23044
                  23372492.3594                                   23372485.8754
                                                                        45.0004
        26.7504
  -2451331.29348  -1869637.32046
                  22290868.1484                                   22290864.9774
                                                                        48.0004
        36.7504
   1516611.41446   1220619.70743
                  24277624.1024                                   24277620.1054
                                                                        39.0004
        20.2504
 09 10 28 23 30 30.0000000  0  8G02G04G05G10G13G23G29G16
    447058.17248    370078.81346
                  20671563.8834                                   20671557.9844
                                                                        53.0004
        41.7504
   3276770.86748   2554877.34045
                  22867393.0864                                   22867390.2154
                                                                        48.2504
        32.2504
  -4296101.00048  -3296102.53946
                  22162061.8834                                   22162058.0864
                                                                        50.0004
        38.2504
  -3800561.89148  -2916488.50846
                  21354565.9774                                   21354562.3324
                                                                        49.5004
        38.5004
     -1901.59848     23595.94546
                  21336566.3984                                   21336561.5784
                                                                        50.7504
        36.5004
   2774006.79347   2166884.70344
                  23373024.5004                                   23373018.1134
                                                                        45.0004
        28.0004
  -2580213.34847  -1970064.90246
                  22266343.6094                                   22266339.8404
                                                                        47.0004
        37.0004
   1364380.55546   1101998.29743
                  24248655.7344                                   24248651.5514
                                                                        39.7504
        19.2504
 09 10 28 23 31  0.0000000  0  9G02G04G05G10G13G23G29G16G07
    395555.23048    329946.64847
                  20661763.4064                                   20661757.4024
                                                                        53.0004
        42.0004
   3290573.76247   2565632.87145
                  22870019.8134                                   22870016.5084
                                                                        47.5004
        31.5004
  -4472008.08248  -3433172.96146
                  22128587.7504                                   22128583.9884
                                                                        49.7504
        38.5004
  -3961731.47748  -3042075.18446
                  21323896.8134                                   21323892.9454
                                                                        49.7504
        38.5004
    -63010.46148    -24021.34045
                  21324937.8674                                   21324932.7854
                                                                        51.0004
        35.7504
   2777299.19947   2169450.19544
                  23373650.6804                                   23373644.5514
                                                                        45.2504
        28.5004
  -2708396.26248  -2069947.69546
                  22241951.1094                                   22241947.5004
                                                                        48.0004
        36.7504
   1212766.66846    983857.63343
                  24219804.5474                                   24219800.1374
                                                                        40.7504
        19.5004
   2872505.87556   2249025.67253
                  24438287.8834                                   24438283.7074
                                                                        41.2504
        22.0004
 09 10 28 23 31 30.0000000  0  9G02G04G05G10G13G23G29G16G07
    344746.53148    290355.45746
                  20652094.9774                                   20652088.9064
                                                                        52.5004
        41.7504
   3304769.20347   2576694.43445
                  22872720.5554                                   22872717.2974
                                                                        47.5004
        32.0004
  -4647443.70348  -3569876.03946
                  22095203.9224                                   22095199.5474
                                                                        50.0004
        38.0004
  -4122318.02748  -3167207.56646
                  21293337.7894                                   21293334.1214
                                                                        50.0004
        38.5004
   -123346.46548    -71036.39845
                  21313456.1954                                   21313451.5594
                                                                        50.7504
        35.7504
   2781080.87947   2172396.97744
                  23374370.5314                                   23374363.7624
                                                                        44.0004
        26.2504
  -2835884.69147  -2169289.34046
                  22217690.7974                                   22217686.7384
                                                                        47.5004
        36.7504
   1061766.05146    866194.85543
                  24191070.4064                                   24191065.4694
                                                                        41.0004
        19.5004
   2685755.53546   2103506.07443
                  24402749.7664                                   24402746.3244
                                                                        41.2504
        22.7504
 09 10 28 23 32  0.0000000  0  9G02G04G05G10G13G23G29G16G07
    294625.19548    251299.83647
                  20642557.0864                                   20642550.9494
                                                                        52.0004
        42.2504
   3319348.37147   2588054.93445
                  22875494.7974                                   22875491.7464
                                                                        47.5004
        32.0004
  -4822411.74248  -3706214.74646
                  22061908.2424                                   22061904.2854
                                                                        49.7504
        37.5004
  -4282325.91448  -3291889.05546
                  21262889.6954                                   21262885.7504
                                                                        50.7504
        38.5004
   -182916.95748   -117454.95346
                  21302120.2734                                   21302115.8404
                                                                        49.7504
        36.5004
   2785342.89847   2175718.05144
                  23375181.1954                                   23375174.8674
                                                                        43.2504
        24.5004
  -2962683.42648  -2268093.55146
                  22193561.7734                                   22193557.7774
                                                                        48.7504
        37.0004
    911375.14546    749007.09843
                  24162451.8204                                   24162446.9574
                                                                        41.7504
        19.7504
   2499378.48046   1958277.02743
                  24367283.5234                                   24367280.3284
                                                                        39.5004
        22.5004
 09 10 28 23 32 30.0000000  0  9G02G04G05G10G13G23G29G16G07
    245186.17248    212775.91047
                  20633149.3444                                   20633142.9064
                                                                        52.2504
        42.2504
   3334305.27747   2599709.72745
                  22878341.3674                                   22878338.1454
                                                                        46.5004
        31.5004
  -4996914.87948  -3842191.22746
                  22028701.6724                                   22028697.3444
                                                                        49.7504
        38.2504
  -4441757.17248  -3416121.21146
                  21232551.0944                                   21232547.2034
                                                                        49.7504
        39.0004
   -241727.31248   -163281.19546
                  21290928.9924                                   21290924.4064
                                                                        50.0004
        36.0004
   2790078.85947   2179408.40644
                  23376082.1564                                   23376075.8754
                                                                        43.7504
        24.5004
  -3088794.89847  -2366362.21946
                  22169563.8284                                   22169559.7894
                                                                        47.5004
        36.5004
    761591.58247    632292.63743
                  24133948.5164                                   24133944.5004
                                                                        42.0004
        20.5004
   2313374.89546   1813339.09443
                  24331888.1174                                   24331885.3404
                                                                        39.7504
        23.0004
 09 10 28 23 33  0.0000000  0  9G02G04G05G10G13G23G29G16G07
    196428.46548    174782.87947
                  20623870.6564                                   20623864.7074
                                                                        52.5004
        42.2504
   3349637.57447   2611657.03945
                  22881258.5864                                   22881255.4614
                                                                        47.0004
        31.5004
  -5170951.19948  -3977803.94146
                  21995583.5004                                   21995579.0164
                                                                        50.7504
        38.7504
  -4600609.97348  -3539902.63746
                  21202322.2194                                   21202318.4104
                                                                        49.7504
        39.0004
   -299778.43048   -208515.84045
                  21279882.4304                                   21279877.8484
                                                                        49.7504
        35.5004
   2795286.48047   2183466.30544
                  23377073.3204                                   23377066.7464
                                                                        43.2504
        24.5004
  -3214217.71548  -2464094.27046
                  22145696.2814                                   22145692.2664
                                                                        48.0004
        36.7504
    612418.20747    516053.63343
                  24105562.2584                                   24105558.1094
                                                                        42.0004
        22.0004
   2127747.65246   1668694.57844
                  24296565.0784                                   24296561.1564
                                                                        40.7504
        26.0004
 09 10 28 23 33 30.0000000  0  9G02G04G05G10G13G23G29G16G07
    148351.52348    137320.32847
                  20614722.3364                                   20614715.8954
                                                                        53.0004
        42.5004
   3365343.18047   2623895.22345
                  22884247.3754                                   22884244.2584
                                                                        46.5004
        32.2504
  -5344518.74248  -4113051.37146
                  21962554.3674                                   21962550.7544
                                                                        49.5004
        39.0004
  -4758882.96548  -3663232.23446
                  21172203.5634                                   21172200.2154
                                                                        49.0004
        39.0004
   -357071.97748   -253160.16045
                  21268979.6564                                   21268975.2774
                                                                        50.0004
        35.5004
   2800962.40647   2187889.14544
                  23378153.7114                                   23378147.5354
                                                                        44.2504
        27.0004
  -3338950.80948  -2561288.91046
                  22121960.4064                                   22121956.1254
                                                                        48.2504
        36.7504
    463856.80146    400291.54343
                  24077292.3134                                   24077287.9694
                                                                        41.5004
        21.5004
   1942499.61347   1524345.69544
                  24261313.2664                                   24261309.8204
                                                                        42.2504
        26.2504
 09 10 28 23 34  0.0000000  0  9G02G04G05G10G13G23G29G16G07
    100951.47348    100385.23446
                  20605702.1564                                   20605696.2584
                                                                        53.2504
        41.7504
   3381417.36347   2636420.54345
                  22887305.8364                                   22887303.4534
                                                                        46.5004
        31.5004
  -5517618.40248  -4247934.27046
                  21929614.8364                                   21929611.0594
                                                                        49.2504
        38.5004
  -4916577.12148  -3786110.77746
                  21142195.5474                                   21142191.6684
                                                                        49.5004
        38.7504
   -413611.76248   -297217.15645
                  21258220.3204                                   21258215.9454
                                                                        50.0004
        35.7504
   2807101.36747   2192672.78544
                  23379322.1174                                   23379315.6914
                                                                        43.5004
        27.7504
  -3462995.19548  -2657946.89146
                  22098355.5234                                   22098351.9574
                                                                        48.7504
        36.7504
    315906.71946    285005.78943
                  24049138.1094                                   24049133.6174
                                                                        41.0004
        21.5004
   1757630.79347   1380292.25444
                  24226134.2114                                   24226130.2894
                                                                        43.0004
        27.2504
 09 10 28 23 34 30.0000000  0  9G02G04G05G10G13G23G29G16G07
     54228.18848     63977.47747
                  20596811.1484                                   20596805.1134
                                                                        52.2504
        42.0004
   3397858.93047   2649232.20745
                  22890435.1564                                   22890431.9694
                                                                        45.7504
        31.7504
  -5690247.13748  -4382450.10546
                  21896764.6884                                   21896760.7194
                                                                        50.5004
        38.7504
  -5073689.13748  -3908535.68746
                  21112298.5084                                   21112294.3014
                                                                        50.2504
        39.5004
   -469398.21948   -340687.15246
                  21247604.7114                                   21247600.0944
                                                                        48.0004
        36.0004
   2813702.04747   2197816.16044
                  23380578.4924                                   23380571.5594
                                                                        42.5004
        27.7504
  -3586348.50048  -2754066.35946
                  22074882.2274                                   22074878.5084
                                                                        48.7504
        37.2504
    168571.38746    170199.03143
                  24021101.7034                                   24021096.4264
                                                                        40.7504
        22.5004
   1573144.60247   1236536.80544
                  24191027.4384                                   24191023.9304
                                                                        42.0004
        24.2504
 09 10 28 23 35  0.0000000  0  9G02G04G05G10G13G23G29G16G07
      8177.06348     28093.48847
                  20588047.7664                                   20588041.2734
                                                                        52.2504
        42.0004
   3414662.14547   2662325.57845
                  22893632.1884                                   22893629.3444
                                                                        44.7504
        31.0004
  -5862406.83248  -4516600.48846
                  21864003.9304                                   21863999.9304
                                                                        50.0004
        38.2504
  -5230221.41448  -4030508.90646
                  21082510.9384                                   21082507.4304
                                                                        50.0004
        39.2504
   -524436.32048   -383573.99646
                  21237131.3134                                   21237126.9224
                                                                        50.0004
        36.0004
   2820758.00447   2203314.26244
                  23381920.7034                                   23381914.5354
                                                                        43.5004
        26.7504
  -3709013.43448  -2849649.43046
                  22051539.9694                                   22051535.9064
                                                                        48.7504
        37.2504
     21848.99646     55869.87143
                  23993180.6254                                   23993176.4224
                                                                        39.5004
        21.5004
   1389041.00446   1093079.47343
                  24155993.6334                                   24155989.3404
                                                                        40.5004
        23.7504
 09 10 28 23 35 30.0000000  0  9G02G04G05G10G13G23G29G16G07
    -37201.99648     -7266.83246
                  20579412.5784                                   20579406.3554
                                                                        51.7504
        41.5004
   3431825.75447   2675699.81645
                  22896898.5944                                   22896895.4924
                                                                        45.0004
        30.0004
  -6034094.16848  -4650382.78546
                  21831332.6954                                   21831328.3324
                                                                        49.0004
        39.2504
  -5386170.99648  -4152028.06246
                  21052835.2034                                   21052830.8404
                                                                        51.0004
        39.0004
   -578726.08648   -425877.73046
                  21226800.4924                                   21226796.0124
                                                                        49.0004
        36.7504
   2828267.57847   2209165.86344
                  23383349.3754                                   23383343.5514
                                                                        42.5004
        26.2504
  -3830987.18448  -2944693.89546
                  22028328.9614                                   22028325.3284
                                                                        48.7504
        37.2504
   -124256.75446    -57978.75043
                  23965377.4694                                   23965372.7194
                                                                        38.7504
        21.5004
   1205323.96146    949923.36343
                  24121033.1884                                   24121029.2424
                                                                        40.2504
        22.5004
 09 10 28 23 36  0.0000000  0  9G02G04G05G10G13G23G29G16G07
   1493506.59448   1185493.10946
                  20870696.4924                                   20870690.7774
                                                                        51.5004
        41.7504
   5024761.87147   3916948.66845
                  23200024.4924                                   23200021.2384
                                                                        45.2504
        31.0004
  -4629887.81648  -3556196.02046
                  22098544.4384                                   22098540.4064
                                                                        50.0004
        39.5004
  -3966116.43048  -3045492.02046
                  21323062.3444                                   21323058.2894
                                                                        50.5004
        39.0004
    943147.48448    759997.77345
                  21516403.1724                                   21516398.3984
                                                                        49.5004
        35.7504
   4411642.44547   3442964.39544
                  23684655.3914                                   23684649.6254
                                                                        42.0004
        24.5004
  -2376849.93448  -1811599.93746
                  22305041.8054                                   22305038.6644
                                                                        48.2504
        36.7504
   1305675.80146   1056254.42643
                  24237484.6954                                   24237480.2584
                                                                        39.5004
        22.7504
   2597416.81346   2034670.96943
                  24385940.1724                                   24385935.3484
                                                                        39.7504
        23.2504
 09 10 28 23 36 30.0000000  0  9G02G04G05G10G13G23G29G16G07
   1449454.40248   1151166.70346
                  20862313.5784                                   20862307.6024
                                                                        51.5004
        41.5004
   5042625.25447   3930868.14845
                  23203423.6334                                   23203420.1484
                                                                        45.7504
        31.0004
  -4800641.21548  -3689250.55546
                  22066050.9924                                   22066047.2814
                                                                        49.5004
        39.0004
  -4120910.61348  -3166110.84446
                  21293606.0944                                   21293602.0984
                                                                        50.5004
        38.7504
    890335.23448    718845.37945
                  21506353.3054                                   21506348.7274
                                                                        48.5004
        35.5004
   4420036.68847   3449505.31343
                  23686253.1254                                   23686246.8914
                                                                        42.5004
        23.7504
  -2497452.76648  -1905576.18046
                  22282092.0864                                   22282088.5274
                                                                        48.5004
        36.5004
   1160794.64146    943360.05943
                  24209914.4224                                   24209910.0634
                                                                        39.0004
        22.2504
   2414466.48046   1892112.25444
                  24351125.3834                                   24351121.2934
                                                                        41.5004
        24.7504
 09 10 28 23 37  0.0000000  0  9G02G04G05G10G13G23G29G16G07
   1406059.05148   1117352.14846
                  20854055.8204                                   20854049.7114
                                                                        52.5004
        41.2504
   5060830.67647   3945054.18045
                  23206888.2504                                   23206884.7424
                                                                        45.7504
        30.7504
  -4970929.69948  -3821942.85946
                  22033646.1804                                   22033642.0124
                                                                        48.7504
        38.5004
  -4275129.47748  -3286281.38346
                  21264259.0474                                   21264255.2704
                                                                        50.5004
        39.5004
    838254.71548    678263.12946
                  21496442.9454                                   21496438.3324
                                                                        49.7504
        36.0004
   4428864.12147   3456383.82044
                  23687933.1024                                   23687926.6724
                                                                        43.2504
        24.5004
  -2617373.10548  -1999020.60946
                  22259271.9614                                   22259268.4614
                                                                        48.0004
        37.0004
   1016523.94146    830941.35243
                  24182460.5554                                   24182456.6214
                                                                        38.7504
        22.5004
   2231899.51246   1749852.34444
                  24316384.0634                                   24316380.3714
                                                                        40.5004
        26.0004
 09 10 28 23 37 30.0000000  0  9G02G04G05G10G13G23G29G16G07
   1363317.03148   1084046.69546
                  20845922.4064                                   20845916.0984
                                                                        53.0004
        41.7504
   5079373.47347   3959503.11744
                  23210416.4844                                   23210412.9614
                                                                        45.7504
        29.5004
  -5140753.47748  -3954273.07046
                  22001329.8204                                   22001325.9384
                                                                        50.0004
        39.0004
  -4428773.94148  -3406004.30146
                  21235021.2344                                   21235017.6094
                                                                        51.0004
        39.2504
    786902.25048    638248.22746
                  21486670.9924                                   21486666.7344
                                                                        50.0004
        36.0004
   4438119.93047   3463596.12144
                  23689694.1644                                   23689687.7304
                                                                        43.7504
        25.2504
  -2736612.10948  -2091934.11746
                  22236581.2894                                   22236578.1174
                                                                        48.7504
        37.5004
    872863.37946    718998.05943
                  24155122.6884                                   24155119.2114
                                                                        38.5004
        22.7504
   2049716.09046   1607891.24244
                  24281715.6414                                   24281712.2424
                                                                        41.5004
        26.2504
 09 10 28 23 38  0.0000000  0  9G02G04G05G10G13G23G29G16G07
   1321226.85548   1051249.15646
                  20837912.8914                                   20837906.7194
                                                                        52.5004
        41.5004
   5098251.09047   3974212.96944
                  23214008.9694                                   23214005.5984
                                                                        45.7504
        29.2504
  -5310111.20348  -4086240.09446
                  21969101.9224                                   21969097.8594
                                                                        49.7504
        39.0004
  -4581843.16448  -3525278.98846
                  21205893.4224                                   21205889.3364
                                                                        50.5004
        39.5004
    736275.43848    598798.77345
                  21477036.9224                                   21477032.3324
                                                                        49.0004
        35.7504
   4447800.73447   3471139.58644
                  23691536.8594                                   23691529.3404
                                                                        44.7504
        24.5004
  -2855169.16048  -2184316.23446
                  22214020.9614                                   22214017.5704
                                                                        48.5004
        36.7504
    729814.44146    607531.36343
                  24127901.6484                                   24127897.0824
                                                                        39.2504
        21.5004
   1867918.56647   1466230.93844
                  24247120.7814                                   24247117.3404
                                                                        43.2504
        26.5004
 09 10 28 23 38 30.0000000  0  9G02G04G05G10G13G23G29G16G07
   1279779.82848   1018952.73046
                  20830025.8594                                   20830019.5944
                                                                        52.5004
        41.7504
   5117453.74647   3989176.02745
                  23217662.9064                                   23217660.3484
                                                                        46.5004
        30.2504
  -5479008.61348  -4217848.40646
                  21936962.0314                                   21936957.8674
                                                                        50.0004
        39.5004
  -4734342.19948  -3644109.38746
                  21176873.6644                                   21176869.8834
                                                                        50.7504
        39.5004
    686365.75848    559908.11746
                  21467539.3984                                   21467534.8834
                                                                        50.0004
        36.0004
   4457896.59447   3479006.42244
                  23693458.0634                                   23693451.3244
                                                                        43.5004
        25.7504
  -2973050.32848  -2276171.68446
                  22191589.0164                                   22191585.3404
                                                                        48.5004
        37.0004
    587371.78946    496537.07443
                  24100796.2814                                   24100791.4384
                                                                        40.5004
        21.5004
   1686502.78547   1324868.17244
                  24212598.6484                                   24212595.0044
                                                                        42.0004
        27.5004
 09 10 28 23 39  0.0000000  0  9G02G04G05G10G13G23G29G16G07
   1238975.26648    987157.00446
                  20822261.0784                                   20822255.1294
                                                                        52.5004
        41.2504
   5136979.39147   4004390.79745
                  23221378.9844                                   23221375.7934
                                                                        46.7504
        31.0004
  -5647444.22348  -4349096.89546
                  21904909.6174                                   21904905.4454
                                                                        50.5004
        39.2504
  -4886269.33648  -3762494.16046
                  21147963.2274                                   21147959.0554
                                                                        51.0004
        40.0004
    637171.79348    521575.16045
                  21458178.0164                                   21458173.2274
                                                                        49.5004
        35.5004
   4468405.05947   3487194.82444
                  23695457.9224                                   23695451.5704
                                                                        43.2504
        26.5004
  -3090254.43048  -2367499.55946
                  22169285.8524                                   22169282.4024
                                                                        48.7504
        37.2504
    445537.71546    386017.01643
                  24073806.1724                                   24073801.4104
                                                                        39.5004
        23.5004
   1505471.35546   1183804.83644
                  24178149.0634                                   24178145.8834
                                                                        40.7504
        27.2504
 09 10 28 23 39 30.0000000  0  9G02G04G05G10G13G23G29G16G07
   1198808.67648    955858.34446
                  20814617.5164                                   20814611.2664
                                                                        52.2504
        41.2504
   5156822.57447   4019852.93045
                  23225154.5474                                   23225151.8324
                                                                        46.5004
        30.5004
  -5815419.19148  -4479986.46946
                  21872944.8674                                   21872940.8794
                                                                        50.7504
        39.7504
  -5037626.32448  -3880434.65246
                  21119160.3914                                   21119156.8554
                                                                        51.7504
        39.7504
    588688.76248    483796.17645
                  21448952.2194                                   21448947.5164
                                                                        51.0004
        35.2504
   4479320.42646   3495700.22744
                  23697534.6724                                   23697528.8594
                                                                        41.5004
        26.2504
  -3206783.43048  -2458301.37146
                  22147111.2424                                   22147108.1094
                                                                        49.0004
        37.0004
    304311.00846    275970.14843
                  24046931.6644                                   24046926.6024
                                                                        41.2504
        22.0004
   1324824.19946   1043040.95744
                  24143772.6804                                   24143769.5514
                                                                        41.0004
        26.2504
 09 10 28 23 40  0.0000000  0  9G02G04G05G10G13G23G29G16G07
   1159275.98848    925053.68446
                  20807094.4924                                   20807088.4534
                                                                        52.0004
        41.0004
   5176978.55547   4035558.83245
                  23228990.0474                                   23228987.2664
                                                                        46.0004
        30.2504
  -5982934.53548  -4610517.93746
                  21841067.8134                                   21841064.0004
                                                                        50.2504
        39.2504
  -5188414.86748  -3997932.22346
                  21090466.3054                                   21090462.8284
                                                                        51.5004
        39.5004
    540911.90248    446567.44945
                  21439860.2734                                   21439855.6604
                                                                        50.0004
        35.7504
   4490636.79347   3504518.09044
                  23699687.8754                                   23699682.6214
                                                                        42.0004
        24.5004
  -3322639.46148  -2548578.79346
                  22125064.1804                                   22125060.8284
                                                                        49.5004
        37.2504
    163690.60246    166395.78943
                  24020172.1564                                   24020166.8714
                                                                        39.7504
        20.2504
   1144561.20747    902576.38744
                  24109469.7034                                   24109466.2774
                                                                        43.0004
        24.2504
 09 10 28 23 40 30.0000000  0  9G02G04G05G10G13G23G29G16G07
   1120372.58648    894739.34447
                  20799691.6724                                   20799685.4614
                                                                        51.5004
        42.0004
   5197442.13347   4051504.51644
                  23232884.3364                                   23232880.9454
                                                                        46.5004
        29.7504
  -6149991.32848  -4740691.98446
                  21809278.1644                                   21809274.0904
                                                                        51.2504
        39.2504
  -5338636.15248  -4114987.76246
                  21061880.3054                                   21061876.2074
                                                                        51.5004
        39.7504
    493836.89548    409885.60945
                  21430902.3284                                   21430897.9024
                                                                        50.2504
        35.0004
   4502348.29347   3513643.91843
                  23701916.9844                                   23701911.0634
                                                                        42.2504
        23.2504
  -3437824.38748  -2638333.27746
                  22103145.5944                                   22103142.0044
                                                                        49.2504
        37.5004
     23674.97746     57292.66443
                  23993528.1414                                   23993523.2814
                                                                        41.0004
        21.5004
    964682.27747    762411.01244
                  24075240.1954                                   24075236.2304
                                                                        42.7504
        24.5004
 09 10 28 23 41  0.0000000  0  9G02G04G05G10G13G23G29G16G07
   1082098.01648    864914.98046
                  20792408.0944                                   20792402.2934
                                                                        51.7504
        41.5004
   5218211.21547   4067688.22744
                  23236836.9454                                   23236833.0864
                                                                        45.5004
        29.7504
  -6316588.20748  -4870507.75846
                  21777575.7664                                   21777571.5704
                                                                        51.0004
        39.5004
  -5488288.51648  -4231599.98846
                  21033402.3054                                   21033398.2624
                                                                        51.5004
        40.2504
    447462.66048    373749.84045
                  21422077.7424                                   21422072.9614
                                                                        49.2504
        35.2504
   4514452.54347   3523075.83244
                  23704220.4454                                   23704214.3954
                                                                        42.0004
        24.0004
  -3552336.35548  -2727563.38346
                  22081354.5474                                   22081350.9264
                                                                        50.0004
        37.5004
   -115732.80546    -51336.73843
                  23966999.6954                                   23966994.5514
                                                                        41.0004
        22.5004
    785190.52747    622547.34844
                  24041084.0784                                   24041079.2114
                                                                        44.0004
        24.5004
 09 10 28 23 41 30.0000000  0  9G02G04G05G10G13G23G29G16G07
   1044450.88748    835579.57446
                  20785244.1954                                   20785238.1994
                                                                        52.5004
        41.7504
   5239283.49647   4084108.19144
                  23240846.4774                                   23240843.0864
                                                                        45.7504
        28.5004
  -6482723.05548  -4999963.50046
                  21745961.1884                                   21745956.9654
                                                                        50.7504
        39.7504
  -5637370.28148  -4347767.58246
                  21005033.0784                                   21005029.2074
                                                                        52.0004
        39.7504
    401786.94148    338158.35945
                  21413385.6884                                   21413381.5124
                                                                        49.5004
        35.0004
   4526946.94147   3532811.72743
                  23706597.6484                                   23706590.8834
                                                                        42.2504
        22.7504
  -3666174.66048  -2816268.55146
                  22059692.0314                                   22059688.2114
                                                                        49.2504
        37.5004
   -254531.07446   -159491.21943
                  23940587.8284                                   23940582.8634
                                                                        41.5004
        22.0004
    606088.92247    482987.71944
                  24007002.1804                                   24006997.8874
                                                                        44.2504
        25.7504
 09 10 28 23 42  0.0000000  0  9G02G04G05G10G13G23G29G16G07
   1007424.39848    806727.77746
                  20778198.2344                                   20778192.4694
                                                                        51.5004
        41.2504
   5260651.76647   4100758.73844
                  23244912.4614                                   23244909.5434
                                                                        43.5004
        29.2504
  -6648399.49648  -5129061.97346
                  21714434.1724                                   21714429.6804
                                                                        50.2504
        39.5004
  -5785885.28148  -4463493.58246
                  20976771.6174                                   20976767.9384
                                                                        51.5004
        40.0004
    356802.94948    303105.89545
                  21404825.3204                                   21404820.8014
                                                                        49.0004
        34.7504
   4539823.21947   3542845.18043
                  23709048.0314                                   23709041.4694
                                                                        42.0004
        22.2504
  -3779344.00048  -2904452.44946
                  22038156.3134                                   22038152.4224
                                                                        49.2504
        38.0004
   -392723.53146   -267173.63743
                  23914290.1644                                   23914285.6294
                                                                        40.7504
        22.5004
    427375.15647    343730.19144
                  23972994.5084                                   23972989.6724
                                                                        45.0004
        26.0004
 09 10 28 23 42 30.0000000  0  9G02G04G05G10G13G23G29G16G07
    971019.04348    778359.97746
                  20771270.4774                                   20771264.2344
                                                                        52.2504
        41.2504
   5282315.30547   4117639.36744
                  23249035.2424                                   23249031.9454
                                                                        44.5004
        29.0004
  -6813613.96148  -5257800.53546
                  21682994.6334                                   21682990.5474
                                                                        50.7504
        40.0004
  -5933830.28948  -4578775.41846
                  20948618.6174                                   20948614.6604
                                                                        51.7504
        40.0004
    312511.03948    268592.70745
                  21396397.0084                                   21396392.2194
                                                                        50.0004
        34.5004
   4553080.67247   3553175.68043
                  23711571.0554                                   23711564.1024
                                                                        43.2504
        22.5004
  -3891841.28948  -2992112.68446
                  22016749.0234                                   22016745.2664
                                                                        49.7504
        37.5004
   -530306.30546   -374380.98043
                  23888108.3674                                   23888104.5704
                                                                        39.5004
        21.7504
    249053.71947    204778.56344
                  23939060.7194                                   23939056.5274
                                                                        44.0004
        26.5004
 09 10 28 23 43  0.0000000  0  9G02G04G05G10G13G23G29G16G07
    935229.67248    750472.13746
                  20764460.0864                                   20764453.8794
                                                                        51.7504
        41.5004
   5304268.35947   4134745.60945
                  23253212.9534                                   23253209.9224
                                                                        45.2504
        30.5004
  -6978368.60948  -5386180.79346
                  21651643.3364                                   21651639.0354
                                                                        50.0004
        39.2504
  -6081207.54348  -4693614.84846
                  20920573.6414                                   20920570.0164
                                                                        51.2504
        39.5004
    268905.28548    234614.18845
                  21388099.0944                                   21388094.5864
                                                                        49.2504
        35.0004
   4566712.78946   3563798.14543
                  23714164.9774                                   23714158.8674
                                                                        40.5004
        22.5004
  -4003669.53548  -3079251.56646
                  21995468.4304                                   21995464.7194
                                                                        49.7504
        38.0004
   -667281.75846   -481115.05943
                  23862042.8134                                   23862039.1024
                                                                        39.0004
        21.5004
     71123.44547     66131.65244
                  23905200.8984                                   23905197.6484
                                                                        42.5004
        25.2504
 09 10 28 23 43 30.0000000  0  9G02G04G05G10G13G23G29G16G07
    900051.29748    723060.39546
                  20757765.8914                                   20757759.4344
                                                                        51.2504
        41.5004
   5326504.56647   4152072.46945
                  23257444.4224                                   23257441.5164
                                                                        44.0004
        30.0004
  -7142665.82448  -5514204.55146
                  21620378.3134                                   21620374.1724
                                                                        50.0004
        39.7504
  -6228019.44548  -4808013.74246
                  20892636.4064                                   20892632.2814
                                                                        51.2504
        40.0004
    225980.37948    201166.22745
                  21379931.2274                                   21379926.5124
                                                                        49.0004
        34.7504
   4580713.00846   3574707.37543
                  23716828.6564                                   23716822.7504
                                                                        40.5004
        22.7504
  -4114831.47348  -3165871.23846
                  21974315.1174                                   21974311.3634
                                                                        49.2504
        37.2504
   -803651.40246   -587377.03543
                  23836092.5394                                   23836088.7384
                                                                        37.2504
        22.0004
   -106416.11746    -72210.71944
                  23871416.2734                                   23871413.1294
                                                                        41.5004
        25.7504
 09 10 28 23 44  0.0000000  0  9G02G04G05G10G13G23G29G16G07
    865483.93448    696124.77746
                  20751187.8674                                   20751181.5204
                                                                        51.5004
        41.0004
   5349023.25047   4169619.46144
                  23261729.4534                                   23261726.4884
                                                                        45.5004
        29.2504
  -7306502.42648  -5641869.42246
                  21589201.4844                                   21589197.4344
                                                                        50.0004
        40.2504
  -6374263.82848  -4921970.35246
                  20864807.2274                                   20864803.3324
                                                                        51.5004
        40.0004
    183735.46148    168248.11345
                  21371892.1094                                   21371887.3594
                                                                        48.5004
        35.2504
   4595079.31346   3585901.86344
                  23719562.8444                                   23719557.0084
                                                                        41.5004
        25.0004
  -4225325.35548  -3251970.36346
                  21953288.7114                                   21953285.4264
                                                                        50.0004
        37.5004
   -939412.93746   -693165.24244
                  23810258.1174                                   23810254.3244
                                                                        40.2504
        24.5004
   -283561.63747   -210246.06644
                  23837706.6564                                   23837703.4344
                                                                        42.5004
        26.2504
 09 10 28 23 44 30.0000000  0  9G02G04G05G10G13G23G29G16G07
    831522.68448    669661.45346
                  20744725.3054                                   20744718.8834
                                                                        52.0004
        41.2504
   5371818.77047   4187382.23844
                  23266067.5554                                   23266064.4144
                                                                        43.7504
        29.0004
  -7469880.16048  -5769176.70746
                  21558111.5634                                   21558107.5864
                                                                        49.0004
        40.5004
  -6519942.39148  -5035486.09446
                  20837085.0314                                   20837081.5204
                                                                        50.7504
        40.0004
    142165.75048    135856.12145
                  21363981.7664                                   21363977.0944
                                                                        48.2504
        35.2504
   4609806.06647   3597377.25844
                  23722365.5704                                   23722359.2774
                                                                        43.0004
        26.0004
  -4335153.26648  -3337550.54746
                  21932389.3984                                   21932385.1804
                                                                        49.7504
        37.2504
  -1074567.43046   -798480.37144
                  23784539.6884                                   23784535.3484
                                                                        41.0004
        24.7504
   -460313.28147   -347974.54744
                  23804072.2274                                   23804067.8634
                                                                        43.2504
        26.5004
 09 10 28 23 45  0.0000000  0  9G02G04G05G10G13G23G29G16G07
   2373586.72748   1871269.78146
                  21038170.3834                                   21038163.9344
                                                                        52.5004
        41.2504
   6970307.94547   5432958.19944
                  23570249.5164                                   23570246.5234
                                                                        45.5004
        29.0004
  -6057372.22748  -4668521.15646
                  21826902.4224                                   21826898.5164
                                                                        48.7504
        39.7504
  -5089628.53948  -3920955.81646
                  21109264.6644                                   21109260.9804
                                                                        51.0004
        40.0004
   1676690.46148   1331589.66845
                  21655992.1564                                   21655987.3714
                                                                        48.7504
        35.2504
   6200309.55147   4836730.52344
                  24025027.7034                                   24025021.5664
                                                                        43.0004
        25.7504
  -2868891.21548  -2195008.67646
                  22211409.8364                                   22211406.1374
                                                                        50.0004
        37.5004
    366311.35947    324282.30144
                  24058729.4384                                   24058725.3554
                                                                        42.0004
        24.5004
    938757.27047    742210.35544
                  24070306.2814                                   24070302.2734
                                                                        43.0004
        25.7504
 09 10 28 23 45 30.0000000  0  9G02G04G05G10G13G23G29G16G07
   2340832.89848   1845747.32046
                  21031937.4144                                   21031931.6684
                                                                        52.2504
        41.2504
   6993650.22347   5451146.97344
                  23574691.1094                                   23574688.2114
                                                                        44.2504
        27.0004
  -6219827.79348  -4795109.89546
                  21795988.5164                                   21795984.5394
                                                                        49.5004
        39.2504
  -5234170.96948  -4033586.27746
                  21081759.2734                                   21081755.5044
                                                                        50.7504
        40.2504
   1636464.88348   1300245.05145
                  21648337.6414                                   21648333.3324
                                                                        49.0004
        35.5004
   6215748.02747   4848760.46144
                  24027966.1954                                   24027960.0084
                                                                        43.0004
        25.0004
  -2977385.52348  -2279549.68746
                  22190763.8444                                   22190760.2074
                                                                        49.2504
        37.5004
    232375.63346    219916.78943
                  24033242.6174                                   24033238.4654
                                                                        41.5004
        23.2504
    762801.41447    605101.96544
                  24036823.1884                                   24036819.0744
                                                                        43.7504
        27.5004
 09 10 28 23 46  0.0000000  0  9G02G04G05G10G13G23G29G16G07
   2308677.16848   1820690.89846
                  21025818.4534                                   21025812.1214
                                                                        52.5004
        41.2504
   7017258.63747   5469543.10544
                  23579184.1254                                   23579180.7934
                                                                        44.7504
        28.5004
  -6381823.23048  -4921340.09846
                  21765161.5474                                   21765157.5704
                                                                        49.7504
        40.0004
  -5378146.69148  -4145775.12946
                  21054361.9844                                   21054357.9654
                                                                        50.7504
        40.0004
   1596905.04348   1269419.19545
                  21640809.2194                                   21640804.7384
                                                                        49.5004
        34.5004
   6231535.17647   4861062.14143
                  24030970.2194                                   24030964.0434
                                                                        42.0004
        22.5004
  -3085215.29748  -2363572.89146
                  22170244.6334                                   22170240.7504
                                                                        50.0004
        37.7504
     99048.39546    116025.43844
                  24007871.2814                                   24007866.5864
                                                                        41.5004
        25.5004
    587243.82447    468303.89544
                  24003415.5864                                   24003411.7704
                                                                        42.7504
        27.7504
 09 10 28 23 46 30.0000000  0  9G02G04G05G10G13G23G29G16G07
   2277117.80948   1796099.15646
                  21019812.9384                                   21019806.7034
                                                                        52.2504
        41.5004
   7041131.07447   5488144.97344
                  23583727.3444                                   23583723.7114
                                                                        45.7504
        29.0004
  -6543356.77048  -5047210.33646
                  21734422.8054                                   21734418.7584
                                                                        50.0004
        40.0004
  -5521554.84448  -4257521.75446
                  21027071.9304                                   21027068.1174
                                                                        51.7504
        40.0004
   1558008.80548   1239110.42245
                  21633407.8984                                   21633402.8054
                                                                        48.2504
        34.5004
   6247667.71546   4873632.96943
                  24034040.5784                                   24034034.3284
                                                                        39.7504
        19.7504
  -3192380.01248  -2447077.86346
                  22149851.8364                                   22149848.1524
                                                                        50.0004
        37.2504
    -33669.10947     12609.21143
                  23982615.5634                                   23982611.3914
                                                                        42.5004
        22.0004
    412087.30147    331818.28144
                  23970084.2504                                   23970079.9804
                                                                        44.5004
        26.5004
 09 10 28 23 47  0.0000000  0  9G02G04G05G10G13G23G29G16G07
   2246150.32048   1771968.67246
                  21013919.7274                                   21013913.9734
                                                                        52.5004
        41.0004
   7065262.21547   5506948.45344
                  23588319.3284                                   23588315.7774
                                                                        44.5004
        29.7504
  -6704430.70348  -5172722.44946
                  21703771.6884                                   21703767.8754
                                                                        50.5004
        40.5004
  -5664397.07448  -4368827.39546
                  20999889.9614                                   20999886.3714
                                                                        52.0004
        40.2504
   1519771.18047   1209314.87945
                  21626130.9064                                   21626126.4694
                                                                        47.7504
        34.0004
   6264139.53146   4886468.16443
                  24037174.3754                                   24037168.1454
                                                                        38.5004
        19.7504
  -3298881.82048  -2530066.27746
                  22129585.1564                                   22129581.4924
                                                                        49.7504
        37.0004
   -165778.34047    -90333.05543
                  23957476.0234                                   23957471.2424
                                                                        42.2504
        22.5004
    237331.50047    195644.91444
                  23936829.3914                                   23936825.2814
                                                                        42.7504
        26.5004
 09 10 28 23 47 30.0000000  0  9G02G04G05G10G13G23G29G16G07
   2215771.42648   1748296.80146
                  21008139.0944                                   21008133.2034
                                                                        52.2504
        40.7504
   7089648.16447   5525950.46144
                  23592959.7424                                   23592956.8404
                                                                        46.5004
        28.7504
  -6865044.55948  -5297876.08646
                  21673208.1484                                   21673203.6024
                                                                        51.0004
        40.5004
  -5806673.55548  -4479692.19146
                  20972815.6334                                   20972811.8054
                                                                        51.0004
        40.5004
   1482188.97348   1180030.05945
                  21618979.0944                                   21618974.9104
                                                                        48.5004
        34.5004
   6280946.57846   4899564.52743
                  24040372.9774                                   24040366.7464
                                                                        39.7504
        22.5004
  -3404721.96548  -2612539.11746
                  22109444.3674                                   22109440.5164
                                                                        49.5004
        37.0004
   -297278.93747   -192801.07043
                  23932452.6564                                   23932447.7974
                                                                        42.7504
        22.0004
     62977.84446     59784.97344
                  23903650.3594                                   23903646.5984
                                                                        41.2504
        25.2504
 09 10 28 23 48  0.0000000  0  9G02G04G05G10G13G23G29G16G07
   2185979.27348   1725082.11746
                  21002469.8054                                   21002463.9414
                                                                        52.7504
        41.2504
   7114285.93847   5545148.66844
                  23597648.2424                                   23597645.0944
                                                                        45.5004
        29.0004
  -7025197.51648  -5422670.58246
                  21642731.5314                                   21642727.1844
                                                                        50.5004
        40.5004
  -5948384.00448  -4590115.88746
                  20945849.2734                                   20945844.9614
                                                                        50.5004
        40.2504
   1445259.21548   1151253.66045
                  21611952.0234                                   21611947.7234
                                                                        48.5004
        34.2504
   6298085.18847   4912919.31344
                  24043634.4454                                   24043628.9574
                                                                        42.0004
        26.5004
  -3509900.08248  -2694496.09846
                  22089429.6414                                   22089425.8444
                                                                        49.0004
        37.7504
   -428169.86746   -294794.00443
                  23907544.5394                                   23907539.8794
                                                                        41.2504
        20.5004
   -110971.92646    -75760.30544
                  23870548.8054                                   23870544.8054
                                                                        41.5004
        26.0004
 09 10 28 23 48 30.0000000  0  9G02G04G05G10G13G23G29G16G07
   2156770.93448   1702322.33646
                  20996911.5784                                   20996905.5984
                                                                        52.7504
        41.0004
   7139172.23047   5564540.50844
                  23602383.1484                                   23602380.9264
                                                                        44.7504
        28.5004
  -7184889.17248  -5547105.61346
                  21612343.3834                                   21612338.9924
                                                                        50.5004
        40.7504
  -6089528.47748  -4700098.55546
                  20918990.2424                                   20918986.4884
                                                                        51.5004
        40.5004
   1408978.50048   1122982.99645
                  21605047.8444                                   21605043.1994
                                                                        49.2504
        34.2504
   6315551.48047   4926529.42644
                  24046957.9064                                   24046952.6054
                                                                        42.5004
        26.5004
  -3614417.28948  -2775938.08646
                  22069540.7424                                   22069537.0474
                                                                        49.2504
        37.5004
   -558451.19546   -396311.94143
                  23882753.0704                                   23882747.6134
                                                                        41.0004
        19.7504
   -284516.16446   -210989.47344
                  23837524.1644                                   23837520.5824
                                                                        41.5004
        26.2504
 09 10 28 23 49  0.0000000  0  9G02G04G05G10G13G23G29G16G07
   2128143.22748   1680015.03146
                  20991464.1644                                   20991457.9924
                                                                        52.2504
        41.2504
   7164303.27747   5584123.05544
                  23607165.6094                                   23607163.4024
                                                                        44.5004
        27.0004
  -7344119.52348  -5671181.18746
                  21582042.7344                                   21582038.5314
                                                                        50.5004
        40.0004
  -6230106.97748  -4809640.23446
                  20892238.9454                                   20892235.1884
                                                                        51.5004
        41.0004
   1373343.55948   1095215.51245
                  21598266.6484                                   21598262.1764
                                                                        49.2504
        34.0004
   6333340.98047   4940391.37544
                  24050343.7274                                   24050337.8054
                                                                        42.5004
        26.0004
  -3718274.08248  -2856865.45746
                  22049777.4224                                   22049773.7544
                                                                        49.0004
        38.2504
   -688122.91846   -497354.83243
                  23858076.7664                                   23858071.8794
                                                                        40.7504
        19.5004
   -457653.41047   -345901.46944
                  23804577.4304                                   23804573.5044
                                                                        42.7504
        27.5004
 09 10 28 23 49 30.0000000  0  9G02G04G05G10G13G23G29G16G07
   2100095.88348   1658159.93846
                  20986126.9614                                   20986121.1094
                                                                        53.0004
        40.7504
   7189677.99247   5603895.44544
                  23611994.9064                                   23611991.6564
                                                                        44.7504
        26.7504
  -7502885.60248  -5794894.99246
                  21551830.5784                                   21551826.4654
                                                                        50.5004
        40.5004
  -6370116.99648  -4918738.94546
                  20865596.0554                                   20865591.8164
                                                                        51.7504
        41.0004
   1338353.60548   1067950.62145
                  21591608.4304                                   21591603.8984
                                                                        48.5004
        33.5004
   6351452.36346   4954504.14844
                  24053789.5394                                   24053783.7814
                                                                        41.5004
        24.2504
  -3821468.83648  -2937276.95346
                  22030140.1564                                   22030136.5594
                                                                        49.5004
        38.0004
   -817181.91846   -597920.32843
                  23833518.5234                                   23833512.8324
                                                                        40.7504
        20.7504
   -630379.96147   -480493.52044
                  23771709.7424                                   23771705.2544
                                                                        44.7504
        29.5004
 09 10 28 23 50  0.0000000  0  9G02G04G05G10G13G23G29G16G07
   2072624.07448   1636753.33246
                  20980899.1414                                   20980893.2774
                                                                        52.5004
        40.7504
   7215290.68847   5623853.29344
                  23616868.9224                                   23616865.1604
                                                                        45.2504
        27.5004
  -7661188.87548  -5918248.16846
                  21521706.2974                                   21521702.5474
                                                                        50.5004
        40.2504
  -6509560.11748  -5027395.92646
                  20839061.0634                                   20839056.9924
                                                                        51.5004
        39.7504
   1304003.24248   1041184.11345
                  21585071.5394                                   21585067.4694
                                                                        48.5004
        34.5004
   6369879.57846   4968863.09043
                  24057296.2664                                   24057290.4064
                                                                        40.7504
        21.2504
  -3924003.43048  -3017174.05546
                  22010628.4224                                   22010624.9574
                                                                        49.0004
        37.2504
   -945630.38746   -698010.00843
                  23809074.9384                                   23809070.5664
                                                                        40.2504
        21.7504
   -802696.44147   -614766.03145
                  23738918.6484                                   23738914.2114
                                                                        45.2504
        31.0004
 09 10 28 23 50 30.0000000  0  9G02G04G05G10G13G23G29G16G07
   2045723.86748   1615792.13746
                  20975780.2194                                   20975774.1484
                                                                        51.7504
        41.0004
   7241137.01247   5643993.19144
                  23621787.5944                                   23621783.4064
                                                                        45.7504
        27.7504
  -7819030.91048  -6041241.95346
                  21491670.0474                                   21491665.5354
                                                                        50.7504
        40.2504
  -6648438.11348  -5135612.54746
                  20812633.3364                                   20812629.3054
                                                                        50.7504
        40.7504
   1270288.18448   1014912.65245
                  21578656.0004                                   21578651.6334
                                                                        49.0004
        33.7504
   6388617.36346   4983464.02742
                  24060861.4844                                   24060855.8054
                                                                        39.7504
        17.7504
  -4025880.39148  -3096558.70746
                  21991242.0704                                   21991238.3134
                                                                        49.0004
        37.0004
  -1073468.83246   -797624.38343
                  23784748.7664                                   23784744.0634
                                                                        41.5004
        22.0004
   -974602.34047   -748718.64144
                  23706206.2894                                   23706201.4534
                                                                        42.5004
        29.7504
 09 10 28 23 51  0.0000000  0  9G02G04G05G10G13G23G29G16G07
   2019396.82448   1595277.55946
                  20970770.2584                                   20970764.4104
                                                                        51.7504
        40.7504
   7267218.07047   5664316.06644
                  23626750.9774                                   23626747.3914
                                                                        44.5004
        28.0004
  -7976406.51248  -6163872.28146
                  21461722.6174                                   21461718.4774
                                                                        50.7504
        41.0004
  -6786746.17248  -5243385.05146
                  20786313.8594                                   20786310.2114
                                                                        51.2504
        40.5004
   1237209.20348    989136.80545
                  21572361.0394                                   21572356.6094
                                                                        49.5004
        34.5004
   6407666.08246   4998307.29743
                  24064486.5164                                   24064479.7934
                                                                        41.0004
        19.2504
  -4127096.05148  -3175428.05146
                  21971981.5164                                   21971977.8204
                                                                        49.0004
        37.5004
  -1200693.13747   -896760.19543
                  23760538.8284                                   23760534.8054
                                                                        42.0004
        23.7504
  -1146091.99247   -882346.91444
                  23673571.8054                                   23673567.8244
                                                                        43.5004
        28.0004
 09 10 28 23 51 30.0000000  0  9G02G04G05G10G13G23G29G16G07
   1993638.22748   1575205.92646
                  20965868.5164                                   20965862.8054
                                                                        52.0004
        40.7504
   7293528.44147   5684817.60244
                  23631756.9064                                   23631754.3324
                                                                        42.7504
        27.2504
  -8133316.99248  -6286140.19946
                  21431863.6804                                   21431858.9654
                                                                        51.0004
        40.2504
  -6924485.80948  -5350714.61746
                  20760102.9844                                   20760099.5084
                                                                        52.5004
        40.2504
   1204761.63748    963852.98845
                  21566187.1484                                   21566182.4534
                                                                        49.2504
        34.7504
   6427020.27347   5013388.53943
                  24068169.5944                                   24068162.5274
                                                                        42.0004
        20.0004
  -4227652.24248  -3253783.53146
                  21952846.0084                                   21952842.6054
                                                                        49.0004
        37.2504
  -1327304.06247   -995418.12144
                  23736445.1334                                   23736441.0984
                                                                        42.0004
        25.0004
  -1317165.25447  -1015650.60244
                  23641017.8444                                   23641014.1024
                                                                        43.0004
        27.2504
 09 10 28 23 52  0.0000000  0  9G02G04G05G10G13G23G29G16G07
   1968443.96548   1555574.02746
                  20961074.2894                                   20961068.3674
                                                                        52.0004
        41.0004
   7320063.32046   5705494.05144
                  23636806.2194                                   23636804.3754
                                                                        41.5004
        28.2504
  -8289763.92248  -6408046.89146
                  21402092.6414                                   21402088.4304
                                                                        50.5004
        40.5004
  -7061658.93048  -5457602.76246
                  20733999.5944                                   20733995.8204
                                                                        52.0004
        40.2504
   1172940.55548    939057.35545
                  21560131.1724                                   21560126.7584
                                                                        49.0004
        34.0004
   6446674.03147   5028703.16843
                  24071909.6484                                   24071903.2584
                                                                        43.7504
        23.7504
  -4327551.87548  -3331627.40646
                  21933835.7734                                   21933832.1024
                                                                        49.7504
        38.0004
  -1453302.88746  -1093598.99244
                  23712468.3674                                   23712463.7934
                                                                        41.5004
        26.0004
  -1487822.52047  -1148630.18444
                  23608542.2274                                   23608538.5004
                                                                        42.0004
        27.5004
 09 10 28 23 52 30.0000000  0  9G02G04G05G10G13G23G29G16G07
   1943813.85548   1536381.72346
                  20956387.2424                                   20956381.3954
                                                                        52.0004
        41.0004
   7346821.98846   5726344.89844
                  23641898.6954                                   23641895.4964
                                                                        41.7504
        27.5004
  -8445743.84848  -6529589.68446
                  21372410.6884                                   21372406.5634
                                                                        49.2504
        40.5004
  -7198262.78148  -5564047.31246
                  20708004.7734                                   20708001.0864
                                                                        52.0004
        41.0004
   1141745.35548    914749.41045
                  21554195.0864                                   21554190.4494
                                                                        49.0004
        33.5004
   6466626.22747   5044250.34444
                  24075706.3284                                   24075700.2274
                                                                        42.2504
        26.0004
  -4426792.89148  -3408958.06646
                  21914950.8204                                   21914947.3014
                                                                        48.5004
        38.5004
  -1578687.19146  -1191301.05944
                  23688608.8444                                   23688604.9964
                                                                        41.2504
        25.5004
  -1658059.04746  -1281281.94144
                  23576147.2814                                   23576143.0864
                                                                        41.5004
        25.5004
 09 10 28 23 53  0.0000000  0  8G02G04G05G10G13G29G16G07
   1919746.30948   1517627.78546
                  20951807.4384                                   20951801.7894
                                                                        51.2504
        40.5004
   7373802.16847   5747368.37144
                  23647032.7274                                   23647030.0984
                                                                        43.2504
        26.5004
  -8601255.27048  -6650767.40646
                  21342817.7974                                   21342813.4964
                                                                        50.5004
        40.7504
  -7334296.51248  -5670047.60946
                  20682118.9064                                   20682114.8524
                                                                        52.2504
        41.0004
   1111174.00048    890927.57845
                  21548377.7274                                   21548373.1724
                                                                        48.7504
        34.0004
  -4525374.30948  -3485774.77046
                  21896191.2034                                   21896187.8404
                                                                        48.7504
        38.2504
  -1703455.04747  -1288522.76644
                  23664866.9454                                   23664862.3484
                                                                        42.0004
        24.0004
  -1827872.63747  -1413604.22344
                  23543833.0004                                   23543828.5314
                                                                        42.7504
        26.0004
 09 10 28 23 53 30.0000000  0  8G02G04G05G10G13G29G16G07
   1896237.36348   1499309.12546
                  20947333.7814                                   20947328.1054
                                                                        52.0004
        41.0004
   7400999.36347   5768560.99644
                  23652208.7734                                   23652205.4494
                                                                        43.7504
        26.7504
  -8756298.93048  -6771580.64146
                  21313313.8754                                   21313309.8954
                                                                        49.7504
        40.7504
  -7469760.87548  -5775604.27046
                  20656340.7734                                   20656336.6414
                                                                        52.0004
        41.0004
   1081221.91448    867588.21545
                  21542677.9614                                   21542673.2304
                                                                        49.0004
        33.2504
  -4623298.00448  -3562078.96946
                  21877557.1094                                   21877553.6134
                                                                        48.5004
        38.0004
  -1827607.39847  -1385264.88344
                  23641241.0474                                   23641236.6994
                                                                        42.2504
        26.0004
  -1997262.80147  -1545596.57844
                  23511599.7814                                   23511594.9184
                                                                        44.5004
        27.2504
 09 10 28 23 54  0.0000000  0  8G02G04G05G10G13G29G16G07
   1873289.04348   1481427.29746
                  20942966.8524                                   20942960.5944
                                                                        51.5004
        40.7504
   7428415.28947   5789924.06644
                  23657425.3444                                   23657422.1844
                                                                        43.5004
        26.0004
  -8910869.54748  -6892025.27046
                  21283900.0164                                   21283895.7734
                                                                        50.0004
        40.5004
  -7604650.90648  -5880713.38746
                  20630672.0474                                   20630668.2974
                                                                        51.7504
        41.2504
   1051890.91448    844732.87145
                  21537096.1174                                   21537091.7304
                                                                        48.2504
        33.0004
  -4720559.86348  -3637867.45746
                  21859049.1644                                   21859045.3524
                                                                        48.7504
        38.5004
  -1951138.97347  -1481523.24244
                  23617733.6414                                   23617729.5354
                                                                        43.0004
        25.0004
  -2166222.48047  -1677253.44544
                  23479448.0164                                   23479443.3324
                                                                        43.7504
        27.7504
 09 10 28 23 54 30.0000000  0  8G02G04G05G10G13G29G16G07
   3426322.19948   2691583.01646
                  21238499.3754                                   21238493.2074
                                                                        51.2504
        40.5004
   9031468.66047   7039056.54744
                  23962475.7274                                   23962473.2234
                                                                        43.0004
        25.7504
  -7489538.45748  -5784494.55546
                  21554370.5704                                   21554366.0434
                                                                        50.2504
        41.0004
  -6163538.77048  -4757768.86346
                  20904906.3134                                   20904902.9734
                                                                        52.5004
        41.0004
   2598601.54748   2049961.90645
                  21831425.7894                                   21831420.8914
                                                                        49.0004
        33.2504
  -3241734.43748  -2485535.94546
                  22140460.7034                                   22140456.4414
                                                                        48.5004
        37.7504
   -498622.86747   -349692.50444
                  23894138.2734                                   23894133.8244
                                                                        42.7504
        24.5004
   -759322.05547   -580967.34444
                  23747171.6564                                   23747167.5824
                                                                        44.2504
        29.5004
 09 10 28 23 55  0.0000000  0  8G02G04G05G10G13G29G16G07
   3404489.75448   2674570.72346
                  21234344.8054                                   21234338.6024
                                                                        51.5004
        40.5004
   9059315.09047   7060755.02744
                  23967774.7894                                   23967772.0514
                                                                        43.0004
        26.2504
  -7643158.41848  -5904198.41046
                  21525137.5864                                   21525133.2854
                                                                        49.5004
        40.7504
  -6297276.28948  -4861979.91446
                  20879456.9384                                   20879453.0434
                                                                        51.7504
        40.5004
   2570506.04348   2028069.27745
                  21826079.0084                                   21826074.8484
                                                                        49.0004
        33.7504
  -3337671.37147  -2560292.00046
                  22122203.5084                                   22122199.8874
                                                                        47.7504
        38.2504
   -620909.80946   -444981.03544
                  23870867.5394                                   23870863.1764
                                                                        41.7504
        24.5004
   -927413.93447   -711948.00444
                  23715184.8914                                   23715180.7034
                                                                        44.7504
        29.5004
 09 10 28 23 55 30.0000000  0  8G02G04G05G10G13G29G16G07
   3383206.66048   2657986.49246
                  21230294.8834                                   21230288.5474
                                                                        51.5004
        40.2504
   9087367.37547   7082613.95344
                  23973112.7814                                   23973110.7974
                                                                        42.2504
        26.5004
  -7796307.02348  -6023534.97746
                  21495994.0394                                   21495989.9534
                                                                        50.2504
        41.5004
  -6430442.05548  -4965745.43746
                  20854116.6334                                   20854112.6524
                                                                        52.0004
        40.5004
   2543018.77048   2006650.59045
                  21820848.9304                                   21820844.3404
                                                                        49.0004
        33.5004
  -3432951.81248  -2634536.50046
                  22104072.6254                                   22104069.1604
                                                                        48.5004
        38.0004
   -742578.26646   -539787.61344
                  23847714.3984                                   23847710.7034
                                                                        41.2504
        25.5004
  -1095073.79347   -842592.05545
                  23683280.4144                                   23683276.0354
                                                                        45.0004
        30.0004
 09 10 28 23 56  0.0000000  0  8G02G04G05G10G13G29G16G07
   3362466.77348   2641825.53946
                  21226348.0944                                   21226341.7774
                                                                        50.5004
        40.2504
   9115618.69147   7104627.91844
                  23978489.9924                                   23978487.2974
                                                                        43.2504
        27.2504
  -7948987.31648  -6142506.62546
                  21466940.1884                                   21466935.9924
                                                                        50.5004
        41.0004
  -6563039.69148  -5069068.27346
                  20828883.8444                                   20828880.4064
                                                                        52.2504
        41.0004
   2516132.66848   1985700.37545
                  21815732.4774                                   21815728.2504
                                                                        50.0004
        33.5004
  -3527579.63348  -2708272.44946
                  22086065.4534                                   22086061.7894
                                                                        48.5004
        37.5004
   -863631.57847   -634114.88743
                  23824679.3134                                   23824674.2384
                                                                        42.0004
        23.0004
  -1262303.66847   -972901.00444
                  23651457.1724                                   23651453.1214
                                                                        43.0004
        28.5004
 09 10 28 23 56 30.0000000  0  8G02G04G05G10G13G29G16G07
   3342266.86748   2626085.36346
                  21222504.0314                                   21222498.0784
                                                                        51.0004
        40.0004
   9144065.47347   7126794.19144
                  23983902.7974                                   23983900.1764
                                                                        43.2504
        27.2504
  -8101199.23848  -6261113.32046
                  21437975.1644                                   21437971.1764
                                                                        50.5004
        40.7504
  -6695069.44948  -5171948.60246
                  20803759.6254                                   20803755.6844
                                                                        52.0004
        41.5004
   2489844.56648   1965216.12145
                  21810730.4224                                   21810725.5434
                                                                        49.5004
        34.0004
  -3621556.10547  -2781500.86346
                  22068182.3524                                   22068178.5664
                                                                        47.5004
        38.0004
   -984070.02046   -727963.07043
                  23801760.7424                                   23801755.2074
                                                                        41.5004
        22.2504
  -1429102.17247  -1102873.82044
                  23619716.6254                                   23619712.6294
                                                                        42.5004
        27.5004
 09 10 28 23 57  0.0000000  0  8G02G04G05G10G13G29G16G07
   3322602.21948   2610762.25446
                  21218761.9454                                   21218756.0984
                                                                        51.2504
        40.2504
   9172702.86747   7149109.02344
                  23989352.3444                                   23989349.6374
                                                                        43.5004
        25.7504
  -8252943.81648  -6379355.84446
                  21409099.3134                                   21409095.2584
                                                                        50.5004
        41.2504
  -6826533.13748  -5274387.83246
                  20778742.6564                                   20778739.0124
                                                                        52.0004
        40.5004
   2464149.58648   1945194.05945
                  21805840.3364                                   21805835.9964
                                                                        49.0004
        33.7504
  -3714883.39847  -2854223.43446
                  22050422.7114                                   22050419.3014
                                                                        47.7504
        37.0004
  -1103894.93046   -821333.10543
                  23778958.5784                                   23778952.9774
                                                                        40.5004
        22.0004
  -1595469.55547  -1232510.68744
                  23588057.7194                                   23588053.4844
                                                                        43.2504
        29.5004
 09 10 28 23 57 30.0000000  0  8G02G04G05G10G13G29G16G07
   3303471.62548   2595855.30946
                  21215121.7344                                   21215115.7074
                                                                        51.5004
        40.2504
   9201528.86347   7171570.83644
                  23994837.7814                                   23994834.4804
                                                                        44.0004
        26.0004
  -8404219.40648  -6497232.92646
                  21380312.3054                                   21380308.1174
                                                                        50.7504
        41.0004
  -6957429.13748  -5376384.69546
                  20753833.9384                                   20753830.0594
                                                                        52.5004
        41.0004
   2439045.39848   1925632.34845
                  21801063.4614                                   21801058.4844
                                                                        49.5004
        33.5004
  -3807561.29348  -2926439.95746
                  22032786.8914                                   22032783.2344
                                                                        49.0004
        38.2504
  -1223104.87946   -914224.05543
                  23756273.7734                                   23756268.4734
                                                                        41.0004
        22.0004
  -1761402.71547  -1361809.19944
                  23556481.9144                                   23556477.7194
                                                                        43.0004
        29.2504
 09 10 28 23 58  0.0000000  0  8G02G04G05G10G13G29G16G07
   3284871.96548   2581362.07446
                  21211582.2894                                   21211576.4924
                                                                        51.0004
        40.2504
   9230540.02747   7194176.89844
                  24000358.5084                                   24000355.0784
                                                                        44.7504
        24.7504
  -8555025.62548  -6614744.26246
                  21351614.6804                                   21351610.7544
                                                                        50.5004
        40.7504
  -7087757.87948  -5477939.56246
                  20729033.2664                                   20729029.1764
                                                                        52.0004
        40.0004
   2414528.68848   1906528.40645
                  21796397.8674                                   21796393.3364
                                                                        49.5004
        33.5004
  -3899590.48848  -2998151.01646
                  22015274.4774                                   22015270.1374
                                                                        48.2504
        37.7504
  -1341699.72746  -1006635.65643
                  23733705.9454                                   23733700.8714
                                                                        39.7504
        22.0004
  -1926900.49247  -1490768.48044
                  23524988.7424                                   23524984.2894
                                                                        44.0004
        29.2504
 09 10 28 23 58 30.0000000  0  8G02G04G05G10G13G29G16G07
   3266800.89848   2567280.71946
                  21208143.5704                                   21208137.4774
                                                                        51.7504
        40.2504
   9259733.19547   7216924.51244
                  24005913.7504                                   24005910.5704
                                                                        44.7504
        26.0004
  -8705361.85248  -6731889.36346
                  21323006.6174                                   21323002.6374
                                                                        50.7504
        40.7504
  -7217518.73448  -5579051.93046
                  20704340.7814                                   20704336.9534
                                                                        52.2504
        41.2504
   2390596.75448   1887880.14845
                  21791843.7034                                   21791839.4804
                                                                        49.7504
        33.0004
  -3990971.00848  -3069356.60946
                  21997884.7194                                   21997881.2034
                                                                        49.0004
        38.2504
  -1459678.57446  -1098567.22343
                  23711255.2274                                   23711250.2194
                                                                        39.0004
        21.5004
  -2091960.22347  -1619386.42644
                  23493579.1804                                   23493574.1804
                                                                        44.0004
        29.0004
 09 10 28 23 59  0.0000000  0  8G02G04G05G10G13G29G16G07
   3249258.12548   2553611.03946
                  21204804.9924                                   21204798.9184
                                                                        51.2504
        40.0004
   9289107.91447   7239813.45744
                  24011503.5704                                   24011501.1954
                                                                        43.0004
        24.5004
  -8855225.00048  -6848665.84046
                  21294488.8204                                   21294484.3444
                                                                        51.2504
        41.0004
  -7346708.87948  -5679719.57846
                  20679756.5944                                   20679752.6094
                                                                        51.2504
        40.5004
   2367248.44148   1869686.64845
                  21787400.9224                                   21787396.3244
                                                                        49.2504
        32.5004
  -4081701.75048  -3140055.88346
                  21980619.5084                                   21980615.4414
                                                                        49.5004
        37.5004
  -1577039.25846  -1190017.10243
                  23688922.2734                                   23688917.5904
                                                                        41.0004
        22.0004
  -2256578.19947  -1747660.19944
                  23462253.1094                                   23462248.2774
                                                                        44.2504
        28.5004
 09 10 28 23 59 30.0000000  0  8G02G04G05G10G13G29G16G07
   3232241.01248   2540350.93046
                  21201566.7504                                   21201560.9804
                                                                        51.7504
        40.0004
   9318662.06647   7262842.51244
                  24017127.5314                                   24017125.7624
                                                                        42.0004
        25.0004
  -9004614.04348  -6965072.87546
                  21266060.9224                                   21266056.8094
                                                                        51.0004
        41.2504
  -7475328.44548  -5779942.62546
                  20655281.1094                                   20655276.9574
                                                                        51.7504
        40.7504
   2344480.69948   1851945.54745
                  21783068.2274                                   21783063.7274
                                                                        49.5004
        33.0004
  -4171782.62548  -3210248.76646
                  21963477.8364                                   21963473.7704
                                                                        50.0004
        38.0004
  -1693781.14146  -1280984.78544
                  23666707.1174                                   23666701.8834
                                                                        41.2504
        24.0004
  -2420752.62147  -1875588.34044
                  23431011.7734                                   23431007.0514
                                                                        44.5004
        28.7504
