     2.11           OBSERVATION DATA    G (GPS)             RINEX VERSION / TYPE
teqc  2019Feb25                         20221121 12:28:33UTCPGM / RUN BY / DATE
OSX ker:10.11.6|Core i5|gcc 4.3 -m64|OSX ker:10.10+|=+      COMMENT
BIT 2 OF LLI FLAGS DATA COLLECTED UNDER A/S CONDITION       COMMENT
04712931                                                    MARKER NAME
2931                                                        MARKER NUMBER
-Unknown-           -Unknown-                               OBSERVER / AGENCY
0220400471          TRIMBLE R7          2.30                REC # / TYPE / VERS
-Unknown-           TRM39105.00     NONE                    ANT # / TYPE
  1449459.5963 -1709242.1988  5952441.3882                  APPROX POSITION XYZ
        0.0000        0.0000        0.0000                  ANTENNA: DELTA H/E/N
     1     1                                                WAVELENGTH FACT L1/2
    20    L1    L2    L5    L6    L7    L8    C1    P1    C2# / TYPES OF OBSERV
          P2    C5    C6    C7    C8    S1    S2    S5    S6# / TYPES OF OBSERV
          S7    S8                                          # / TYPES OF OBSERV
    30.0000                                                 INTERVAL
    15                                                      LEAP SECONDS
Forced Modulo Decimation to 30 seconds                      COMMENT
 SNR is mapped to RINEX snr flag value [0-9]                COMMENT
  L1 & L2: min(max(int(snr_dBHz/6), 0), 9)                  COMMENT
teqc edited: Beidou # 1 - 37 excluded                       COMMENT
  2009    10    20    23    11    0.0000000     GPS         TIME OF FIRST OBS
                                                            END OF HEADER
 09 10 20 23 11  0.0000000  0  9G02G04G05G10G13G23G29G30G31
   -245393.81658   -162499.32057
                  20658654.3134                                   20658647.8834
                                                                        51.0004
        42.5004
    -71935.69958    -47282.73056
                  21282372.8984                                   21282369.2074
                                                                        51.2504
        40.2504
   -400542.91857   -247977.03554
                  24338605.4774                                   24338601.4574
                                                                        43.7504
        27.2504
   -413687.26257   -271908.67254
                  23414166.7424                                   23414162.3834
                                                                        43.7504
        29.7504
   -283573.23458   -184109.93056
                  21606030.5704                                   21606025.8834
                                                                        50.5004
        36.2504
   -114863.40658    -74642.88355
                  22148972.4844                                   22148966.5904
                                                                        48.5004
        34.2504
   -373590.63757   -243965.40254
                  23724226.6174                                   23724222.6564
                                                                        44.2504
        28.7504
    -53171.91457    -35258.82854
                  23366538.5704                                   23366535.2384
                                                                        44.0004
        27.2504
    -66448.59056    -41139.56254
                  24396969.9534                                   24396965.4804
                                                                        41.0004
        25.2504
 09 10 20 23 11 30.0000000  0  9G02G04G05G10G13G23G29G30G31
   -366919.94948   -257195.06247
                  20635528.7894                                   20635522.6644
                                                                        51.5004
        43.0004
   -107894.32848    -75302.42646
                  21275530.2114                                   21275526.4774
                                                                        52.2504
        40.5004
   -611810.97747   -412601.52044
                  24298402.4304                                   24298397.9384
                                                                        44.0004
        27.2504
   -622350.11747   -434503.12544
                  23374459.5634                                   23374455.4304
                                                                        42.7504
        29.2504
   -423877.53148   -293437.95746
                  21579331.5864                                   21579327.0474
                                                                        50.7504
        36.0004
   -171764.84048   -118981.72345
                  22138144.7424                                   22138138.5004
                                                                        48.5004
        34.0004
   -560691.15247   -389757.98844
                  23688621.9454                                   23688619.0394
                                                                        44.0004
        29.5004
    -79994.45347    -56159.61744
                  23361434.2664                                   23361430.7544
                                                                        44.5004
        26.2504
   -101304.26647    -68299.82044
                  24390337.1484                                   24390332.4384
                                                                        42.0004
        24.7504
 09 10 20 23 12  0.0000000  0  9G02G04G05G10G13G23G29G30G31
   -487421.24648   -351092.19147
                  20612598.4694                                   20612591.6294
                                                                        52.2504
        43.2504
   -142914.37548   -102590.74246
                  21268866.2504                                   21268862.0474
                                                                        52.0004
        40.5004
   -822476.44147   -576756.40244
                  24258314.1724                                   24258309.4804
                                                                        44.0004
        27.2504
   -830317.90647   -596555.95744
                  23334884.4454                                   23334880.5634
                                                                        43.0004
        29.7504
   -563088.03148   -401913.67646
                  21552840.8134                                   21552836.0864
                                                                        51.0004
        36.2504
   -227610.92648   -162498.22345
                  22127517.6334                                   22127511.1954
                                                                        49.0004
        33.5004
   -746982.63347   -534920.17244
                  23653172.0164                                   23653169.3444
                                                                        43.7504
        29.5004
   -105837.11347    -76296.87144
                  23356516.7974                                   23356513.2194
                                                                        44.5004
        27.0004
   -135220.82047    -94728.28943
                  24383883.2274                                   24383877.7194
                                                                        43.2504
        23.0004
 09 10 20 23 12 30.0000000  0  9G02G04G05G10G13G23G29G30G31
   -606806.64548   -444119.79747
                  20589879.8444                                   20589873.3914
                                                                        52.0004
        42.7504
   -176907.43448   -129078.80546
                  21262397.2114                                   21262393.6054
                                                                        52.2504
        39.7504
  -1032447.32047   -740370.08644
                  24218357.9924                                   24218353.7934
                                                                        42.2504
        27.7504
  -1037498.69947   -757995.46944
                  23295458.5314                                   23295455.6214
                                                                        42.0004
        29.7504
   -701113.35248   -509465.86345
                  21526575.1954                                   21526570.8484
                                                                        51.0004
        35.7504
   -282313.03948   -205123.32045
                  22117108.3914                                   22117101.6294
                                                                        49.0004
        34.0004
   -932372.37547   -679379.69945
                  23617893.0864                                   23617890.1954
                                                                        43.0004
        30.0004
   -130612.24247    -95602.25444
                  23351802.1564                                   23351798.2774
                                                                        44.2504
        27.0004
   -168110.21547   -120356.30944
                  24377624.5474                                   24377619.2504
                                                                        43.0004
        24.5004
 09 10 20 23 13  0.0000000  0  9G02G04G05G10G13G23G29G30G31
   -725046.04748   -536254.41847
                  20567379.5234                                   20567373.2934
                                                                        52.2504
        42.5004
   -209846.03548   -154745.27346
                  21256128.9924                                   21256125.4964
                                                                        51.2504
        39.7504
  -1241692.53146   -903418.30544
                  24178539.7734                                   24178536.3984
                                                                        40.5004
        28.0004
  -1243860.90647   -918797.19545
                  23256189.1024                                   23256186.1094
                                                                        42.7504
        30.0004
   -837922.62548   -616070.48845
                  21500541.1094                                   21500537.1454
                                                                        51.2504
        35.7504
   -335843.11748   -246835.06245
                  22106921.5474                                   22106915.1724
                                                                        49.7504
        34.2504
  -1116828.50447   -823111.68445
                  23582792.5004                                   23582789.8484
                                                                        43.2504
        30.5004
   -154293.77347   -114055.39144
                  23347295.5474                                   23347291.9654
                                                                        45.0004
        26.5004
   -199945.40646   -145162.94944
                  24371566.5474                                   24371561.2894
                                                                        41.5004
        25.5004
 09 10 20 23 13 30.0000000  0  9G02G04G05G10G13G23G29G30G31
   -842143.73848   -627499.41447
                  20545096.5864                                   20545090.1414
                                                                        52.7504
        42.5004
   -241737.18748   -179595.53946
                  21250060.6414                                   21250056.9384
                                                                        52.0004
        40.2504
  -1450215.08246  -1065903.29344
                  24138858.6174                                   24138855.7544
                                                                        40.0004
        27.7504
  -1449407.43747  -1078963.31645
                  23217075.5864                                   23217071.8554
                                                                        43.7504
        31.0004
   -973519.91448   -721730.69945
                  21474737.9144                                   21474733.5864
                                                                        51.0004
        35.7504
   -388208.37948   -287639.18045
                  22096957.0944                                   22096950.3244
                                                                        48.5004
        33.2504
  -1300353.91847   -966118.45344
                  23547869.0234                                   23547865.9144
                                                                        44.5004
        29.7504
   -176889.69947   -131662.71544
                  23342995.8364                                   23342992.3164
                                                                        44.2504
        27.2504
   -230734.00046   -169154.05144
                  24365708.0634                                   24365702.3594
                                                                        41.2504
        24.2504
 09 10 20 23 14  0.0000000  0  9G02G04G05G10G13G23G29G30G31
   -958117.14548   -717868.35947
                  20523027.5634                                   20523021.5234
                                                                        51.5004
        43.0004
   -272600.89548   -203645.17646
                  21244187.4774                                   21244183.7624
                                                                        51.5004
        40.0004
  -1658031.72347  -1227838.27345
                  24099312.8984                                   24099309.6724
                                                                        42.5004
        30.0004
  -1654154.50847  -1238506.44145
                  23178113.5554                                   23178109.3634
                                                                        44.5004
        31.0004
  -1107921.92648   -826459.53145
                  21449162.3754                                   21449157.7274
                                                                        51.0004
        35.5004
   -439428.87548   -327551.25445
                  22087210.0084                                   22087203.8284
                                                                        50.0004
        34.2504
  -1482964.87147  -1108412.63345
                  23513119.3444                                   23513116.0944
                                                                        43.7504
        30.0004
   -198421.29347   -148440.64844
                  23338897.9774                                   23338895.3134
                                                                        43.7504
        27.5004
   -260496.81646   -192345.85944
                  24360043.4774                                   24360038.6294
                                                                        40.0004
        24.0004
 09 10 20 23 14 30.0000000  0  9G02G04G05G10G13G23G29G30G31
  -1072985.38348   -807376.08647
                  20501168.7034                                   20501162.5474
                                                                        51.7504
        43.5004
   -302458.59448   -226910.91446
                  21238505.8364                                   21238501.9734
                                                                        50.5004
        40.2504
  -1865160.34447  -1389237.10245
                  24059897.6414                                   24059893.8674
                                                                        42.0004
        31.0004
  -1858120.44947  -1397441.06245
                  23139300.1174                                   23139296.3594
                                                                        45.0004
        31.5004
  -1241147.43048   -930271.60945
                  21423810.0554                                   21423805.3834
                                                                        51.0004
        35.7504
   -489525.69148   -366587.71145
                  22077677.0784                                   22077670.3634
                                                                        48.7504
        33.5004
  -1664678.25447  -1250007.42645
                  23478540.5944                                   23478537.0744
                                                                        44.5004
        30.5004
   -218910.96947   -164406.75444
                  23334999.3754                                   23334996.4774
                                                                        44.0004
        26.7504
   -289255.85546   -214755.53144
                  24354570.5394                                   24354566.3674
                                                                        38.0004
        25.2504
 09 10 20 23 15  0.0000000  0  9G02G04G05G10G13G23G29G30G31
  -1186777.80548   -896045.53147
                  20479515.0704                                   20479508.9614
                                                                        52.0004
        42.7504
   -331342.41448   -249417.82846
                  21233009.3204                                   21233005.9924
                                                                        51.2504
        40.0004
  -2071629.24247  -1550121.89545
                  24020608.1724                                   24020603.7934
                                                                        42.5004
        30.0004
  -2061332.50447  -1555788.03944
                  23100629.7504                                   23100625.6954
                                                                        46.0004
        29.7504
  -1373224.97748  -1033189.18045
                  21398676.7274                                   21398671.9734
                                                                        51.0004
        35.5004
   -538530.69948   -404773.40245
                  22068351.6564                                   22068344.6024
                                                                        49.2504
        32.5004
  -1845521.94147  -1390924.53545
                  23444127.1094                                   23444123.2074
                                                                        44.5004
        31.0004
   -238391.85947   -179586.74644
                  23331292.4064                                   23331289.3754
                                                                        43.5004
        26.7504
   -317043.64146   -236408.39143
                  24349282.7424                                   24349278.4694
                                                                        37.0004
        22.5004
 09 10 20 23 15 30.0000000  0  9G02G04G05G10G13G23G29G30G31
  -1299516.35948   -983893.78147
                  20458061.6414                                   20458055.7894
                                                                        52.0004
        43.0004
   -359276.77348   -271184.86346
                  21227693.7194                                   21227689.7854
                                                                        50.7504
        39.5004
  -2277459.60946  -1710509.19944
                  23981439.8134                                   23981435.1094
                                                                        41.5004
        28.2504
  -2263811.87147  -1713564.23044
                  23062099.4454                                   23062095.4494
                                                                        45.7504
        29.5004
  -1504176.48448  -1135229.29346
                  21373757.6804                                   21373752.9384
                                                                        51.2504
        36.2504
   -586468.71148   -442127.66445
                  22059229.0864                                   22059222.5164
                                                                        48.7504
        33.0004
  -2025516.82847  -1531180.28145
                  23409875.2894                                   23409871.0744
                                                                        43.5004
        30.5004
   -256889.85947   -194000.77344
                  23327771.9614                                   23327769.6604
                                                                        45.0004
        26.5004
   -343885.11746   -257323.85944
                  24344175.2034                                   24344171.2154
                                                                        38.5004
        25.5004
 09 10 20 23 16  0.0000000  0  9G02G04G05G10G13G23G29G30G31
  -1411225.44548  -1070939.84047
                  20436804.1334                                   20436797.8674
                                                                        53.0004
        43.2504
   -386288.75848   -292233.16046
                  21222553.6094                                   21222549.8594
                                                                        52.0004
        40.0004
  -2482674.42246  -1870416.84444
                  23942387.9924                                   23942384.1054
                                                                        41.5004
        25.2504
  -2465581.56647  -1870787.47344
                  23023704.1334                                   23023700.0704
                                                                        46.0004
        29.5004
  -1634025.94948  -1236410.69946
                  21349048.0394                                   21349043.3914
                                                                        51.5004
        36.7504
   -633366.63748   -478671.44545
                  22050304.5784                                   22050297.8404
                                                                        49.5004
        33.0004
  -2204685.28147  -1670792.09045
                  23375780.6484                                   23375776.7154
                                                                        43.5004
        30.0004
   -274432.99647   -207670.88344
                  23324434.3054                                   23324431.4694
                                                                        43.5004
        27.7504
   -369808.18746   -277523.68044
                  24339242.2424                                   24339238.5554
                                                                        41.0004
        25.2504
 09 10 20 23 16 30.0000000  0  9G02G04G05G10G13G23G29G30G31
  -1521930.02048  -1157203.15247
                  20415737.5164                                   20415731.6954
                                                                        52.7504
        42.7504
   -412405.78148   -312584.07446
                  21217583.4304                                   21217579.9144
                                                                        51.5004
        40.0004
  -2687297.84446  -2029863.69144
                  23903449.9064                                   23903445.5124
                                                                        40.0004
        28.2504
  -2666665.10247  -2027475.88345
                  22985438.8754                                   22985435.3094
                                                                        45.0004
        31.0004
  -1762797.85548  -1336752.46546
                  21324543.6024                                   21324539.0084
                                                                        51.0004
        36.7504
   -679251.63748   -514425.97345
                  22041573.2424                                   22041566.1414
                                                                        48.7504
        32.7504
  -2383051.13747  -1809778.50444
                  23341838.1804                                   23341835.1844
                                                                        43.5004
        29.2504
   -291049.85247   -220619.25444
                  23321272.0944                                   23321269.5004
                                                                        44.0004
        27.5004
   -394840.96147   -297029.77744
                  24334479.0704                                   24334474.4964
                                                                        42.0004
        25.0004
 09 10 20 23 17  0.0000000  0  9G02G04G05G10G13G23G29G30G31
  -1631651.09448  -1242700.09847
                  20394858.3204                                   20394852.4144
                                                                        52.2504
        42.5004
   -437651.22348   -332255.84846
                  21212779.3984                                   21212775.7544
                                                                        52.0004
        39.7504
  -2891349.22747  -2188864.75444
                  23864620.7504                                   23864616.4344
                                                                        44.5004
        29.2504
  -2867081.71147  -2183644.68445
                  22947301.0634                                   22947297.4734
                                                                        46.2504
        31.7504
  -1890512.18448  -1436270.09446
                  21300239.9774                                   21300235.5864
                                                                        51.0004
        36.7504
   -724147.37948   -549409.66445
                  22033029.2894                                   22033023.3054
                                                                        49.0004
        33.5004
  -2560632.69947  -1948153.70745
                  23308045.5164                                   23308042.5594
                                                                        43.2504
        30.0004
   -306764.89847   -232864.87944
                  23318281.9304                                   23318278.8284
                                                                        43.7504
        25.5004
   -419007.15247   -315860.59844
                  24329880.4304                                   24329875.7734
                                                                        43.0004
        25.7504
 09 10 20 23 17 30.0000000  0  9G02G04G05G10G13G23G29G30G31
  -1740406.91848  -1327444.90647
                  20374162.9454                                   20374156.7814
                                                                        52.5004
        43.0004
   -462045.89148   -351264.67646
                  21208137.3284                                   21208133.5394
                                                                        51.5004
        39.2504
  -3094846.05147  -2347433.71545
                  23825896.5554                                   23825892.5554
                                                                        43.7504
        30.5004
  -3066848.70347  -2339307.24245
                  22909286.8754                                   22909282.8404
                                                                        45.0004
        32.0004
  -2017187.23448  -1534977.92646
                  21276134.5704                                   21276129.8634
                                                                        50.7504
        36.5004
   -768074.44948   -583638.55545
                  22024670.8754                                   22024664.7194
                                                                        49.0004
        33.7504
  -2737447.27347  -2085931.26645
                  23274399.2974                                   23274395.7664
                                                                        42.7504
        30.0004
   -321600.48847   -244425.21944
                  23315459.1484                                   23315455.6884
                                                                        44.2504
        26.7504
   -442328.32047   -334032.95344
                  24325442.3834                                   24325437.7344
                                                                        43.5004
        25.5004
 09 10 20 23 18  0.0000000  0  9G02G04G05G10G13G23G29G30G31
  -1848214.91848  -1411451.13747
                  20353648.0864                                   20353641.6254
                                                                        52.2504
        43.2504
   -485610.13748   -369626.41046
                  21203653.4924                                   21203649.4614
                                                                        51.7504
        39.7504
  -3297804.66847  -2505583.35545
                  23787274.6414                                   23787270.7504
                                                                        44.0004
        31.5004
  -3265981.71147  -2494475.82845
                  22871392.8364                                   22871389.3714
                                                                        43.7504
        31.0004
  -2142839.91448  -1632889.10546
                  21252223.9304                                   21252219.1414
                                                                        51.0004
        36.2504
   -811052.92248   -617128.27745
                  22016492.2894                                   22016486.1054
                                                                        49.5004
        33.5004
  -2913510.71947  -2223123.53945
                  23240896.0234                                   23240892.3164
                                                                        44.2504
        31.0004
   -335577.76647   -255316.73044
                  23312799.7274                                   23312795.8794
                                                                        43.5004
        25.5004
   -464825.59447   -351563.30144
                  24321161.2424                                   24321157.0084
                                                                        42.2504
        25.0004
 09 10 20 23 18 30.0000000  0  9G02G04G05G10G13G23G29G30G31
   -379672.59848   -267132.46547
                  20633102.2274                                   20633095.5004
                                                                        52.0004
        42.5004
   1067053.53148    840241.38346
                  21499115.3914                                   21499111.6294
                                                                        52.0004
        39.2504
  -1924817.62547  -1435723.30145
                  24048544.8054                                   24048541.1564
                                                                        45.2504
        31.0004
  -1889074.09847  -1421560.75045
                  23133409.4844                                   23133406.2424
                                                                        43.2504
        31.2504
   -692066.49248   -502416.32046
                  21528296.7504                                   21528292.1484
                                                                        51.2504
        36.2504
    722315.18448    577703.99645
                  22308282.6174                                   22308276.0594
                                                                        48.2504
        33.2504
  -1513416.25847  -1132140.91045
                  23507324.8284                                   23507321.0274
                                                                        43.7504
        31.0004
   1226699.54347    962042.15244
                  23610090.7114                                   23610087.2074
                                                                        42.5004
        26.0004
   1088898.28547    859130.61744
                  24616825.3834                                   24616820.8324
                                                                        42.7504
        25.2504
 09 10 20 23 19  0.0000000  0  9G02G04G05G10G13G23G29G30G31
   -485642.13348   -349706.14847
                  20612936.5634                                   20612930.3164
                                                                        52.5004
        42.5004
   1045086.10948    823123.88746
                  21494935.2664                                   21494931.0394
                                                                        51.5004
        39.5004
  -2126752.36747  -1593074.96544
                  24010117.9384                                   24010113.9104
                                                                        44.2504
        29.2504
  -2086992.45347  -1575782.82445
                  23095746.9614                                   23095742.8754
                                                                        43.7504
        31.0004
   -815730.04748   -598777.52346
                  21504764.3444                                   21504759.6764
                                                                        51.5004
        36.2504
    681169.46148    545642.38345
                  22300452.5234                                   22300446.2504
                                                                        48.7504
        33.2504
  -1688028.77347  -1268202.66445
                  23474096.7504                                   23474093.0664
                                                                        43.0004
        31.2504
   1214371.71947    952436.06644
                  23607744.8284                                   23607741.4574
                                                                        43.0004
        26.2504
   1067983.59447    842833.49244
                  24612845.2034                                   24612840.2584
                                                                        42.2504
        25.2504
 09 10 20 23 19 30.0000000  0  9G02G04G05G10G13G23G29G30G31
   -590716.31648   -431582.16847
                  20592941.5474                                   20592935.5984
                                                                        52.7504
        43.0004
   1023889.62948    806607.14146
                  21490901.1884                                   21490897.6724
                                                                        51.7504
        40.0004
  -2328197.09847  -1750044.82844
                  23971784.6094                                   23971780.2664
                                                                        43.5004
        28.7504
  -2284324.89547  -1729548.34445
                  23058195.5784                                   23058191.9264
                                                                        43.7504
        30.7504
   -938422.41048   -694381.94546
                  21481416.7504                                   21481412.1254
                                                                        51.0004
        36.5004
    640912.63748    514273.39145
                  22292791.9144                                   22292785.6764
                                                                        48.0004
        33.2504
  -1861937.22747  -1403715.76245
                  23441003.4384                                   23440999.5984
                                                                        44.0004
        30.0004
   1202839.16046    943449.61744
                  23605549.9774                                   23605547.2734
                                                                        41.2504
        25.7504
   1047831.66446    827130.69543
                  24609010.1804                                   24609005.4964
                                                                        41.7504
        22.7504
 09 10 20 23 20  0.0000000  0  9G02G04G05G10G13G23G29G30G31
   -694909.10248   -512771.34447
                  20573114.6094                                   20573108.5434
                                                                        52.2504
        43.2504
   1003447.11348    790677.88746
                  21487011.4064                                   21487007.7934
                                                                        51.7504
        39.5004
  -2529165.56247  -1906643.65644
                  23933541.2504                                   23933536.9964
                                                                        43.0004
        27.7504
  -2481084.41847  -1882867.44145
                  23020753.8284                                   23020749.6294
                                                                        44.7504
        30.2504
  -1060157.39548   -789240.36346
                  21458251.2974                                   21458246.5864
                                                                        51.5004
        36.5004
    601527.56648    483583.70345
                  22285297.0084                                   22285291.0234
                                                                        49.5004
        32.2504
  -2035153.90247  -1538689.80145
                  23408041.1804                                   23408037.2194
                                                                        43.5004
        30.5004
   1192083.93847    935068.90244
                  23603503.3204                                   23603500.8554
                                                                        42.0004
        25.2504
   1028424.83646    812008.50043
                  24605317.1804                                   24605312.4884
                                                                        41.2504
        22.2504
 09 10 20 23 20 30.0000000  0  9G02G04G05G10G13G23G29G30G31
   -798237.24248   -593286.80147
                  20553451.8834                                   20553445.6884
                                                                        52.0004
        43.0004
    983740.11748    775321.80546
                  21483261.4454                                   21483257.6684
                                                                        51.5004
        39.7504
  -2729672.34847  -2062882.62945
                  23895386.3984                                   23895382.1884
                                                                        43.7504
        30.2504
  -2677285.76647  -2035751.57045
                  22983418.0314                                   22983413.6134
                                                                        45.0004
        31.0004
  -1180950.55148   -883364.87946
                  21435265.1724                                   21435260.6844
                                                                        51.0004
        36.5004
    562995.75448    453558.85245
                  22277965.0944                                   22277958.5004
                                                                        49.0004
        34.0004
  -2207693.66047  -1673136.38745
                  23375208.0084                                   23375204.3634
                                                                        43.0004
        30.2504
   1182085.92647    927278.10544
                  23601601.0474                                   23601598.3954
                                                                        43.0004
        26.5004
   1009743.94946    797451.98843
                  24601761.9454                                   24601757.9574
                                                                        39.7504
        22.7504
 09 10 20 23 21  0.0000000  0  9G02G04G05G10G13G23G29G30G31
   -900712.73448   -673137.89847
                  20533951.2974                                   20533945.3914
                                                                        51.2504
        43.2504
    964753.48448    760527.02346
                  21479648.2274                                   21479644.4614
                                                                        51.0004
        39.2504
  -2929728.50047  -2218770.50845
                  23857316.8054                                   23857312.9414
                                                                        43.7504
        31.2504
  -2872939.81247  -2188209.28945
                  22946186.1564                                   22946182.2504
                                                                        44.5004
        32.0004
  -1300814.25848   -976765.19146
                  21412456.0944                                   21412451.2034
                                                                        51.0004
        36.5004
    525302.94548    424187.85545
                  22270792.1484                                   22270786.1334
                                                                        48.2504
        33.0004
  -2379566.80147  -1807063.49644
                  23342500.9614                                   23342497.6134
                                                                        43.0004
        29.7504
   1172829.60947    920065.32044
                  23599840.5314                                   23599837.3014
                                                                        42.5004
        27.0004
    991773.87546    783449.33243
                  24598342.4924                                   24598338.3284
                                                                        38.5004
        21.7504
 09 10 20 23 21 30.0000000  0  9G02G04G05G10G13G23G29G30G31
  -1002346.22348   -752332.78147
                  20514611.1564                                   20514605.1334
                                                                        52.5004
        42.7504
    946474.09448    746283.35246
                  21476169.6484                                   21476166.0394
                                                                        51.0004
        39.2504
  -3129343.59047  -2374314.68045
                  23819331.7974                                   23819327.4964
                                                                        45.0004
        32.0004
  -3068055.57847  -2340247.48845
                  22909056.7504                                   22909053.4264
                                                                        44.0004
        32.5004
  -1419758.98448  -1069449.39146
                  21389821.3444                                   21389816.6134
                                                                        51.0004
        36.5004
    488435.12548    395459.70745
                  22263776.5704                                   22263770.2704
                                                                        48.7504
        33.2504
  -2550782.53947  -1940478.34845
                  23309920.6564                                   23309916.8054
                                                                        43.5004
        31.5004
   1164300.18847    913418.98444
                  23598217.1804                                   23598214.1214
                                                                        44.0004
        26.0004
    974500.42246    769989.48043
                  24595055.5704                                   24595051.0594
                                                                        37.2504
        22.0004
 09 10 20 23 22  0.0000000  0  9G02G04G05G10G13G23G29G30G31
  -1103148.84848   -830880.29747
                  20495429.0314                                   20495422.9694
                                                                        52.0004
        43.2504
    928888.95748    732580.66046
                  21472823.5864                                   21472819.4924
                                                                        50.0004
        39.5004
  -3328527.01247  -2529522.53145
                  23781427.8284                                   23781423.9384
                                                                        43.7504
        31.7504
  -3262642.20347  -2491873.35545
                  22872027.9534                                   22872024.4024
                                                                        45.0004
        32.0004
  -1537794.83248  -1161425.35546
                  21367359.8364                                   21367355.3284
                                                                        50.5004
        36.5004
    452379.23448    367364.23845
                  22256915.0164                                   22256908.8914
                                                                        49.0004
        32.5004
  -2721349.66047  -2073387.80945
                  23277462.6804                                   23277459.0164
                                                                        44.5004
        32.0004
   1156483.27047    907327.77344
                  23596729.6884                                   23596726.9344
                                                                        43.0004
        26.2504
    957909.76246    757061.66843
                  24591897.8204                                   24591894.1294
                                                                        40.0004
        22.0004
 09 10 20 23 22 30.0000000  0  9G02G04G05G10G13G23G29G30G31
  -1203130.43748   -908787.98047
                  20476403.0864                                   20476396.8794
                                                                        52.5004
        43.0004
    911985.12948    719408.82846
                  21469606.8134                                   21469603.0594
                                                                        50.0004
        38.7504
  -3527287.66047  -2684400.90245
                  23743604.8364                                   23743601.1724
                                                                        42.5004
        30.0004
  -3456708.75047  -2643094.01645
                  22835098.4774                                   22835094.5744
                                                                        45.0004
        32.0004
  -1654931.75448  -1252700.90646
                  21345069.3284                                   21345064.6644
                                                                        50.7504
        36.7504
    417122.33248    339891.31345
                  22250206.3204                                   22250199.5784
                                                                        48.0004
        32.2504
  -2891276.91447  -2205798.65245
                  23245126.6254                                   23245123.1524
                                                                        45.5004
        33.0004
   1149365.32447    901781.28944
                  23595375.2114                                   23595372.1684
                                                                        42.0004
        26.7504
    941988.51246    744655.48844
                  24588869.0164                                   24588864.7384
                                                                        39.0004
        24.5004
 09 10 20 23 23  0.0000000  0  9G02G04G05G10G13G23G29G30G31
  -1302302.71148   -986065.07447
                  20457531.4384                                   20457525.2464
                                                                        52.2504
        43.0004
    895748.77348    706757.12546
                  21466517.0634                                   21466513.7624
                                                                        51.0004
        38.7504
  -3725635.78147  -2838957.85245
                  23705860.3984                                   23705857.0864
                                                                        43.0004
        31.0004
  -3650265.14147  -2793917.13345
                  22798265.4224                                   22798262.3364
                                                                        44.0004
        31.7504
  -1771180.89548  -1343284.64546
                  21322947.9064                                   21322943.5124
                                                                        50.5004
        36.7504
    382650.73448    313030.36745
                  22243646.2584                                   22243640.1454
                                                                        48.5004
        32.5004
  -3060573.97347  -2337718.48045
                  23212910.0554                                   23212906.8914
                                                                        45.5004
        32.5004
   1142930.86746    896767.40244
                  23594150.7344                                   23594147.9924
                                                                        41.7504
        26.5004
    926722.16447    732759.63344
                  24585963.9844                                   24585959.9804
                                                                        42.2504
        27.2504
 09 10 20 23 23 30.0000000  0  9G02G04G05G10G13G23G29G30G31
  -1400673.83248  -1062717.90647
                  20438811.8984                                   20438805.6764
                                                                        52.0004
        43.0004
    880169.12548    694617.11746
                  21463552.5704                                   21463548.7584
                                                                        51.0004
        39.0004
  -3923578.01247  -2993198.54745
                  23668193.4384                                   23668189.4304
                                                                        43.2504
        30.0004
  -3843317.46947  -2944347.44945
                  22761529.1334                                   22761525.2734
                                                                        45.5004
        32.0004
  -1886549.86748  -1433182.52746
                  21300994.0394                                   21300989.5944
                                                                        51.0004
        36.7504
    348953.87948    286773.08245
                  22237234.2194                                   22237227.8014
                                                                        48.5004
        32.0004
  -3229247.00047  -2469151.97745
                  23180813.2734                                   23180809.4384
                                                                        45.2504
        31.2504
   1137168.45746    892277.21944
                  23593053.9774                                   23593051.0864
                                                                        41.2504
        24.7504
    912099.46947    721365.30544
                  24583181.7114                                   24583177.1604
                                                                        42.7504
        27.2504
 09 10 20 23 24  0.0000000  0  9G02G04G05G10G13G23G29G30G31
  -1498258.00848  -1138757.53147
                  20420242.2584                                   20420235.9924
                                                                        52.5004
        43.2504
    865229.92648    682976.18446
                  21460709.6174                                   21460705.6024
                                                                        49.2504
        39.0004
  -4121127.01247  -3147132.76645
                  23630600.7894                                   23630596.8714
                                                                        45.0004
        30.7504
  -4035878.86747  -3094395.24245
                  22724886.0864                                   22724881.8364
                                                                        45.5004
        32.0004
  -2001052.60248  -1522405.41446
                  21279204.8134                                   21279200.0704
                                                                        50.7504
        37.0004
    316014.93848    261106.38745
                  22230966.1724                                   22230959.6174
                                                                        49.0004
        32.5004
  -3397308.23847  -2600108.75445
                  23148832.1334                                   23148828.1644
                                                                        45.0004
        30.7504
   1132059.95347    888296.55543
                  23592081.8134                                   23592078.3984
                                                                        42.0004
        22.7504
    898103.36346    710459.26644
                  24580518.0554                                   24580514.2624
                                                                        40.0004
        27.0004
 09 10 20 23 24 30.0000000  0 10G02G04G05G10G25G13G23G29G30G31
  -1595059.43748  -1214187.29347
                  20401821.5314                                   20401815.5784
                                                                        52.7504
        43.5004
    850924.40648    671829.00446
                  21457987.2504                                   21457983.8634
                                                                        50.5004
        39.0004
  -4318285.86347  -3300763.04345
                  23593083.0084                                   23593078.9384
                                                                        44.5004
        31.2504
  -4227951.28547  -3244062.03945
                  22688336.1254                                   22688331.8134
                                                                        45.5004
        32.2504
   1276819.99657   1036391.06353
                  24144181.3444                                   24144177.0784
                                                                        42.5004
        22.0004
  -2114693.19148  -1610956.51646
                  21257579.9384                                   21257575.5744
                                                                        51.2504
        36.2504
    283827.16448    236025.00445
                  22224840.9694                                   22224834.4574
                                                                        48.5004
        32.2504
  -3564760.32847  -2730590.89145
                  23116966.5004                                   23116963.2274
                                                                        45.0004
        30.7504
   1127598.25046    884819.99244
                  23591232.5164                                   23591229.0704
                                                                        41.5004
        24.0004
    884726.72747    700035.89543
                  24577972.9144                                   24577968.1644
                                                                        42.0004
        23.5004
 09 10 20 23 25  0.0000000  0  9G02G04G05G10G25G13G23G29G30
  -1691088.40648  -1289015.04347
                  20383547.7814                                   20383541.4964
                                                                        53.0004
        43.0004
    837239.78948    661165.66046
                  21455383.3054                                   21455379.4734
                                                                        50.2504
        39.5004
  -4515063.33647  -3454096.10245
                  23555637.3444                                   23555633.5354
                                                                        44.7504
        31.5004
  -4419544.27347  -3393355.25445
                  22651877.1024                                   22651872.9224
                                                                        46.2504
        32.5004
   1100418.23046    898935.05943
                  24110612.8364                                   24110609.3404
                                                                        41.5004
        22.5004
  -2227481.39548  -1698843.42646
                  21236117.0864                                   21236112.4064
                                                                        50.5004
        36.5004
    252377.60948    211518.81345
                  22218856.2194                                   22218849.8874
                                                                        48.2504
        31.7504
  -3731611.52747  -2860604.82845
                  23085215.8444                                   23085212.0084
                                                                        45.5004
        30.2504
   1123769.07047    881836.26643
                  23590503.9924                                   23590500.3204
                                                                        42.0004
        23.2504
 09 10 20 23 25 30.0000000  0  9G02G04G05G10G25G13G23G29G30
  -1786354.11348  -1363248.08247
                  20365419.4304                                   20365413.3794
                                                                        52.7504
        43.0004
    824164.66448    650977.25446
                  21452895.1024                                   21452891.8364
                                                                        51.0004
        38.2504
  -4711467.10547  -3607137.96545
                  23518263.1414                                   23518259.2344
                                                                        44.5004
        32.0004
  -4610664.73447  -3542280.28145
                  22615507.5314                                   22615503.9494
                                                                        45.5004
        32.5004
    924490.83246    761848.66443
                  24077134.6414                                   24077131.1484
                                                                        40.0004
        19.5004
  -2339426.27048  -1786073.17246
                  21214814.4844                                   21214810.2584
                                                                        50.7504
        36.2504
    221654.91048    187579.03945
                  22213009.9304                                   22213003.4964
                                                                        49.0004
        33.0004
  -3897869.31247  -2990156.40245
                  23053578.0004                                   23053574.4064
                                                                        45.0004
        30.0004
   1120559.37546    879335.18044
                  23589893.4694                                   23589890.6644
                                                                        41.5004
        24.2504
 09 10 20 23 26  0.0000000  0  9G02G04G05G10G25G13G23G29G30
  -1880855.53548  -1436885.53947
                  20347436.4224                                   20347430.3634
                                                                        52.2504
        43.0004
    811697.61748    641262.67246
                  21450522.5474                                   21450519.0474
                                                                        51.0004
        38.7504
  -4907495.10947  -3759887.04345
                  23480959.8364                                   23480956.0204
                                                                        44.7504
        31.5004
  -4801310.11347  -3690835.07445
                  22579228.9384                                   22579225.7504
                                                                        45.7504
        33.7504
    749041.40646    625134.82043
                  24043747.2274                                   24043743.8244
                                                                        41.5004
        21.2504
  -2450526.55548  -1872644.78546
                  21193672.5004                                   21193668.2304
                                                                        51.0004
        36.5004
    191657.25847    164204.18845
                  22207301.5084                                   22207295.1644
                                                                        47.5004
        32.5004
  -4063530.58647  -3119243.10245
                  23022053.9614                                   23022050.4384
                                                                        45.0004
        30.7504
   1117966.75046    877314.94944
                  23589400.0944                                   23589396.5984
                                                                        41.2504
        25.7504
 09 10 20 23 26 30.0000000  0  9G02G04G05G10G25G13G23G29G30
  -1974594.35548  -1509928.75047
                  20329598.3054                                   20329592.1844
                                                                        51.5004
        43.5004
    799834.16848    632018.42246
                  21448265.4304                                   21448261.5634
                                                                        51.0004
        38.7504
  -5103147.41847  -3912343.33645
                  23443728.5084                                   23443724.9774
                                                                        44.5004
        32.2504
  -4991480.18747  -3839019.47745
                  22543041.0314                                   22543037.4694
                                                                        46.2504
        32.2504
    574070.18846    488793.59843
                  24010452.3134                                   24010448.0314
                                                                        41.5004
        21.5004
  -2560783.54348  -1958559.31246
                  21172691.5704                                   21172687.2194
                                                                        50.7504
        36.7504
    162380.67648    141391.24245
                  22201730.4924                                   22201724.1994
                                                                        48.0004
        32.5004
  -4228595.76647  -3247865.28945
                  22990643.0474                                   22990639.4304
                                                                        44.5004
        31.5004
   1115985.79347    875771.34044
                  23589022.7424                                   23589019.9304
                                                                        42.5004
        26.5004
 09 10 20 23 27  0.0000000  0  9G02G04G05G10G25G13G23G29G30
  -2067577.09448  -1582382.82447
                  20311904.7274                                   20311898.4024
                                                                        51.5004
        43.0004
    788565.86348    623237.91046
                  21446120.6484                                   21446117.3554
                                                                        50.7504
        37.7504
  -5298428.87947  -4064510.64145
                  23406567.9224                                   23406564.0004
                                                                        44.0004
        31.5004
  -5181180.33247  -3986837.73845
                  22506942.6094                                   22506938.2384
                                                                        46.2504
        33.2504
    399573.32046    352822.06343
                  23977246.3914                                   23977242.7114
                                                                        41.7504
        23.5004
  -2670203.46548  -2043821.57446
                  21151869.2974                                   21151864.5434
                                                                        50.5004
        36.7504
    133816.43048    119133.40645
                  22196295.2344                                   22196288.8524
                                                                        48.0004
        32.5004
  -4393069.18747  -3376026.39545
                  22959345.0394                                   22959341.5394
                                                                        45.2504
        32.0004
   1114606.68447    874696.73444
                  23588761.4534                                   23588757.6644
                                                                        42.7504
        27.2504
 09 10 20 23 27 30.0000000  0  9G02G04G05G10G25G13G23G29G30
   -584387.62948   -426650.77747
                  20594146.0314                                   20594139.7544
                                                                        51.2504
        43.5004
   2353303.97348   1842514.36746
                  21743880.7894                                   21743876.9064
                                                                        50.5004
        39.0004
  -3917918.34047  -2988788.08245
                  23669270.3204                                   23669266.1644
                                                                        45.0004
        31.5004
  -3794989.31647  -2906688.86745
                  22770725.7194                                   22770721.3444
                                                                        46.5004
        33.2504
   1800971.68047   1444820.89143
                  24243923.6094                                   24243920.0084
                                                                        42.5004
        22.7504
  -1203369.29748   -900833.89146
                  21430998.8524                                   21430994.6954
                                                                        50.7504
        36.7504
   1681375.55148   1325023.63345
                  22490785.0784                                   22490779.7234
                                                                        48.2504
        31.2504
  -2981529.82047  -2276125.52045
                  23227952.1174                                   23227948.3874
                                                                        45.5004
        33.2504
   2689238.96147   2101682.90644
                  23888403.3674                                   23888400.2934
                                                                        42.7504
        27.0004
 09 10 20 23 28  0.0000000  0  9G02G04G05G10G25G13G23G29G30
   -675877.28948   -497941.41847
                  20576736.0944                                   20576730.1294
                                                                        52.2504
        42.5004
   2343199.93448   1834641.10946
                  21741957.9144                                   21741954.4384
                                                                        51.0004
        38.5004
  -4112472.36347  -3140388.56245
                  23632248.0084                                   23632243.7114
                                                                        46.0004
        32.5004
  -3983762.99247  -3053785.21945
                  22734803.0004                                   22734799.0784
                                                                        46.0004
        32.5004
   1627410.87547   1309578.71543
                  24210895.7814                                   24210892.8134
                                                                        42.7504
        23.5004
  -1311133.34048   -984805.87546
                  21410492.0314                                   21410487.5124
                                                                        50.0004
        36.7504
   1654208.86747   1303854.82445
                  22485615.8204                                   22485609.5514
                                                                        47.7504
        31.5004
  -3144832.48447  -2403374.32045
                  23196876.7974                                   23196872.9264
                                                                        46.2504
        34.0004
   2689033.97347   2101523.28544
                  23888364.0704                                   23888361.4384
                                                                        43.7504
        27.0004
 09 10 20 23 28 30.0000000  0  9G02G04G05G10G25G13G23G29G30
   -766630.78548   -568658.41847
                  20559466.1804                                   20559460.1644
                                                                        52.0004
        42.7504
   2333664.18048   1827210.64546
                  21740143.4924                                   21740139.8324
                                                                        50.5004
        38.2504
  -4306671.05947  -3291712.18745
                  23595292.8524                                   23595288.4924
                                                                        45.0004
        31.7504
  -4172080.98047  -3200526.47745
                  22698966.9064                                   22698963.3164
                                                                        46.5004
        32.0004
   1454311.11347   1174695.76243
                  24177956.3674                                   24177952.7274
                                                                        42.0004
        22.7504
  -1418079.31648  -1068140.39846
                  21390140.9534                                   21390136.3324
                                                                        50.2504
        37.2504
   1627726.86347   1283219.50845
                  22480576.5084                                   22480569.9344
                                                                        47.2504
        31.5004
  -3307557.64847  -2530173.13745
                  23165910.7504                                   23165907.4804
                                                                        44.5004
        32.2504
   2689399.80547   2101808.37144
                  23888433.4384                                   23888430.8714
                                                                        42.0004
        25.7504
 09 10 20 23 29  0.0000000  0  9G02G04G05G10G25G13G23G29G30
   -856652.87548   -638805.50847
                  20542335.8204                                   20542328.8364
                                                                        52.2504
        42.7504
   2324689.75448   1820217.57046
                  21738435.5554                                   21738431.8484
                                                                        51.5004
        38.2504
  -4500517.21547  -3442761.12545
                  23558405.1484                                   23558401.5634
                                                                        45.2504
        30.5004
  -4359946.21547  -3346914.93745
                  22663217.3674                                   22663213.4104
                                                                        46.5004
        32.7504
   1281670.77046   1040170.94543
                  24145103.4304                                   24145100.2584
                                                                        41.7504
        22.2504
  -1524211.53948  -1150840.80946
                  21369944.5004                                   21369939.9534
                                                                        50.2504
        36.7504
   1601922.82448   1263112.48045
                  22475666.2734                                   22475659.5984
                                                                        48.0004
        32.2504
  -3469707.33247  -2656523.53945
                  23135054.5004                                   23135051.3524
                                                                        45.2504
        32.2504
   2690329.05146   2102532.46544
                  23888610.4064                                   23888608.0354
                                                                        41.7504
        24.5004
 09 10 20 23 29 30.0000000  0  9G02G04G05G10G25G13G23G29G30
   -945950.28148   -708387.90247
                  20525342.7344                                   20525336.7624
                                                                        52.0004
        43.2504
   2316267.09848   1813654.44946
                  21736832.5474                                   21736828.8094
                                                                        50.5004
        38.5004
  -4694016.84847  -3593540.02345
                  23521583.0864                                   23521579.2854
                                                                        44.7504
        30.7504
  -4547364.40647  -3492955.08645
                  22627553.5164                                   22627549.4454
                                                                        46.5004
        33.7504
   1109484.31346    905999.84043
                  24112337.1484                                   24112334.1604
                                                                        41.2504
        21.5004
  -1629537.25448  -1232912.79346
                  21349901.6484                                   21349897.1994
                                                                        49.7504
        37.0004
   1576786.66047   1243525.80945
                  22470883.2504                                   22470876.8244
                                                                        47.7504
        32.2504
  -3631287.73447  -2782430.42645
                  23104307.0164                                   23104303.0004
                                                                        45.0004
        32.0004
   2691810.85947   2103687.19143
                  23888892.0554                                   23888889.1484
                                                                        42.0004
        22.7504
 09 10 20 23 30  0.0000000  0  9G02G04G05G10G25G13G23G29G30
  -1034525.72748   -777407.72347
                  20508487.5864                                   20508481.3444
                                                                        51.5004
        43.0004
   2308391.54348   1807517.65646
                  21735334.1484                                   21735330.6724
                                                                        50.7504
        39.0004
  -4887170.62547  -3744049.39545
                  23484827.2194                                   23484823.4694
                                                                        44.5004
        32.0004
  -4734335.94147  -3638647.17645
                  22591973.2814                                   22591969.6764
                                                                        47.0004
        33.2504
    937751.07446    772181.49243
                  24079658.0944                                   24079654.1884
                                                                        41.5004
        22.0004
  -1734058.44948  -1314357.89146
                  21330012.0234                                   21330007.3754
                                                                        50.0004
        37.2504
   1552313.48447   1224455.83645
                  22466225.7894                                   22466219.2704
                                                                        47.2504
        31.0004
  -3792298.83247  -2907893.63345
                  23073667.0864                                   23073664.1334
                                                                        44.5004
        31.5004
   2693838.91047   2105267.55943
                  23889277.9614                                   23889274.6214
                                                                        42.2504
        22.0004
 09 10 20 23 30 30.0000000  0  9G02G04G05G10G25G13G23G29G30
  -1122385.71148   -845870.05547
                  20491768.3444                                   20491762.1954
                                                                        52.0004
        43.5004
   2301054.40648   1801800.41446
                  21733937.7814                                   21733933.7814
                                                                        50.5004
        38.2504
  -5079983.07447  -3894292.82445
                  23448135.8834                                   23448132.6884
                                                                        45.0004
        33.0004
  -4920865.52047  -3783994.85545
                  22556478.2814                                   22556474.3164
                                                                        46.7504
        34.0004
    766468.27046    638714.47343
                  24047064.0084                                   24047060.4654
                                                                        41.2504
        22.7504
  -1837781.33648  -1395180.90246
                  21310274.3834                                   21310269.4454
                                                                        50.5004
        37.0004
   1528494.71547   1205895.82445
                  22461693.6724                                   22461686.7034
                                                                        47.7504
        32.5004
  -3952744.56647  -3032916.29745
                  23043135.3054                                   23043132.2194
                                                                        44.2504
        31.5004
   2696403.86347   2107266.37143
                  23889765.8204                                   23889762.5354
                                                                        44.0004
        22.5004
 09 10 20 23 31  0.0000000  0  9G02G04G05G10G25G13G23G29G30
  -1209536.05548   -913779.40647
                  20475184.2974                                   20475178.3204
                                                                        51.2504
        43.2504
   2294247.59448   1796496.43046
                  21732642.5394                                   21732639.0274
                                                                        50.2504
        38.0004
  -5272458.55947  -4044273.66845
                  23411509.7584                                   23411505.8014
                                                                        46.5004
        34.0004
  -5106956.94148  -3929001.14845
                  22521066.2814                                   22521062.4924
                                                                        48.0004
        34.0004
    595631.57447    505594.86343
                  24014555.1174                                   24014551.5004
                                                                        42.5004
        22.0004
  -1940711.52348  -1475386.22346
                  21290687.1724                                   21290682.1764
                                                                        50.2504
        36.7504
   1505322.10247   1187839.28545
                  22457283.7664                                   22457277.0984
                                                                        47.2504
        32.5004
  -4112629.24247  -3157501.87545
                  23012711.2344                                   23012707.4774
                                                                        44.0004
        32.0004
   2699496.23847   2109676.14843
                  23890354.5474                                   23890351.0124
                                                                        43.5004
        23.2504
 09 10 20 23 31 30.0000000  0  9G02G04G05G10G25G13G23G29G30
  -1295978.30148   -981137.00847
                  20458734.5474                                   20458728.9384
                                                                        52.0004
        42.7504
   2287967.54348   1791602.89546
                  21731447.4144                                   21731443.8404
                                                                        50.5004
        38.2504
  -5464596.82847  -4193991.81245
                  23374947.3914                                   23374942.3204
                                                                        46.7504
        32.0004
  -5292609.62147  -4073665.53945
                  22485737.8284                                   22485733.6374
                                                                        47.5004
        33.7504
    425242.69547    372824.34443
                  23982130.7344                                   23982126.6844
                                                                        42.2504
        22.7504
  -2042850.41448  -1554974.97346
                  21271250.8674                                   21271246.1094
                                                                        49.7504
        37.0004
   1482791.34448   1170282.91045
                  22452995.7664                                   22452989.1604
                                                                        48.2504
        31.5004
  -4271952.30547  -3281649.61745
                  22982392.2424                                   22982388.5164
                                                                        45.0004
        32.2504
   2703110.93047   2112492.87144
                  23891042.3984                                   23891039.0744
                                                                        44.5004
        25.5004
 09 10 20 23 32  0.0000000  0  9G02G04G05G10G25G13G23G29G30
  -1381717.83648  -1047947.02747
                  20442418.8984                                   20442413.2584
                                                                        52.2504
        43.0004
   2282205.73848   1787113.16446
                  21730350.9454                                   21730347.4804
                                                                        50.0004
        37.5004
  -5656401.91047  -4343450.31645
                  23338447.1414                                   23338442.4224
                                                                        45.5004
        32.0004
  -5477828.07047  -4217991.60245
                  22450491.7194                                   22450487.5634
                                                                        46.5004
        32.5004
    255297.75447    240399.73843
                  23949791.8594                                   23949788.2624
                                                                        42.2504
        22.5004
  -2144203.54748  -1633951.45746
                  21251963.9384                                   21251959.4104
                                                                        50.0004
        36.7504
   1460894.37147   1153220.35245
                  22448829.0944                                   22448822.3444
                                                                        47.5004
        31.5004
  -4430717.87147  -3405363.03545
                  22952180.9454                                   22952176.6414
                                                                        44.5004
        33.0004
   2707239.03947   2115709.73444
                  23891827.8914                                   23891824.8324
                                                                        45.5004
        26.2504
 09 10 20 23 32 30.0000000  0  9G02G04G05G10G25G13G23G29G30
  -1466757.80548  -1114211.91847
                  20426236.6024                                   20426230.4144
                                                                        52.5004
        42.7504
   2276957.12548   1783023.31646
                  21729352.2424                                   21729348.8954
                                                                        50.5004
        38.0004
  -5847875.51647  -4492650.54345
                  23302011.0234                                   23302006.6884
                                                                        46.0004
        31.2504
  -5662613.39847  -4361980.18045
                  22415328.1254                                   22415323.8984
                                                                        47.0004
        32.7504
     85795.95747    108320.39843
                  23917536.6094                                   23917532.1294
                                                                        43.0004
        23.0004
  -2244773.44148  -1712317.57446
                  21232826.3364                                   21232821.7114
                                                                        50.5004
        37.0004
   1439625.90647   1136647.58645
                  22444782.1414                                   22444775.3594
                                                                        47.7504
        31.5004
  -4588927.02347  -3528642.89545
                  22922074.2194                                   22922070.9774
                                                                        44.2504
        33.0004
   2711873.20347   2119320.84044
                  23892710.1094                                   23892706.3134
                                                                        44.5004
        26.5004
 09 10 20 23 33  0.0000000  0  9G02G04G05G10G25G13G23G29G30
  -1551101.28148  -1179934.09447
                  20410186.4614                                   20410180.3874
                                                                        52.2504
        43.0004
   2272216.76648   1779329.48046
                  21728450.4844                                   21728446.4844
                                                                        50.2504
        37.5004
  -6039018.59847  -4641593.24645
                  23265637.4614                                   23265633.6484
                                                                        44.5004
        31.2504
  -5846966.60247  -4505632.02745
                  22380247.0704                                   22380242.6844
                                                                        47.0004
        33.5004
    -83262.66847    -23413.59844
                  23885365.6564                                   23885362.1054
                                                                        42.5004
        24.0004
  -2344563.07048  -1790075.70746
                  21213836.9614                                   21213832.3324
                                                                        49.5004
        37.0004
   1418980.30547   1120560.08645
                  22440853.1254                                   22440847.0004
                                                                        46.0004
        31.7504
  -4746579.99647  -3651489.30145
                  22892073.9924                                   22892070.4534
                                                                        44.0004
        33.0004
   2717007.80147   2123321.78544
                  23893686.9924                                   23893684.0744
                                                                        43.7504
        25.5004
 09 10 20 23 33 30.0000000  0  9G02G04G05G10G25G13G23G29G30
  -1634750.16448  -1245115.02347
                  20394268.5704                                   20394262.6414
                                                                        52.2504
        43.0004
   2267980.71548   1776028.69546
                  21727644.2734                                   21727640.5744
                                                                        50.2504
        38.0004
  -6229831.25847  -4790278.43745
                  23229327.0634                                   23229323.3594
                                                                        45.5004
        31.7504
  -6030887.05947  -4648946.65245
                  22345248.0474                                   22345244.1484
                                                                        47.7504
        34.0004
   -251877.71547   -154801.90644
                  23853279.5784                                   23853275.3134
                                                                        42.0004
        25.0004
  -2443573.89848  -1867226.96546
                  21194995.6804                                   21194991.1334
                                                                        49.5004
        37.2504
   1398953.39847   1104954.70345
                  22437041.9304                                   22437035.8404
                                                                        47.0004
        30.7504
  -4903677.09847  -3773902.69945
                  22862178.9694                                   22862175.7344
                                                                        44.0004
        32.5004
   2722637.34446   2127708.40244
                  23894757.3754                                   23894754.7774
                                                                        41.5004
        25.0004
 09 10 20 23 34  0.0000000  0  9G02G04G05G10G25G13G23G29G30
  -1717708.69148  -1309758.04747
                  20378482.0554                                   20378476.2234
                                                                        53.0004
        43.0004
   2264242.43048   1773115.67246
                  21726932.7344                                   21726928.8984
                                                                        50.2504
        37.5004
  -6420315.83247  -4938707.96945
                  23193079.7194                                   23193075.7114
                                                                        45.5004
        33.5004
  -6214377.31247  -4791926.05145
                  22310331.0474                                   22310327.1414
                                                                        47.2504
        34.5004
   -420050.78546   -285845.71943
                  23821277.0554                                   23821273.3164
                                                                        41.2504
        22.5004
  -2541810.08648  -1943774.63746
                  21176302.1094                                   21176297.3364
                                                                        49.5004
        37.0004
   1379539.03547   1089826.64845
                  22433347.6644                                   22433341.3364
                                                                        47.5004
        30.7504
  -5060219.94147  -3895884.12945
                  22832390.2034                                   22832387.1254
                                                                        43.2504
        33.0004
   2728754.42646   2132474.78143
                  23895921.7274                                   23895919.0904
                                                                        41.5004
        22.7504
 09 10 20 23 34 30.0000000  0  9G02G04G05G10G25G13G23G29G30
  -1799980.15648  -1373865.64147
                  20362826.1884                                   20362820.2344
                                                                        52.0004
        42.7504
   2260996.09048   1770586.01646
                  21726315.1024                                   21726311.6254
                                                                        49.2504
        38.0004
  -6610474.00047  -5086883.13345
                  23156893.6724                                   23156889.7154
                                                                        45.2504
        34.2504
  -6397439.12147  -4934571.63345
                  22275495.5784                                   22275492.0234
                                                                        47.5004
        34.2504
   -587783.27346   -416546.31644
                  23789359.0554                                   23789355.3874
                                                                        41.5004
        25.5004
  -2639275.30948  -2019721.54346
                  21157755.0784                                   21157750.5944
                                                                        49.2504
        36.5004
   1360730.73047   1075170.79745
                  22429768.7734                                   22429762.5784
                                                                        46.0004
        31.5004
  -5216210.55947  -4017435.20345
                  22802706.1254                                   22802702.8244
                                                                        45.0004
        33.5004
   2735352.32446   2137615.89843
                  23897177.3754                                   23897174.5004
                                                                        40.7504
        23.7504
 09 10 20 23 35  0.0000000  0  9G02G04G05G10G25G13G23G29G30
  -1881567.83648  -1437440.35247
                  20347300.6884                                   20347294.6604
                                                                        51.5004
        43.0004
   2258236.31348   1768435.48846
                  21725790.0634                                   21725786.4614
                                                                        50.2504
        37.0004
  -6800307.84447  -5234805.56245
                  23120769.8134                                   23120765.8164
                                                                        47.0004
        34.5004
  -6580073.94147  -5076884.43445
                  22240740.7814                                   22240737.3324
                                                                        47.0004
        34.5004
   -755076.16846   -546904.43443
                  23757523.4694                                   23757520.0744
                                                                        41.2504
        22.2504
  -2735972.52348  -2095070.00446
                  21139354.3834                                   21139349.2974
                                                                        50.0004
        37.0004
   1342522.80547   1060982.75845
                  22426303.7974                                   22426297.4414
                                                                        46.7504
        31.2504
  -5371650.09847  -4138556.97745
                  22773127.0004                                   22773123.3834
                                                                        45.0004
        32.2504
   2742423.76247   2143125.85944
                  23898523.3914                                   23898520.2504
                                                                        42.0004
        24.0004
 09 10 20 23 35 30.0000000  0  9G02G04G05G10G25G13G23G29G30
  -1962474.94548  -1500484.86747
                  20331904.5554                                   20331898.3954
                                                                        52.5004
        42.7504
   2255958.53548   1766660.59846
                  21725356.6564                                   21725352.6214
                                                                        50.0004
        37.7504
  -6989817.96147  -5382475.75445
                  23084706.7814                                   23084702.9104
                                                                        47.0004
        34.2504
  -6762282.18047  -5218864.83645
                  22206067.9224                                   22206064.9414
                                                                        47.5004
        34.5004
   -921928.91846   -676919.41844
                  23725772.2814                                   23725768.9384
                                                                        41.7504
        24.5004
  -2831904.21148  -2169821.96146
                  21121098.9064                                   21121094.3794
                                                                        49.2504
        37.0004
   1324910.14847   1047258.59445
                  22422951.9144                                   22422945.8134
                                                                        47.0004
        30.5004
  -5526539.00447  -4259249.59045
                  22743652.7194                                   22743648.9574
                                                                        45.2504
        33.2504
   2749963.05947   2149000.54743
                  23899958.3444                                   23899955.1684
                                                                        42.0004
        22.5004
 09 10 20 23 36  0.0000000  0  9G02G04G05G10G25G13G23G29G30
  -2042702.80148  -1563000.06647
                  20316637.6094                                   20316631.5004
                                                                        51.2504
        43.0004
   2254158.29348   1765257.79746
                  21725013.8284                                   21725010.6024
                                                                        49.5004
        37.2504
  -7179004.35247  -5529893.64845
                  23048705.7194                                   23048701.5784
                                                                        46.2504
        33.0004
  -6944064.40248  -5360513.30545
                  22171475.5084                                   22171472.0044
                                                                        48.0004
        34.5004
  -1088341.96147   -806591.98443
                  23694105.6484                                   23694101.4144
                                                                        43.0004
        23.7504
  -2927072.36348  -2243978.97346
                  21102988.8914                                   21102984.2074
                                                                        49.2504
        37.0004
   1307888.78147   1033995.23445
                  22419712.8754                                   22419706.6374
                                                                        45.7504
        31.5004
  -5680877.28947  -4379513.11745
                  22714282.5944                                   22714279.4304
                                                                        44.5004
        33.5004
   2757964.78947   2155235.60544
                  23901481.5474                                   23901477.5634
                                                                        42.5004
        25.0004
 09 10 20 23 36 30.0000000  0  9G02G04G05G10G25G13G23G29G30
  -2122253.18448  -1624987.32447
                  20301499.7034                                   20301493.8134
                                                                        51.2504
        43.2504
   2252832.11348   1764224.43446
                  21724761.3674                                   21724757.7114
                                                                        49.7504
        37.2504
  -7367866.96547  -5677059.26645
                  23012766.1804                                   23012761.9384
                                                                        47.0004
        33.0004
  -7125420.19547  -5501829.50445
                  22136965.7114                                   22136961.3524
                                                                        46.7504
        33.7504
  -1254313.74247   -935920.75443
                  23662521.9844                                   23662517.8674
                                                                        42.2504
        22.5004
  -3021478.02748  -2317541.84046
                  21085024.2734                                   21085019.3594
                                                                        50.0004
        36.5004
   1291454.57047   1021189.34045
                  22416585.9454                                   22416579.7624
                                                                        45.5004
        31.0004
  -5834664.69547  -4499347.45345
                  22685018.2734                                   22685014.4384
                                                                        45.0004
        33.5004
   2766424.11347   2161827.21943
                  23903091.1174                                   23903087.2584
                                                                        43.0004
        23.5004
 09 10 20 23 37  0.0000000  0  9G02G04G05G10G25G13G23G29G30
   -625707.59048   -458847.87147
                  20586282.9304                                   20586276.6374
                                                                        52.0004
        42.7504
   3827393.41048   2991155.28546
                  22024390.6174                                   22024386.6374
                                                                        49.0004
        37.2504
  -5980981.82847  -4596369.55145
                  23276681.5944                                   23276677.0744
                                                                        47.0004
        32.7504
  -5730924.87547  -4415209.74645
                  22402328.8984                                   22402324.8674
                                                                        47.0004
        34.5004
    155579.59446    162697.38343
                  23930816.0554                                   23930811.5984
                                                                        40.5004
        22.5004
  -1539702.44148  -1162911.53146
                  21366996.8754                                   21366992.0084
                                                                        48.7504
        36.5004
   2851021.10947   2236435.95345
                  22713361.3984                                   22713355.1174
                                                                        47.0004
        30.7504
  -4412478.11747  -3391150.27745
                  22955651.6484                                   22955647.9694
                                                                        44.5004
        33.2504
   4350753.60246   3396369.68043
                  24204578.5164                                   24204575.8524
                                                                        41.0004
        22.7504
 09 10 20 23 37 30.0000000  0  9G02G04G05G10G25G13G23G29G30
   -703911.82848   -519786.15647
                  20571401.0234                                   20571395.0004
                                                                        52.5004
        43.0004
   3827000.19948   2990848.85546
                  22024315.4844                                   22024312.2344
                                                                        48.7504
        37.0004
  -6169199.97747  -4743033.01245
                  23240864.9144                                   23240860.6134
                                                                        47.0004
        34.0004
  -5911429.32047  -4555862.56245
                  22367979.9694                                   22367976.0354
                                                                        46.7504
        34.7504
     -9510.80546     34055.54343
                  23899399.5314                                   23899396.2624
                                                                        39.5004
        22.7504
  -1632591.94148  -1235292.96146
                  21349320.6174                                   21349315.9694
                                                                        49.0004
        37.2504
   2835745.30547   2224532.78145
                  22710454.8674                                   22710448.0594
                                                                        46.5004
        30.7504
  -4565165.63747  -3510127.59445
                  22926595.6254                                   22926592.3244
                                                                        43.7504
        32.5004
   4360109.36746   3403659.66844
                  24206359.6644                                   24206356.2464
                                                                        40.0004
        24.5004
 09 10 20 23 38  0.0000000  0  9G02G04G05G10G25G13G23G29G30
   -781445.23048   -580201.77047
                  20556647.0704                                   20556640.3714
                                                                        52.0004
        43.0004
   3827067.71548   2990901.37546
                  22024328.5784                                   22024325.0904
                                                                        48.0004
        37.0004
  -6357095.14147  -4889444.81645
                  23205109.7814                                   23205105.1994
                                                                        47.5004
        34.0004
  -6091507.34847  -4696183.07445
                  22333712.2504                                   22333708.5394
                                                                        46.7504
        35.0004
   -174158.90246    -94241.63743
                  23868068.0944                                   23868064.9694
                                                                        40.0004
        22.0004
  -1724725.72348  -1307085.50846
                  21331787.6174                                   21331782.8554
                                                                        49.0004
        37.0004
   2821042.80547   2213076.29745
                  22707656.9454                                   22707650.2074
                                                                        46.2504
        30.7504
  -4717302.10547  -3628675.49645
                  22897645.0864                                   22897641.6254
                                                                        44.7504
        33.7504
   4369906.73846   3411293.94543
                  24208222.9064                                   24208220.8014
                                                                        40.0004
        22.0004
 09 10 20 23 38 30.0000000  0  9G02G04G05G10G25G13G23G29G30
   -858309.66048   -640096.12947
                  20542020.0944                                   20542013.7304
                                                                        52.0004
        42.7504
   3827593.04348   2991310.72746
                  22024428.8594                                   22024425.0234
                                                                        48.7504
        37.2504
  -6544667.05547  -5035604.73845
                  23169415.5474                                   23169411.9384
                                                                        47.0004
        34.2504
  -6271158.82847  -4836171.20745
                  22299525.4454                                   22299521.8594
                                                                        47.2504
        34.7504
   -338363.85946   -222193.50044
                  23836821.3524                                   23836818.2154
                                                                        39.2504
        24.5004
  -1816104.82448  -1378289.99646
                  21314399.0314                                   21314394.7034
                                                                        49.5004
        37.2504
   2806909.84047   2202063.61345
                  22704967.4224                                   22704961.2854
                                                                        46.0004
        31.0004
  -4868887.18747  -3746793.78945
                  22868799.6954                                   22868796.0824
                                                                        45.2504
        33.7504
   4380140.38346   3419268.12543
                  24210170.6484                                   24210168.8364
                                                                        41.0004
        22.7504
 09 10 20 23 39  0.0000000  0  9G02G04G05G10G25G13G23G29G30
   -934507.91448   -699471.45747
                  20527520.2344                                   20527513.9104
                                                                        51.7504
        42.7504
   3828570.75448   2992072.58646
                  22024614.7504                                   22024611.0124
                                                                        49.0004
        37.2504
  -6731916.98448  -5181513.76245
                  23133783.7894                                   23133779.0984
                                                                        48.0004
        34.7504
  -6450384.91447  -4975827.85945
                  22265420.1254                                   22265416.3984
                                                                        46.5004
        34.5004
   -502126.07046   -349800.35544
                  23805658.3204                                   23805655.3014
                                                                        40.7504
        25.0004
  -1906732.52348  -1448909.01646
                  21297153.1094                                   21297148.7734
                                                                        48.7504
        37.0004
   2793340.57447   2191490.14545
                  22702385.1334                                   22702379.0004
                                                                        45.2504
        30.7504
  -5019922.14147  -3864483.37145
                  22840058.5394                                   22840055.3714
                                                                        44.2504
        33.0004
   4390803.75447   3427577.22744
                  24212200.0474                                   24212197.3674
                                                                        42.0004
        26.0004
 09 10 20 23 39 30.0000000  0  9G02G04G05G10G25G13G23G29G30
  -1010040.75048   -758328.28547
                  20513146.8754                                   20513140.6884
                                                                        52.2504
        42.5004
   3829997.81648   2993184.60946
                  22024886.4774                                   22024882.5634
                                                                        50.0004
        37.0004
  -6918843.74647  -5327170.97745
                  23098211.8984                                   23098208.5274
                                                                        46.5004
        33.7504
  -6629183.84448  -5115151.68745
                  22231395.8524                                   22231392.3674
                                                                        48.0004
        35.5004
   -665443.92646   -477060.96944
                  23774579.7274                                   23774576.8404
                                                                        41.2504
        26.5004
  -1996609.54748  -1518943.09046
                  21280050.1484                                   21280045.4654
                                                                        49.7504
        37.2504
   2780332.42247   2181353.89845
                  22699909.8054                                   22699903.7464
                                                                        46.2504
        30.2504
  -5170404.81247  -3981742.50445
                  22811422.8364                                   22811419.6134
                                                                        45.5004
        33.7504
   4401892.77347   3436218.01243
                  24214310.7974                                   24214307.6294
                                                                        42.2504
        23.2504
 09 10 20 23 40  0.0000000  0  9G02G04G05G10G25G13G23G29G30
  -1084909.96148   -816668.00047
                  20498899.7504                                   20498893.6604
                                                                        52.0004
        42.7504
   3831870.64848   2994643.95746
                  22025242.8754                                   22025239.2384
                                                                        50.2504
        36.7504
  -7105447.14847  -5472576.20345
                  23062702.9224                                   23062699.0594
                                                                        47.5004
        33.5004
  -6807555.37147  -5254142.50045
                  22197452.9144                                   22197448.6844
                                                                        47.2504
        35.5004
   -828316.24646   -603974.38344
                  23743586.7974                                   23743582.9884
                                                                        41.5004
        26.0004
  -2085737.14148  -1588393.18046
                  21263089.9224                                   21263085.4494
                                                                        49.5004
        36.7504
   2767881.05147   2171651.52745
                  22697540.6644                                   22697534.2034
                                                                        46.7504
        31.0004
  -5320335.71547  -4098571.77045
                  22782891.7584                                   22782888.7424
                                                                        45.7504
        34.5004
   4413402.68847   3445186.85243
                  24216500.9924                                   24216498.0044
                                                                        43.2504
        23.7504
 09 10 20 23 40 30.0000000  0  9G02G04G05G10G25G13G23G29G30
  -1159117.24648   -874491.88347
                  20484778.6484                                   20484772.4304
                                                                        51.7504
        43.0004
   3834185.20748   2996447.50046
                  22025682.9844                                   22025679.3524
                                                                        49.5004
        36.7504
  -7291726.84847  -5617729.20745
                  23027255.4844                                   23027251.1484
                                                                        47.5004
        34.2504
  -6985499.16447  -5392799.99646
                  22163591.0164                                   22163587.5594
                                                                        47.5004
        36.2504
   -990742.81647   -730540.50444
                  23712677.7114                                   23712674.1724
                                                                        42.2504
        24.7504
  -2174117.41448  -1657260.92246
                  21246271.2424                                   21246267.1844
                                                                        49.5004
        36.2504
   2755981.97347   2162379.48845
                  22695276.1724                                   22695269.9384
                                                                        46.0004
        30.2504
  -5469714.19147  -4214970.58245
                  22754465.5554                                   22754462.9614
                                                                        44.7504
        34.0004
   4425328.69147   3454479.99243
                  24218769.9304                                   24218766.6604
                                                                        43.5004
        22.0004
 09 10 20 23 41  0.0000000  0  8G02G04G05G10G25G13G23G29
  -1232665.71548   -931802.41447
                  20470782.8134                                   20470776.6414
                                                                        51.2504
        42.7504
   3836936.73848   2998591.52346
                  22026206.9224                                   22026203.3094
                                                                        49.7504
        36.7504
  -7477684.00047  -5762630.88745
                  22991868.7584                                   22991864.4574
                                                                        47.5004
        34.5004
  -7163015.89848  -5531124.73845
                  22129811.2114                                   22129807.1764
                                                                        48.7504
        35.5004
  -1152723.53946   -856759.20744
                  23681853.5784                                   23681850.1454
                                                                        41.7504
        25.5004
  -2261753.11748  -1725548.52346
                  21229595.1564                                   21229590.5474
                                                                        49.2504
        36.5004
   2744630.50847   2153534.14544
                  22693115.8204                                   22693109.6954
                                                                        45.5004
        29.2504
  -5618540.37147  -4330938.96545
                  22726145.2974                                   22726141.6954
                                                                        44.2504
        33.5004
 09 10 20 23 41 30.0000000  0  8G02G04G05G10G25G13G23G29
  -1305555.64548   -988599.82047
                  20456912.2894                                   20456906.3954
                                                                        52.5004
        42.5004
   3840122.93848   3001074.24646
                  22026813.1334                                   22026809.3834
                                                                        50.0004
        36.5004
  -7663316.74248  -5907279.77045
                  22956544.1954                                   22956539.6334
                                                                        48.0004
        34.2504
  -7340104.14148  -5669115.57845
                  22096111.8674                                   22096108.4384
                                                                        48.2504
        35.2504
  -1314256.13347   -982628.72743
                  23651114.6024                                   23651110.6294
                                                                        42.0004
        23.5004
  -2348644.68048  -1793256.24646
                  21213060.6414                                   21213055.8204
                                                                        49.5004
        37.0004
   2733823.69147   2145113.23445
                  22691060.1414                                   22691053.3834
                                                                        46.5004
        30.0004
  -5766813.26647  -4446476.23845
                  22697929.8444                                   22697926.2664
                                                                        45.0004
        33.2504
 09 10 20 23 42  0.0000000  0  8G02G04G05G10G25G13G23G29
  -1377786.11748  -1044883.37547
                  20443167.4694                                   20443161.1644
                                                                        52.5004
        43.0004
   3843742.93048   3003894.97346
                  22027502.2034                                   22027498.6454
                                                                        50.0004
        36.7504
  -7848622.10247  -6051673.55945
                  22921281.5704                                   22921277.4224
                                                                        47.7504
        34.7504
  -7516760.32848  -5806769.73445
                  22062495.9534                                   22062491.4534
                                                                        48.5004
        35.0004
  -1475336.93747  -1108146.22343
                  23620462.1174                                   23620457.8984
                                                                        42.0004
        22.5004
  -2434790.78948  -1860383.09046
                  21196667.1254                                   21196662.3284
                                                                        50.0004
        37.0004
   2723560.55147   2137115.99245
                  22689106.8914                                   22689100.0204
                                                                        46.0004
        30.0004
  -5914529.23047  -4561579.59845
                  22669820.3754                                   22669816.7194
                                                                        45.0004
        33.2504
 09 10 20 23 42 30.0000000  0  8G02G04G05G10G25G13G23G29
  -1449356.23048  -1100652.29747
                  20429547.9844                                   20429541.9064
                                                                        51.7504
        43.0004
   3847795.03148   3007052.41046
                  22028273.0164                                   22028269.5314
                                                                        49.7504
        37.2504
  -8033597.61747  -6195810.30945
                  22886081.7974                                   22886078.0704
                                                                        47.0004
        34.7504
  -7692982.21948  -5944085.48845
                  22028962.1884                                   22028958.0084
                                                                        48.0004
        35.7504
  -1635962.87546  -1233309.21943
                  23589895.6564                                   23589892.1334
                                                                        41.7504
        22.7504
  -2520191.35548  -1926928.98846
                  21180416.0084                                   21180411.2274
                                                                        50.0004
        37.0004
   2713839.23847   2129541.01244
                  22687256.7584                                   22687249.9734
                                                                        44.5004
        29.0004
  -6061685.33247  -4676246.48445
                  22641817.4844                                   22641813.6524
                                                                        45.0004
        33.5004
 09 10 20 23 43  0.0000000  0  8G02G04G05G10G25G13G23G29
  -1520270.84448  -1155910.42247
                  20416053.7424                                   20416047.2584
                                                                        52.5004
        42.5004
   3852272.89548   3010541.62946
                  22029125.1644                                   22029121.4024
                                                                        49.5004
        36.7504
  -8218245.64147  -6339691.84845
                  22850944.3674                                   22850940.3094
                                                                        47.7504
        35.0004
  -7868771.99648  -6081064.54345
                  21995510.0394                                   21995506.2504
                                                                        48.5004
        35.5004
  -1796135.94947  -1358119.36344
                  23559416.1564                                   23559412.4104
                                                                        42.5004
        24.5004
  -2604850.57848  -1992897.22746
                  21164305.7424                                   21164301.0664
                                                                        50.0004
        36.7504
   2704652.53547   2122382.53544
                  22685508.5864                                   22685501.9804
                                                                        46.5004
        29.2504
  -6208284.77747  -4790479.71945
                  22613919.8594                                   22613916.6954
                                                                        46.2504
        33.5004
 09 10 20 23 43 30.0000000  0  8G02G04G05G10G25G13G23G29
  -1590535.88348  -1210662.37947
                  20402682.4924                                   20402676.3594
                                                                        52.5004
        42.7504
   3857168.74648   3014356.57446
                  22030057.1174                                   22030053.7304
                                                                        49.5004
        36.0004
  -8402570.15648  -6483321.32846
                  22815868.9924                                   22815864.8554
                                                                        48.0004
        36.2504
  -8044133.23848  -6217709.66445
                  21962140.2114                                   21962135.9344
                                                                        48.2504
        35.5004
  -1955859.36347  -1482579.07844
                  23529021.9694                                   23529018.3874
                                                                        43.7504
        25.0004
  -2688774.42648  -2058292.43446
                  21148335.7584                                   21148331.0394
                                                                        50.0004
        36.2504
   2695992.44947   2115634.44944
                  22683860.3054                                   22683854.5204
                                                                        45.5004
        29.7504
  -6354330.97347  -4904281.93445
                  22586128.6094                                   22586125.1174
                                                                        46.5004
        34.0004
 09 10 20 23 44  0.0000000  0  8G02G04G05G10G25G13G23G29
  -1660156.31648  -1264912.05947
                  20389434.0474                                   20389428.0984
                                                                        52.2504
        42.7504
   3862475.56348   3018491.74246
                  22031066.7194                                   22031063.0944
                                                                        48.7504
        36.0004
  -8586574.10548  -6626701.03945
                  22780854.0164                                   22780849.9024
                                                                        48.0004
        35.2504
  -8219068.90248  -6354023.17245
                  21928850.9144                                   21928846.5904
                                                                        48.2504
        35.7504
  -2115135.51647  -1606690.34844
                  23498712.4144                                   23498709.1054
                                                                        44.0004
        25.5004
  -2771968.02048  -2123118.62146
                  21132504.5704                                   21132499.7704
                                                                        49.5004
        36.2504
   2687851.73847   2109291.04745
                  22682311.2894                                   22682305.3054
                                                                        46.0004
        30.0004
  -6499826.55947  -5017655.10245
                  22558442.1564                                   22558438.6764
                                                                        46.2504
        34.0004
 09 10 20 23 44 30.0000000  0  8G02G04G05G10G25G13G23G29
  -1729133.86748  -1318660.81247
                  20376308.1884                                   20376301.8054
                                                                        52.0004
        42.7504
   3868189.68848   3022944.29346
                  22032154.0314                                   22032150.6804
                                                                        49.0004
        36.5004
  -8770256.59848  -6769830.25045
                  22745900.1884                                   22745896.2304
                                                                        48.0004
        35.2504
  -8393578.40247  -6490004.57046
                  21895642.6644                                   21895638.5664
                                                                        47.0004
        36.0004
  -2273963.45747  -1730452.36344
                  23468488.9304                                   23468484.9654
                                                                        44.0004
        25.7504
  -2854432.96148  -2187377.03146
                  21116811.9384                                   21116807.3324
                                                                        48.2504
        36.2504
   2680226.37947   2103349.22745
                  22680860.3444                                   22680854.4494
                                                                        44.5004
        30.0004
  -6644771.02047  -5130598.85545
                  22530859.7274                                   22530856.0044
                                                                        46.5004
        33.5004
 09 10 20 23 45  0.0000000  0  8G02G04G05G10G25G13G23G29
  -1797472.09048  -1371911.37547
                  20363303.8204                                   20363297.5594
                                                                        52.2504
        42.2504
   3874305.68848   3027709.98045
                  22033317.8364                                   22033314.3324
                                                                        49.5004
        35.5004
  -8953619.47748  -6912710.41045
                  22711007.7344                                   22711002.9384
                                                                        48.0004
        35.5004
  -8567662.94947  -6625654.85246
                  21862515.4454                                   21862511.3444
                                                                        47.5004
        36.2504
  -2432343.74647  -1853865.56644
                  23438350.0554                                   23438346.1884
                                                                        43.7504
        26.5004
  -2936172.67648  -2251070.30146
                  21101257.2584                                   21101252.9024
                                                                        49.5004
        36.7504
   2673110.81647   2097804.66044
                  22679506.4534                                   22679500.3324
                                                                        44.7504
        29.5004
  -6789165.77047  -5243114.28945
                  22503382.4304                                   22503378.7624
                                                                        46.2504
        34.2504
 09 10 20 23 45 30.0000000  0  8G02G04G05G10G25G13G23G29
  -1865171.88348  -1424664.45747
                  20350420.8444                                   20350414.6214
                                                                        52.7504
        42.5004
   3880820.83248   3032786.70746
                  22034557.9304                                   22034554.5634
                                                                        49.5004
        36.0004
  -9136661.92647  -7055340.86345
                  22676175.6484                                   22676171.3914
                                                                        47.2504
        35.0004
  -8741321.73847  -6760973.39846
                  21829469.1954                                   21829465.3874
                                                                        47.7504
        36.5004
  -2590275.10247  -1976928.93744
                  23408296.6094                                   23408292.9694
                                                                        43.5004
        27.2504
  -3017188.55148  -2314199.55146
                  21085840.4694                                   21085835.9224
                                                                        49.5004
        36.7504
   2666501.80547   2092654.74245
                  22678248.8594                                   22678242.1604
                                                                        45.5004
        30.5004
  -6933009.65247  -5355200.49245
                  22476009.7034                                   22476005.9304
                                                                        46.5004
        33.2504
 09 10 20 23 46  0.0000000  0  8G02G04G05G10G25G13G23G29
  -1932234.28948  -1476920.82847
                  20337659.3834                                   20337653.0634
                                                                        52.0004
        42.2504
   3887732.35548   3038172.29746
                  22035873.0784                                   22035869.5824
                                                                        49.7504
        36.0004
  -9319382.27047  -7197720.32045
                  22641404.9694                                   22641401.2274
                                                                        47.0004
        35.0004
  -8914553.21948  -6895958.96946
                  21796504.4304                                   21796500.9384
                                                                        48.7504
        36.5004
  -2747755.43747  -2099640.87544
                  23378328.4924                                   23378325.2154
                                                                        43.2504
        27.0004
  -3097481.24648  -2376765.25846
                  21070561.1024                                   21070556.8324
                                                                        48.7504
        36.5004
   2660395.52747   2087896.58644
                  22677086.9774                                   22677080.6374
                                                                        45.2504
        29.7504
  -7076301.22347  -5466856.28945
                  22448742.2584                                   22448738.8794
                                                                        47.0004
        34.2504
 09 10 20 23 46 30.0000000  0  8G02G04G05G10G25G13G23G29
   -423239.96548   -301081.05547
                  20624811.2814                                   20624804.7464
                                                                        52.0004
        42.5004
   5470455.42248   4271462.97745
                  22337055.2734                                   22337051.7274
                                                                        48.0004
        35.5004
  -7926355.09447  -6112244.57845
                  22906489.1024                                   22906485.1174
                                                                        47.0004
        35.2504
  -7511932.03148  -5803007.39546
                  22063414.7584                                   22063410.2774
                                                                        49.0004
        36.7504
  -1329359.69147   -994397.43744
                  23648240.1254                                   23648236.8364
                                                                        42.5004
        25.2504
  -1601631.13348  -1211167.73846
                  21355211.9614                                   21355207.8524
                                                                        49.7504
        36.7504
   4230207.84447   3311126.99244
                  22975812.2114                                   22975805.8284
                                                                        46.0004
        29.2504
  -5643616.53147  -4350478.68745
                  22721373.2424                                   22721370.1334
                                                                        47.2504
        33.7504
 09 10 20 23 47  0.0000000  0  8G02G04G05G10G25G13G23G29
   -489032.99648   -352348.33247
                  20612291.2424                                   20612285.2034
                                                                        52.5004
        42.7504
   5478148.84048   4277457.84846
                  22338519.4774                                   22338515.6454
                                                                        49.5004
        36.0004
  -8108429.93747  -6254121.07845
                  22871841.5864                                   22871837.3674
                                                                        46.2504
        35.5004
  -7684307.07048  -5937325.60946
                  22030612.6804                                   22030608.7034
                                                                        48.0004
        36.2504
  -1485935.37547  -1116404.44144
                  23618444.7274                                   23618441.4144
                                                                        42.0004
        24.7504
  -1680483.10248  -1272610.81646
                  21340206.9694                                   21340202.1914
                                                                        49.2504
        37.0004
   4225096.11747   3307143.86744
                  22974838.8754                                   22974832.8954
                                                                        45.7504
        28.7504
  -5785802.19547  -4461272.85945
                  22694316.0784                                   22694312.8324
                                                                        46.5004
        34.0004
 09 10 20 23 47 30.0000000  0  8G02G04G05G10G25G13G23G29
   -554195.52048   -403124.27347
                  20599891.2664                                   20599885.1764
                                                                        52.0004
        42.2504
   5486226.18448   4283751.87945
                  22340056.2734                                   22340052.5664
                                                                        49.5004
        35.7504
  -8290182.49647  -6395746.46146
                  22837255.2664                                   22837251.2734
                                                                        47.0004
        36.5004
  -7856254.65648  -6071310.74646
                  21997891.8754                                   21997887.9264
                                                                        49.0004
        36.0004
  -1642058.68747  -1238058.96944
                  23588736.1884                                   23588731.4414
                                                                        42.5004
        24.0004
  -1758618.77748  -1333495.73046
                  21325338.3524                                   21325333.7584
                                                                        50.7504
        36.5004
   4220474.48447   3303542.63344
                  22973959.5784                                   22973953.0084
                                                                        45.0004
        29.0004
  -5927435.46147  -4571636.46145
                  22667364.5944                                   22667361.4184
                                                                        47.2504
        34.5004
 09 10 20 23 48  0.0000000  0  8G02G04G05G10G25G13G23G29
   -618727.35948   -453408.80947
                  20587611.5314                                   20587604.8954
                                                                        52.0004
        42.7504
   5494685.85548   4290343.84445
                  22341665.5554                                   22341662.5084
                                                                        48.5004
        35.5004
  -8471611.22347  -6537119.47746
                  22802731.0164                                   22802726.8054
                                                                        46.2504
        36.2504
  -8027772.85948  -6204961.29346
                  21965253.2424                                   21965249.2114
                                                                        49.2504
        36.0004
  -1797727.00446  -1359358.92243
                  23559112.7504                                   23559108.8874
                                                                        41.7504
        23.7504
  -1836038.49248  -1393822.79746
                  21310605.5634                                   21310601.0904
                                                                        50.7504
        36.7504
   4216340.09047   3300321.04744
                  22973172.6024                                   22973166.3284
                                                                        45.7504
        28.7504
  -6068514.66847  -4681568.44145
                  22640518.0004                                   22640514.9024
                                                                        46.2504
        35.2504
 09 10 20 23 48 30.0000000  0  8G02G04G05G10G25G13G23G29
   -682628.06248   -503201.55547
                  20575451.1414                                   20575444.6954
                                                                        51.5004
        42.5004
   5503526.27348   4297232.46145
                  22343348.3914                                   22343344.7734
                                                                        49.5004
        35.5004
  -8652713.48047  -6678238.11345
                  22768267.7034                                   22768263.6994
                                                                        46.5004
        35.7504
  -8198858.48848  -6338274.75446
                  21932696.5474                                   21932692.5314
                                                                        49.5004
        36.7504
  -1952937.13346  -1480301.86344
                  23529577.4844                                   23529573.5084
                                                                        41.7504
        26.0004
  -1912741.84448  -1453591.64846
                  21296009.5864                                   21296004.7624
                                                                        50.2504
        37.2504
   4212691.64547   3297478.12944
                  22972478.7504                                   22972472.0474
                                                                        45.0004
        27.7504
  -6209036.48847  -4791065.98845
                  22613777.7584                                   22613774.4964
                                                                        47.2504
        34.0004
 09 10 20 23 49  0.0000000  0  8G02G04G05G10G25G13G23G29
   -745899.65248   -552504.10547
                  20563410.8984                                   20563404.9414
                                                                        51.7504
        42.0004
   5512744.31648   4304415.36745
                  22345102.3984                                   22345099.0784
                                                                        49.2504
        34.7504
  -8833488.41447  -6819101.66846
                  22733867.6724                                   22733863.4574
                                                                        47.2504
        36.5004
  -8369511.18448  -6471250.87946
                  21900222.6804                                   21900218.2274
                                                                        49.5004
        37.0004
  -2107688.05147  -1600886.93044
                  23500129.4614                                   23500125.6764
                                                                        42.0004
        25.7504
  -1988730.42648  -1512803.49646
                  21281549.4774                                   21281544.9844
                                                                        50.7504
        37.2504
   4209524.84447   3295010.50844
                  22971875.9384                                   22971869.5274
                                                                        45.7504
        27.5004
  -6349000.65647  -4900128.92245
                  22587143.2584                                   22587139.7194
                                                                        47.5004
        33.7504
 09 10 20 23 49 30.0000000  0  8G02G04G05G10G25G13G23G29
   -808542.13348   -601316.43447
                  20551490.6334                                   20551484.3674
                                                                        51.7504
        42.5004
   5522337.77748   4311890.77745
                  22346928.1724                                   22346925.0594
                                                                        49.5004
        35.5004
  -9013933.80547  -6959708.46545
                  22699529.9614                                   22699525.6884
                                                                        46.0004
        35.5004
  -8539727.95348  -6603887.31646
                  21867831.0474                                   21867827.4734
                                                                        50.0004
        37.2504
  -2261977.11347  -1721112.16444
                  23470769.4614                                   23470765.3984
                                                                        42.0004
        26.5004
  -2064004.56648  -1571458.67646
                  21267225.5234                                   21267220.8404
                                                                        51.0004
        36.5004
   4206837.80947   3292916.71944
                  22971365.0944                                   22971358.4144
                                                                        45.2504
        29.2504
  -6488404.95347  -5008755.68445
                  22560615.6484                                   22560611.9414
                                                                        46.5004
        34.7504
 09 10 20 23 50  0.0000000  0  8G02G04G05G10G25G13G23G29
   -870555.58648   -649638.57447
                  20539689.8914                                   20539683.6484
                                                                        52.0004
        42.2504
   5532304.93048   4319657.39145
                  22348825.0784                                   22348821.2894
                                                                        48.7504
        35.5004
  -9194047.59047  -7100056.85545
                  22665255.4534                                   22665251.0354
                                                                        46.7504
        35.7504
  -8709507.24648  -6736182.85546
                  21835523.2194                                   21835519.3404
                                                                        49.5004
        36.7504
  -2415801.70747  -1840975.47744
                  23441498.0784                                   23441493.5314
                                                                        42.5004
        27.2504
  -2138564.63748  -1629557.43046
                  21253037.0004                                   21253032.6414
                                                                        51.0004
        36.7504
   4204628.48847   3291195.16444
                  22970944.4844                                   22970938.4224
                                                                        46.5004
        29.2504
  -6627247.30147  -5116944.53145
                  22534194.8594                                   22534191.5434
                                                                        47.0004
        35.0004
 09 10 20 23 50 30.0000000  0  8G02G04G05G10G25G13G23G29
   -931942.71948   -697472.71947
                  20528008.4534                                   20528002.0904
                                                                        52.0004
        42.0004
   5542641.48048   4327711.82845
                  22350791.3284                                   22350788.0594
                                                                        48.0004
        34.7504
  -9373829.61747  -7240146.74646
                  22631043.7344                                   22631039.8204
                                                                        46.5004
        36.2504
  -8878849.02348  -6868137.48046
                  21803298.7034                                   21803294.9224
                                                                        49.7504
        36.5004
  -2569161.56247  -1960476.63344
                  23412313.5704                                   23412310.1844
                                                                        42.0004
        26.2504
  -2212413.24648  -1687101.81646
                  21238983.6724                                   21238979.3954
                                                                        52.0004
        36.2504
   4202891.65647   3289841.78944
                  22970613.7894                                   22970607.4924
                                                                        45.5004
        28.0004
  -6765527.89547  -5224695.64545
                  22507881.2344                                   22507877.3954
                                                                        46.7504
        35.0004
 09 10 20 23 51  0.0000000  0  8G02G04G05G10G25G13G23G29
   -992702.85948   -744818.28947
                  20516446.1884                                   20516439.6024
                                                                        51.7504
        42.5004
   5553346.30148   4336053.23045
                  22352829.1884                                   22352825.2704
                                                                        49.0004
        34.5004
  -9553277.73447  -7379976.44146
                  22596896.6254                                   22596892.2114
                                                                        47.2504
        36.2504
  -9047750.86348  -6999749.30146
                  21771157.3284                                   21771153.0864
                                                                        49.7504
        36.7504
  -2722053.41846  -2079613.12544
                  23383219.7894                                   23383216.0204
                                                                        41.2504
        27.0004
  -2285549.77748  -1744091.31646
                  21225066.6414                                   21225061.9694
                                                                        51.0004
        36.5004
   4201625.94147   3288855.51644
                  22970372.8284                                   22970366.5314
                                                                        44.5004
        28.7504
  -6903244.02747  -5332006.86345
                  22481674.3594                                   22481670.6454
                                                                        47.2504
        34.7504
 09 10 20 23 51 30.0000000  0  8G02G04G05G10G25G13G23G29
  -1052836.79748   -791675.88747
                  20505003.0084                                   20504996.8324
                                                                        52.5004
        42.7504
   5564416.77348   4344679.57045
                  22354935.1804                                   22354932.0944
                                                                        48.5004
        34.7504
  -9732390.26648  -7519544.63746
                  22562812.5314                                   22562808.2114
                                                                        48.0004
        36.5004
  -9216210.87148  -7131016.84046
                  21739100.7114                                   21739096.5984
                                                                        48.7504
        36.7504
  -2874475.32046  -2198383.38344
                  23354214.3054                                   23354210.9734
                                                                        41.5004
        24.5004
  -2357975.32048  -1800526.81646
                  21211284.6564                                   21211280.1524
                                                                        51.0004
        36.5004
   4200828.23447   3288233.93044
                  22970220.4534                                   22970214.8794
                                                                        43.7504
        28.5004
  -7040394.29347  -5438877.14145
                  22455575.7894                                   22455572.2274
                                                                        46.0004
        35.5004
 09 10 20 23 52  0.0000000  0  8G02G04G05G10G25G13G23G29
  -1112347.46548   -838047.83647
                  20493678.3444                                   20493672.1334
                                                                        52.0004
        42.0004
   5575848.65248   4353587.50445
                  22357111.2424                                   22357107.2704
                                                                        48.2504
        34.5004
  -9911167.06248  -7658851.20746
                  22528792.4064                                   22528788.3014
                                                                        48.0004
        37.5004
  -9384229.06248  -7261940.11346
                  21707128.3364                                   21707124.1414
                                                                        48.7504
        36.5004
  -3026427.19146  -2316787.39844
                  23325299.2274                                   23325294.7154
                                                                        41.0004
        26.2504
  -2429692.39548  -1856410.25846
                  21197637.1724                                   21197632.6994
                                                                        50.7504
        36.7504
   4200494.17247   3287973.60244
                  22970157.2734                                   22970151.1054
                                                                        45.0004
        27.2504
  -7176979.01647  -5545306.84845
                  22429584.3284                                   22429580.8634
                                                                        46.5004
        35.0004
 09 10 20 23 52 30.0000000  0  8G02G04G05G10G25G13G23G29
  -1171236.28148   -883935.19147
                  20482471.9774                                   20482466.0164
                                                                        52.0004
        42.2504
   5587638.43048   4362774.33645
                  22359354.7034                                   22359351.0164
                                                                        48.5004
        34.7504
 -10089607.77048  -7797895.87946
                  22494835.9384                                   22494831.9964
                                                                        48.0004
        36.5004
  -9551804.89148  -7392518.65246
                  21675239.3754                                   21675235.2384
                                                                        49.5004
        37.0004
  -3177907.80946  -2434824.20744
                  23296472.8914                                   23296469.0004
                                                                        41.0004
        25.2504
  -2500703.18748  -1911743.34446
                  21184124.0784                                   21184119.8364
                                                                        51.7504
        36.0004
   4200619.58647   3288071.33644
                  22970181.2424                                   22970175.1484
                                                                        45.2504
        27.5004
  -7312997.60547  -5651295.39145
                  22403700.9144                                   22403697.4614
                                                                        46.7504
        35.2504
 09 10 20 23 53  0.0000000  0  8G02G04G05G10G25G13G23G29
  -1229504.01248   -929338.66847
                  20471384.1564                                   20471377.9694
                                                                        51.5004
        42.5004
   5599784.25447   4372238.60945
                  22361665.8674                                   22361662.1804
                                                                        47.2504
        34.5004
 -10267710.52048  -7936677.21146
                  22460944.0784                                   22460940.1684
                                                                        48.5004
        36.0004
  -9718936.75448  -7522751.27346
                  21643435.0634                                   21643431.2234
                                                                        49.5004
        37.2504
  -3328914.90647  -2552492.03544
                  23267737.4614                                   23267733.3524
                                                                        43.2504
        25.7504
  -2571008.43448  -1966526.66446
                  21170745.5234                                   21170741.0784
                                                                        51.2504
        37.0004
   4201201.68847   3288524.91844
                  22970291.9064                                   22970285.7384
                                                                        45.0004
        27.2504
  -7448448.30147  -5756841.36745
                  22377925.4614                                   22377922.1334
                                                                        47.0004
        35.5004
 09 10 20 23 53 30.0000000  0  8G02G04G05G10G25G13G23G29
  -1287151.65648   -974258.93047
                  20460414.2194                                   20460407.7704
                                                                        51.7504
        42.5004
   5612283.18847   4381978.04345
                  22364044.3984                                   22364041.1174
                                                                        47.5004
        35.0004
 -10445474.02348  -8075194.21946
                  22427116.5634                                   22427112.3754
                                                                        48.0004
        36.5004
  -9885622.69548  -7652636.40246
                  21611715.5084                                   21611711.7734
                                                                        49.5004
        37.5004
  -3479446.88747  -2669789.61744
                  23239092.5784                                   23239087.8134
                                                                        42.2504
        26.7504
  -2640609.30948  -2020761.10946
                  21157500.5944                                   21157496.6214
                                                                        51.0004
        36.0004
   4202237.48447   3289332.02344
                  22970489.5474                                   22970482.9804
                                                                        45.0004
        28.0004
  -7583329.87547  -5861943.88745
                  22352258.2504                                   22352254.8164
                                                                        47.2504
        35.0004
 09 10 20 23 54  0.0000000  0  8G02G04G05G10G25G13G23G29
  -1344178.67248  -1018695.56647
                  20449562.3364                                   20449556.4614
                                                                        51.5004
        42.2504
   5625134.06647   4391991.69545
                  22366489.4614                                   22366485.9224
                                                                        47.5004
        34.7504
 -10622894.84448  -8213444.20346
                  22393355.0004                                   22393350.5394
                                                                        48.0004
        37.0004
 -10051860.17248  -7782172.09046
                  21580082.1024                                   21580078.2734
                                                                        49.7504
        38.0004
  -3629500.30547  -2786714.28544
                  23210538.3134                                   23210534.0864
                                                                        42.0004
        25.7504
  -2709505.18448  -2074446.18446
                  21144390.5474                                   21144385.5784
                                                                        50.5004
        36.7504
   4203725.83647   3290491.78944
                  22970772.5704                                   22970766.2344
                                                                        43.7504
        28.5004
  -7717639.43747  -5966600.62545
                  22326700.1174                                   22326696.3164
                                                                        47.5004
        35.0004
 09 10 20 23 54 30.0000000  0  8G02G04G05G10G25G13G23G29
  -1400589.96548  -1062652.44547
                  20438827.8984                                   20438821.4654
                                                                        52.0004
        42.5004
   5638330.66848   4402274.73845
                  22369001.3054                                   22368997.4264
                                                                        48.0004
        34.5004
 -10799976.17248  -8351429.66046
                  22359657.1564                                   22359653.0474
                                                                        48.0004
        36.5004
 -10217651.39548  -7911360.06646
                  21548532.8834                                   21548529.2274
                                                                        49.2504
        37.7504
  -3779077.20747  -2903267.66044
                  23182074.3674                                   23182069.9574
                                                                        42.0004
        27.2504
  -2777701.34048  -2127586.08646
                  21131413.4304                                   21131408.9064
                                                                        50.5004
        36.5004
   4205659.46947   3291998.55944
                  22971140.4614                                   22971133.8754
                                                                        44.7504
        27.2504
  -7851379.53947  -6070813.59445
                  22301250.0314                                   22301246.3834
                                                                        47.2504
        35.5004
 09 10 20 23 55  0.0000000  0  8G02G04G05G10G25G13G23G29
  -1456383.65248  -1106128.02347
                  20428210.4694                                   20428204.3594
                                                                        52.0004
        42.7504
   5651873.12547   4412827.29745
                  22371577.7114                                   22371574.1294
                                                                        47.0004
        33.5004
 -10976713.38347  -8489146.97346
                  22326025.6484                                   22326021.2974
                                                                        47.7504
        37.0004
 -10382992.11348  -8040196.98846
                  21517069.9454                                   21517066.0904
                                                                        49.0004
        37.5004
  -3928172.91847  -3019446.09044
                  23153702.7274                                   23153698.7194
                                                                        42.0004
        27.0004
  -2845195.75448  -2180179.12546
                  21118569.7424                                   21118565.0124
                                                                        50.5004
        36.5004
   4208038.32047   3293852.19144
                  22971593.2424                                   22971587.0314
                                                                        43.7504
        28.2504
  -7984546.25847  -6174579.87946
                  22275909.2734                                   22275905.6524
                                                                        47.7504
        36.0004
 09 10 20 23 55 30.0000000  0  8G02G04G05G10G25G13G23G29
  -1511561.40648  -1149123.67647
                  20417710.6024                                   20417704.0744
                                                                        52.0004
        42.7504
   5665758.41048   4423646.97345
                  22374220.3054                                   22374216.2774
                                                                        48.0004
        34.0004
 -11153105.04747  -8626595.00446
                  22292458.7894                                   22292454.6804
                                                                        47.5004
        37.0004
 -10547881.32848  -8168682.07046
                  21485692.7114                                   21485688.8484
                                                                        49.2504
        37.5004
  -4076786.37547  -3135248.78144
                  23125421.9064                                   23125418.2504
                                                                        42.0004
        27.0004
  -2911990.55548  -2232226.99246
                  21105858.6564                                   21105854.3524
                                                                        50.2504
        36.5004
   4210858.73847   3296049.89144
                  22972129.8914                                   22972123.4534
                                                                        43.0004
        27.0004
  -8117138.58647  -6277898.52746
                  22250677.7114                                   22250674.0704
                                                                        47.2504
        36.0004
 09 10 20 23 56  0.0000000  0  8G02G04G05G10G25G13G23G29
      9297.56648     35961.21947
                  20707120.4454                                   20707114.1994
                                                                        51.7504
        42.7504
   7255403.55948   5662331.49245
                  22676719.4534                                   22676716.1644
                                                                        48.0004
        34.0004
  -9753724.51647  -7536168.61346
                  22558752.3204                                   22558748.5004
                                                                        47.2504
        37.5004
  -9136892.14548  -7069209.98446
                  21754194.5394                                   21754190.5044
                                                                        49.0004
        37.5004
  -2649490.49647  -2023070.19144
                  23397027.7504                                   23397023.7114
                                                                        42.0004
        28.2504
  -1402664.49648  -1056128.74646
                  21393074.2894                                   21393069.7624
                                                                        51.0004
        36.5004
   5789537.72747   4526189.36344
                  23272542.3134                                   23272535.5904
                                                                        43.5004
        26.7504
  -6673730.80948  -5153165.18745
                  22525349.1884                                   22525345.8524
                                                                        48.0004
        35.5004
 09 10 20 23 56 30.0000000  0  8G02G04G05G10G25G13G23G29
    -44652.69948     -6077.95347
                  20696853.8754                                   20696847.5274
                                                                        51.5004
        42.5004
   7269965.48447   5673678.41845
                  22679490.9384                                   22679487.5124
                                                                        46.2504
        34.0004
  -9929423.32448  -7673076.78146
                  22525318.0474                                   22525313.8244
                                                                        48.0004
        37.2504
  -9300875.31248  -7196989.05946
                  21722989.9774                                   21722985.5664
                                                                        50.0004
        38.2504
  -2797134.83247  -2138117.72344
                  23368931.5704                                   23368928.2544
                                                                        42.5004
        27.2504
  -1468064.74248  -1107089.96146
                  21380628.6644                                   21380624.0704
                                                                        50.2504
        36.2504
   5793230.98047   4529067.21944
                  23273245.2274                                   23273238.2974
                                                                        43.0004
        27.5004
  -6805172.01248  -5255586.90245
                  22500336.3134                                   22500333.3524
                                                                        48.2504
        35.5004
 09 10 20 23 57  0.0000000  0  8G02G04G05G10G25G13G23G29
    -97990.38748    -47639.82047
                  20686704.3364                                   20686698.1484
                                                                        51.5004
        42.2504
   7284862.27747   5685286.28145
                  22682325.4924                                   22682321.9694
                                                                        47.0004
        33.5004
 -10104772.85947  -7809712.80146
                  22491950.0314                                   22491945.9694
                                                                        47.5004
        37.7504
  -9464402.75848  -7324413.04346
                  21691871.4454                                   21691867.5984
                                                                        49.0004
        38.0004
  -2944291.39847  -2252785.15644
                  23340928.5784                                   23340925.0704
                                                                        43.5004
        28.7504
  -1532768.98048  -1157508.83245
                  21368315.8054                                   21368311.1484
                                                                        50.5004
        35.5004
   5797357.18447   4532282.44544
                  23274030.4614                                   23274024.3204
                                                                        43.2504
        28.5004
  -6936035.41047  -5357558.35945
                  22475433.9844                                   22475430.4844
                                                                        47.2504
        35.0004
 09 10 20 23 57 30.0000000  0  8G02G04G05G10G25G13G23G29
   -150716.80948    -88725.35246
                  20676670.7194                                   20676664.2344
                                                                        52.0004
        41.7504
   7300090.83248   5697152.68045
                  22685223.3284                                   22685219.9024
                                                                        48.0004
        33.5004
 -10279771.94948  -7946075.74246
                  22458648.8834                                   22458644.7624
                                                                        48.5004
        37.2504
  -9627473.42248  -7451481.08246
                  21660840.0004                                   21660835.9734
                                                                        49.5004
        38.2504
  -3090958.95747  -2367071.50044
                  23313018.7194                                   23313015.0274
                                                                        42.7504
        27.5004
  -1596779.26248  -1207386.98046
                  21356135.1174                                   21356131.0784
                                                                        50.5004
        36.5004
   5801911.40247   4535831.18444
                  23274897.0554                                   23274890.9804
                                                                        44.0004
        27.0004
  -7066319.71148  -5459078.57845
                  22450641.8754                                   22450638.4924
                                                                        48.5004
        35.2504
 09 10 20 23 58  0.0000000  0  8G02G04G05G10G25G13G23G29
   -202833.47748   -129335.78547
                  20666753.0784                                   20666746.9774
                                                                        52.0004
        42.0004
   7315648.77347   5709275.74645
                  22688184.3834                                   22688180.6334
                                                                        47.7504
        33.2504
 -10454419.52748  -8082164.78946
                  22425414.5474                                   22425410.3444
                                                                        48.0004
        37.2504
  -9790086.30548  -7578192.40646
                  21629895.5234                                   21629891.7584
                                                                        49.7504
        38.5004
  -3237135.94147  -2480975.59844
                  23285201.7034                                   23285198.3444
                                                                        43.0004
        28.2504
  -1660096.90248  -1256725.38345
                  21344085.9144                                   21344081.4924
                                                                        50.5004
        35.7504
   5806891.36747   4539711.67644
                  23275844.5554                                   23275838.5314
                                                                        43.7504
        27.0004
  -7196024.62548  -5560147.38345
                  22425959.9224                                   22425956.5944
                                                                        48.5004
        35.5004
 09 10 20 23 58 30.0000000  0  9G02G04G05G10G25G13G23G29G16
   -254342.84448   -169472.99247
                  20656951.5084                                   20656945.3554
                                                                        51.2504
        42.0004
   7331531.64548   5721651.96545
                  22691206.4064                                   22691202.8364
                                                                        48.2504
        34.0004
 -10628715.28148  -8217979.66846
                  22392247.4144                                   22392242.9414
                                                                        48.0004
        37.0004
  -9952241.14848  -7704546.82446
                  21599038.7814                                   21599034.5234
                                                                        49.2504
        38.7504
  -3382821.79347  -2594496.99644
                  23257478.8674                                   23257474.8794
                                                                        44.2504
        28.5004
  -1722724.47348  -1305526.06246
                  21332168.4384                                   21332164.2584
                                                                        50.5004
        36.0004
   5812292.53547   4543920.39144
                  23276872.7034                                   23276866.1644
                                                                        44.0004
        28.0004
  -7325149.68748  -5660764.32446
                  22401388.4224                                   22401384.9264
                                                                        48.0004
        36.2504
   7621966.01256   5974648.57052
                  24413237.8524                                   24413233.0664
                                                                        38.0004
        17.7504
 09 10 20 23 59  0.0000000  0  9G02G04G05G10G25G13G23G29G16
   -305248.90648   -209140.05547
                  20647264.3204                                   20647258.0864
                                                                        51.5004
        42.0004
   7347734.14147   5734277.25445
                  22694289.7274                                   22694286.4964
                                                                        47.0004
        34.5004
 -10802660.84048  -8353521.64546
                  22359146.2974                                   22359142.1454
                                                                        48.5004
        37.2504
 -10113939.47748  -7830545.53546
                  21568268.5084                                   21568264.5434
                                                                        49.7504
        38.0004
  -3528017.92247  -2707636.81244
                  23229849.6564                                   23229845.0084
                                                                        45.0004
        26.7504
  -1784666.40648  -1353792.49646
                  21320381.6024                                   21320377.0594
                                                                        50.5004
        36.7504
   5818109.27347   4548452.93444
                  23277979.5784                                   23277972.6334
                                                                        43.2504
        26.0004
  -7453696.83248  -5760930.95746
                  22376926.4694                                   22376923.2154
                                                                        48.7504
        36.0004
   7471313.15246   5857256.69543
                  24384570.1414                                   24384565.6524
                                                                        38.0004
        19.0004
 09 10 20 23 59 30.0000000  0  9G02G04G05G10G25G13G23G29G16
   -355553.90648   -248338.74647
                  20637691.4064                                   20637685.2974
                                                                        51.2504
        42.0004
   7364252.87947   5747148.94145
                  22697433.1884                                   22697430.0824
                                                                        47.0004
        33.2504
 -10976255.75448  -8488790.41046
                  22326112.4224                                   22326108.4414
                                                                        48.7504
        36.7504
 -10275180.82448  -7956188.16846
                  21537585.2114                                   21537581.5354
                                                                        49.7504
        38.5004
  -3672723.53947  -2820394.41444
                  23202312.8594                                   23202308.2274
                                                                        44.0004
        29.0004
  -1845925.01248  -1401526.48046
                  21308724.3914                                   21308719.6214
                                                                        50.7504
        36.0004
   5824336.94147   4553305.67244
                  23279164.2664                                   23279157.8634
                                                                        44.5004
        26.7504
  -7581665.77048  -5860646.95346
                  22352574.4774                                   22352571.0824
                                                                        48.0004
        36.0004
   7321150.81346   5740247.07843
                  24355994.5554                                   24355990.4184
                                                                        39.7504
        18.2504
