     2.11           OBSERVATION DATA    G (GPS)             RINEX VERSION / TYPE
teqc  2019Feb25                         20221121 12:28:52UTCPGM / RUN BY / DATE
OSX ker:10.11.6|Core i5|gcc 4.3 -m64|OSX ker:10.10+|=+      COMMENT
BIT 2 OF LLI FLAGS DATA COLLECTED UNDER A/S CONDITION       COMMENT
04713030                                                    MARKER NAME
3030                                                        MARKER NUMBER
-Unknown-           -Unknown-                               OBSERVER / AGENCY
0220400471          TRIMBLE R7          2.30                REC # / TYPE / VERS
-Unknown-           TRM39105.00     NONE                    ANT # / TYPE
  1449458.1908 -1709244.0228  5952442.8129                  APPROX POSITION XYZ
        0.0000        0.0000        0.0000                  ANTENNA: DELTA H/E/N
     1     1                                                WAVELENGTH FACT L1/2
    20    L1    L2    L5    L6    L7    L8    C1    P1    C2# / TYPES OF OBSERV
          P2    C5    C6    C7    C8    S1    S2    S5    S6# / TYPES OF OBSERV
          S7    S8                                          # / TYPES OF OBSERV
    30.0000                                                 INTERVAL
    15                                                      LEAP SECONDS
Forced Modulo Decimation to 30 seconds                      COMMENT
 SNR is mapped to RINEX snr flag value [0-9]                COMMENT
  L1 & L2: min(max(int(snr_dBHz/6), 0), 9)                  COMMENT
teqc edited: Beidou # 1 - 37 excluded                       COMMENT
  2009    10    30     0     0    0.0000000     GPS         TIME OF FIRST OBS
                                                            END OF HEADER
 09 10 30  0  0  0.0000000  0  8G02G04G05G10G13G16G29G07
  -5073733.52748  -3929027.39846
                  21244364.2814                                   21244358.2304
                                                                        51.5004
        40.2504
    797729.07047    619562.76244
                  24144698.4694                                   24144695.9964
                                                                        42.0004
        24.7504
 -17543833.19548 -13606706.99247
                  21076192.9534                                   21076188.8554
                                                                        51.7504
        42.0004
 -15890386.70748 -12324883.85246
                  20500683.8834                                   20500679.6254
                                                                        52.0004
        41.7504
  -5896746.09848  -4565749.17645
                  21818657.5394                                   21818653.2854
                                                                        48.5004
        32.5004
 -11433776.31647  -8870296.19144
                  23537471.7814                                   23537467.4414
                                                                        42.7504
        25.7504
 -12491843.73048  -9683196.05546
                  21880532.1644                                   21880528.7894
                                                                        50.5004
        38.7504
 -12488267.21547  -9715625.41044
                  23217116.8914                                   23217112.5514
                                                                        43.5004
        29.0004
 09 10 30  0  0 30.0000000  0  8G02G04G05G10G13G16G29G07
  -5097936.31648  -3947886.87146
                  21239758.5554                                   21239752.7234
                                                                        51.7504
        40.0004
    816632.72746    634292.84043
                  24148294.8754                                   24148293.4454
                                                                        41.2504
        22.7504
 -17700613.01248 -13728873.08246
                  21046358.8444                                   21046354.8324
                                                                        52.0004
        41.7504
 -16025210.71148 -12429941.33246
                  20475027.6884                                   20475023.5164
                                                                        53.0004
        41.2504
  -5926089.57848  -4588614.25045
                  21813073.4534                                   21813068.9924
                                                                        48.5004
        32.0004
 -11556504.35246  -8965928.46944
                  23514117.8054                                   23514113.3954
                                                                        41.5004
        24.2504
 -12587598.85248  -9757810.36746
                  21862310.9304                                   21862307.5004
                                                                        49.7504
        38.7504
 -12660139.08247  -9849551.49244
                  23184410.3204                                   23184405.9694
                                                                        45.7504
        29.7504
 09 10 30  0  1  0.0000000  0  8G02G04G05G10G13G16G29G07
  -5121643.81248  -3966360.35546
                  21235247.4384                                   21235241.1994
                                                                        51.5004
        40.2504
    835680.84447    649135.54743
                  24151920.2034                                   24151917.6484
                                                                        42.5004
        22.2504
 -17856912.75848 -13850665.11747
                  21016616.1644                                   21016612.1454
                                                                        52.2504
        42.2504
 -16159462.60548 -12534553.21146
                  20449479.9144                                   20449476.5864
                                                                        52.2504
        41.2504
  -5954889.03148  -4611055.39145
                  21807593.2114                                   21807588.3324
                                                                        48.2504
        31.7504
 -11678611.77746  -9061077.06644
                  23490881.4774                                   23490876.9734
                                                                        41.0004
        25.5004
 -12682714.23448  -9831926.33646
                  21844211.3444                                   21844207.9144
                                                                        49.5004
        38.7504
 -12831548.91447  -9983117.87544
                  23151792.7274                                   23151787.7734
                                                                        45.0004
        29.5004
 09 10 30  0  1 30.0000000  0  8G02G04G05G10G13G16G29G07
  -5144860.87548  -3984451.67646
                  21230829.4304                                   21230823.3634
                                                                        51.5004
        39.7504
    854868.19147    664086.56344
                  24155572.1414                                   24155568.7664
                                                                        44.5004
        24.7504
 -18012734.23448 -13972084.46946
                  20986964.1174                                   20986960.2584
                                                                        51.5004
        41.7504
 -16293144.61348 -12638720.98047
                  20424041.0164                                   20424037.2774
                                                                        52.0004
        42.0004
  -5983149.37948  -4633076.37545
                  21802215.4144                                   21802210.8484
                                                                        48.5004
        31.7504
 -11800100.44547  -9155743.44944
                  23467762.4534                                   23467757.8284
                                                                        42.0004
        26.2504
 -12777191.94548  -9905545.25046
                  21826232.5394                                   21826229.0944
                                                                        49.7504
        39.0004
 -13002495.78947 -10116323.31244
                  23119262.1644                                   23119257.9734
                                                                        43.5004
        29.0004
 09 10 30  0  2  0.0000000  0  8G02G04G05G10G13G16G29G07
  -3592170.48448  -2774563.14146
                  21526296.7584                                   21526290.5744
                                                                        51.7504
        39.2504
   2449611.28947   1906743.58644
                  24459041.4454                                   24459038.8524
                                                                        43.2504
        25.2504
 -16592651.69548 -12865526.60247
                  21257196.8284                                   21257192.9384
                                                                        50.7504
        42.0004
 -14850832.54748 -11514841.50446
                  20698504.2894                                   20698500.5514
                                                                        51.5004
        41.7504
  -4435453.91447  -3427079.94545
                  22096732.0234                                   22096727.5204
                                                                        47.2504
        32.0004
 -10345547.28547  -8022325.33244
                  23744555.0554                                   23744550.2624
                                                                        42.2504
        27.2504
 -11295610.54748  -8751066.25046
                  22108168.2504                                   22108164.8324
                                                                        48.5004
        38.7504
 -11597554.27047  -9021564.19544
                  23386613.7344                                   23386610.3134
                                                                        42.0004
        29.5004
 09 10 30  0  2 30.0000000  0  8G02G04G05G10G13G16G29G07
  -3614417.22348  -2791898.27046
                  21522063.2034                                   21522057.0944
                                                                        50.7504
        39.5004
   2469067.18447   1921904.03144
                  24462743.4694                                   24462741.3014
                                                                        43.0004
        25.7504
 -16747515.80948 -12986199.89547
                  21227727.0864                                   21227723.0004
                                                                        51.5004
        42.0004
 -14983376.28548 -11618122.36347
                  20673282.0784                                   20673278.1254
                                                                        52.2504
        42.0004
  -4462648.80147  -3448270.88345
                  22091557.0784                                   22091552.4384
                                                                        47.7504
        31.5004
 -10465801.05147  -8116029.64144
                  23721671.2664                                   23721666.8054
                                                                        42.0004
        26.0004
 -11388818.05148  -8823695.52046
                  22090431.3444                                   22090428.1644
                                                                        48.5004
        38.7504
 -11767573.72747  -9154047.10945
                  23354260.6414                                   23354256.8594
                                                                        43.5004
        30.2504
 09 10 30  0  3  0.0000000  0  8G02G04G05G10G13G16G29G07
  -3636180.84448  -2808857.08246
                  21517922.0314                                   21517916.4804
                                                                        51.5004
        39.5004
   2488655.30547   1937167.57444
                  24466470.8524                                   24466469.0314
                                                                        43.2504
        25.0004
 -16901898.29748 -13106497.87147
                  21198349.2424                                   21198344.9184
                                                                        51.0004
        42.0004
 -15115348.00048 -11720957.37546
                  20648168.6024                                   20648164.6804
                                                                        52.2504
        41.7504
  -4489313.03548  -3469048.24245
                  22086483.0314                                   22086478.5864
                                                                        48.0004
        31.7504
 -10585434.96147  -8209250.94144
                  23698906.0164                                   23698901.2704
                                                                        43.0004
        26.5004
 -11481389.86748  -8895829.46146
                  22072815.7664                                   22072812.3484
                                                                        48.5004
        38.0004
 -11937123.89547  -9286164.04744
                  23321995.9304                                   23321992.4774
                                                                        45.2504
        29.5004
 09 10 30  0  3 30.0000000  0  8G02G04G05G10G13G16G29G07
  -3657459.09048  -2825437.49646
                  21513872.6644                                   21513866.8444
                                                                        50.7504
        39.7504
   2508376.62546   1952534.70744
                  24470223.4614                                   24470221.5944
                                                                        41.5004
        24.2504
 -17055793.78548 -13226416.37947
                  21169063.4774                                   21169059.4654
                                                                        51.5004
        42.0004
 -15246743.45348 -11823343.46147
                  20623164.7424                                   20623160.9534
                                                                        52.7504
        42.0004
  -4515445.37547  -3489410.92245
                  22081510.3444                                   22081505.8284
                                                                        47.2504
        32.5004
 -10704443.68747  -8301984.99244
                  23676259.5084                                   23676254.6524
                                                                        43.2504
        26.7504
 -11573322.14848  -8967465.12546
                  22055321.7114                                   22055318.4144
                                                                        49.5004
        39.0004
 -12106198.81647  -9417910.61345
                  23289822.6174                                   23289818.6454
                                                                        43.2504
        30.7504
 09 10 30  0  4  0.0000000  0  8G02G04G05G10G13G16G29G07
  -3678258.03548  -2841644.50846
                  21509915.1334                                   21509909.1644
                                                                        52.0004
        39.5004
   2528225.97347   1968001.55144
                  24474000.9614                                   24473999.3834
                                                                        43.2504
        24.5004
 -17209205.23848 -13345957.69146
                  21139870.3914                                   21139866.2814
                                                                        51.2504
        41.7504
 -15377565.77748 -11925282.86746
                  20598269.9304                                   20598266.5904
                                                                        53.0004
        41.2504
  -4541052.20348  -3509364.21145
                  22076637.3524                                   22076632.6604
                                                                        48.5004
        31.5004
 -10822831.00447  -8394234.79744
                  23653731.3834                                   23653726.0704
                                                                        42.5004
        26.2504
 -11664618.64548  -9038605.27346
                  22037948.3054                                   22037945.1214
                                                                        49.0004
        38.7504
 -12274800.12147  -9549288.40645
                  23257739.2344                                   23257734.8754
                                                                        46.0004
        30.7504
 09 10 30  0  4 30.0000000  0  8G02G04G05G10G13G16G29G07
  -3698579.30148  -2857479.27746
                  21506048.0234                                   21506041.8284
                                                                        51.5004
        39.2504
   2548201.24647   1983566.60244
                  24477802.2664                                   24477800.1724
                                                                        44.2504
        24.2504
 -17362131.12548 -13465120.75447
                  21110769.5944                                   21110765.4574
                                                                        51.7504
        42.0004
 -15507814.33648 -12026775.25846
                  20573484.3754                                   20573480.9264
                                                                        53.0004
        41.7504
  -4566136.77047  -3528910.68045
                  22071864.0004                                   22071859.4694
                                                                        47.7504
        30.7504
 -10940595.75847  -8485999.43044
                  23631321.0084                                   23631316.4304
                                                                        43.0004
        25.5004
 -11755279.71948  -9109250.25846
                  22020696.1564                                   22020692.9144
                                                                        49.0004
        39.0004
 -12442925.23047  -9680295.14545
                  23225745.5314                                   23225741.6484
                                                                        44.7504
        30.7504
 09 10 30  0  5  0.0000000  0  8G02G04G05G10G13G16G29G07
  -3718426.27748  -2872944.43046
                  21502271.0784                                   21502265.2584
                                                                        52.0004
        39.7504
   2568299.27747   1999227.42644
                  24481626.9614                                   24481624.7304
                                                                        43.2504
        24.5004
 -17514571.39848 -13583905.38747
                  21081761.1724                                   21081757.2114
                                                                        52.0004
        42.5004
 -15637489.01648 -12127820.28946
                  20548808.3134                                   20548804.3404
                                                                        52.7504
        41.0004
  -4590702.03147  -3548052.57045
                  22067189.3834                                   22067184.4384
                                                                        47.7504
        31.7504
 -11057738.86747  -8577279.80543
                  23609028.9614                                   23609024.2384
                                                                        42.7504
        22.7504
 -11845306.82848  -9179401.17246
                  22003564.3524                                   22003561.0164
                                                                        49.2504
        38.5004
 -12610572.81647  -9810929.65245
                  23193843.2664                                   23193839.4774
                                                                        45.2504
        30.7504
 09 10 30  0  5 30.0000000  0  8G02G04G05G10G13G16G29G07
  -3737799.96148  -2888040.80146
                  21498584.3834                                   21498578.1564
                                                                        50.5004
        40.0004
   2588518.84047   2014982.99644
                  24485474.6334                                   24485472.7304
                                                                        43.5004
        24.5004
 -17666523.27348 -13702309.36747
                  21052845.5004                                   21052841.3054
                                                                        50.0004
        42.2504
 -15766588.80948 -12228417.51246
                  20524241.3444                                   20524237.5084
                                                                        52.2504
        41.7504
  -4614749.15247  -3566790.68045
                  22062613.1414                                   22062609.0004
                                                                        47.5004
        31.0004
 -11174258.23047  -8668074.17643
                  23586856.6334                                   23586851.2114
                                                                        42.0004
        23.7504
 -11934698.77748  -9249057.11346
                  21986553.6094                                   21986550.0864
                                                                        48.2504
        38.7504
 -12777738.99247  -9941188.94545
                  23162032.6174                                   23162028.8014
                                                                        45.5004
        31.5004
 09 10 30  0  6  0.0000000  0  8G02G04G05G10G13G16G29G07
  -3756703.41048  -2902770.80946
                  21494987.1954                                   21494981.2624
                                                                        50.7504
        39.7504
   2608857.07846   2030831.10243
                  24489344.6414                                   24489342.5514
                                                                        41.2504
        22.7504
 -17817986.25048 -13820332.40247
                  21024023.2424                                   21024019.3674
                                                                        50.5004
        42.0004
 -15895113.06648 -12328566.29347
                  20499784.0944                                   20499779.9224
                                                                        53.0004
        42.5004
  -4638282.06247  -3585128.16045
                  22058135.4924                                   22058130.9304
                                                                        46.7504
        30.5004
 -11290153.49246  -8758382.16844
                  23564802.3914                                   23564796.9804
                                                                        41.7504
        25.0004
 -12023456.88348  -9318219.12946
                  21969663.5944                                   21969660.0824
                                                                        48.0004
        38.5004
 -12944422.23447 -10071071.78145
                  23130313.7504                                   23130309.7384
                                                                        45.0004
        30.2504
 09 10 30  0  6 30.0000000  0  8G02G04G05G10G13G16G29G07
  -3775133.88748  -2917132.21546
                  21491480.2974                                   21491474.0004
                                                                        50.2504
        39.2504
   2629316.34446   2046773.53943
                  24493237.8674                                   24493235.7974
                                                                        40.7504
        21.2504
 -17968954.94148 -13937970.32847
                  20995295.1024                                   20995290.6724
                                                                        51.7504
        43.0004
 -16023057.06248 -12428262.90646
                  20475437.4844                                   20475433.0704
                                                                        53.0004
        41.7504
  -4661298.48447  -3603063.17245
                  22053755.1884                                   22053751.1954
                                                                        46.7504
        31.0004
 -11405420.33647  -8848200.52044
                  23542867.9844                                   23542862.5594
                                                                        42.0004
        25.5004
 -12111577.42648  -9386884.35546
                  21952894.8984                                   21952891.0434
                                                                        49.0004
        38.7504
 -13110614.99247 -10200572.05944
                  23098687.8754                                   23098683.6684
                                                                        44.2504
        29.2504
 09 10 30  0  7  0.0000000  0  8G02G04G05G10G13G16G29G07
  -3793094.28148  -2931127.33246
                  21488062.3204                                   21488056.5084
                                                                        50.5004
        39.7504
   2649893.54346   2062807.86743
                  24497153.1484                                   24497151.0274
                                                                        40.0004
        22.0004
 -18119428.74648 -14055222.56247
                  20966660.6954                                   20966656.5904
                                                                        51.5004
        42.5004
 -16150420.02348 -12527506.71547
                  20451200.9774                                   20451196.6254
                                                                        52.5004
        42.0004
  -4683801.55147  -3620598.05945
                  22049473.0784                                   22049469.2584
                                                                        46.5004
        30.7504
 -11520058.05147  -8937528.64843
                  23521052.9454                                   23521047.6334
                                                                        42.5004
        22.7504
 -12199060.59048  -9455052.97746
                  21936247.2034                                   21936243.4184
                                                                        48.7504
        38.2504
 -13276317.19947 -10329690.48044
                  23067155.3594                                   23067151.2504
                                                                        42.0004
        29.2504
 09 10 30  0  7 30.0000000  0  8G02G04G05G10G13G16G29G07
  -3810595.32448  -2944764.51646
                  21484731.8754                                   21484725.8524
                                                                        50.7504
        39.5004
   2670577.85946   2078925.55143
                  24501089.2814                                   24501086.9304
                                                                        40.5004
        22.2504
 -18269415.18448 -14172095.09447
                  20938118.9774                                   20938115.0164
                                                                        51.7504
        42.2504
 -16277210.79348 -12626304.67246
                  20427073.2194                                   20427069.2894
                                                                        52.5004
        41.7504
  -4705802.44947  -3637741.52045
                  22045286.6954                                   22045282.6954
                                                                        47.0004
        30.7504
 -11634075.37947  -9026373.32443
                  23499355.9534                                   23499350.8134
                                                                        42.5004
        23.2504
 -12285915.95748  -9522732.41446
                  21919719.0234                                   21919714.9654
                                                                        49.5004
        38.7504
 -13441534.87947 -10458431.53945
                  23035715.2814                                   23035711.5944
                                                                        43.5004
        31.0004
 09 10 30  0  8  0.0000000  0  8G02G04G05G10G13G16G29G07
  -3827632.35248  -2958040.11346
                  21481490.0084                                   21481483.9414
                                                                        50.2504
        39.2504
   2691374.23846   2095130.61744
                  24505046.8204                                   24505044.7974
                                                                        41.0004
        25.0004
 -18418906.21948 -14288581.58647
                  20909672.0164                                   20909668.1254
                                                                        51.0004
        42.5004
 -16403421.78948 -12724650.84846
                  20403055.8524                                   20403052.3054
                                                                        53.0004
        41.7504
  -4727297.60247  -3654491.00045
                  22041196.5234                                   22041192.4064
                                                                        47.0004
        31.0004
 -11747464.78947  -9114728.69544
                  23477779.0634                                   23477773.7234
                                                                        42.7504
        25.0004
 -12372137.55148  -9589918.02046
                  21903311.4694                                   21903307.7814
                                                                        49.0004
        38.5004
 -13606258.40247 -10586787.68045
                  23004370.0554                                   23004365.9574
                                                                        43.0004
        30.5004
 09 10 30  0  8 30.0000000  0  8G02G04G05G10G13G16G29G07
  -3844208.26248  -2970956.41846
                  21478335.6804                                   21478329.3594
                                                                        50.2504
        39.0004
   2712279.86747   2111420.76244
                  24509025.9774                                   24509023.4494
                                                                        43.5004
        26.0004
 -18567900.89548 -14404681.32447
                  20881319.0084                                   20881314.9024
                                                                        52.0004
        42.2504
 -16529052.87148 -12822545.17246
                  20379149.1094                                   20379145.0904
                                                                        52.5004
        41.5004
  -4748289.51647  -3670848.12945
                  22037201.8834                                   22037197.5554
                                                                        47.5004
        31.0004
 -11860226.03547  -9202594.54344
                  23456321.1804                                   23456316.4344
                                                                        42.7504
        24.7504
 -12457725.81248  -9656610.12146
                  21887024.4694                                   21887020.7854
                                                                        49.7504
        38.5004
 -13770485.81247 -10714756.95745
                  22973118.3134                                   22973114.9024
                                                                        45.0004
        30.7504
 09 10 30  0  9  0.0000000  0  8G02G04G05G10G13G16G29G07
  -3860321.53548  -2983512.16046
                  21475269.3054                                   21475263.2814
                                                                        48.7504
        39.0004
   2733296.11747   2127797.24244
                  24513024.2894                                   24513021.8984
                                                                        43.5004
        25.5004
 -18716395.10548 -14520391.13747
                  20853061.5234                                   20853057.3794
                                                                        51.0004
        42.2504
 -16654100.59048 -12919984.93747
                  20355353.2814                                   20355348.8954
                                                                        52.0004
        42.0004
  -4768777.99647  -3686812.95745
                  22033302.7274                                   22033298.4454
                                                                        46.0004
        31.0004
 -11972355.57447  -9289968.13343
                  23434983.3834                                   23434978.4384
                                                                        43.0004
        23.5004
 -12542678.35248  -9722806.89546
                  21870858.6414                                   21870854.9384
                                                                        49.0004
        38.5004
 -13934211.94547 -10842335.54345
                  22941962.3364                                   22941958.6914
                                                                        45.5004
        31.5004
 09 10 30  0  9 30.0000000  0  8G02G04G05G10G13G16G29G07
  -3875980.37548  -2995713.87946
                  21472289.3054                                   21472283.4964
                                                                        49.7504
        39.0004
   2754414.45747   2144253.12543
                  24517042.8754                                   24517040.7734
                                                                        42.5004
        22.5004
 -18864393.50048 -14635714.63747
                  20824898.5084                                   20824894.5514
                                                                        52.0004
        43.0004
 -16778569.84848 -13016973.97747
                  20331667.5084                                   20331663.5474
                                                                        53.0004
        42.0004
  -4788772.16047  -3702392.89145
                  22029498.0394                                   22029493.6174
                                                                        46.2504
        31.0004
 -12083858.68747  -9376853.61744
                  23413765.5394                                   23413759.7974
                                                                        43.0004
        24.0004
 -12627001.12548  -9788512.91446
                  21854812.5234                                   21854808.7704
                                                                        49.7504
        38.0004
 -14097440.11347 -10969526.11345
                  22910901.0314                                   22910897.0044
                                                                        43.7504
        31.5004
 09 10 30  0 10  0.0000000  0  7G02G05G10G13G16G29G07
  -2315764.82848  -1779961.48846
                  21769188.9064                                   21769183.2154
                                                                        50.0004
        39.5004
 -17436468.45348 -13523045.87147
                  21096623.8594                                   21096619.8284
                                                                        51.0004
        42.7504
 -15327034.44548 -11885907.42246
                  20607885.7424                                   20607881.7664
                                                                        53.2504
        41.7504
  -3232851.98847  -2489987.60245
                  22325579.4384                                   22325574.9574
                                                                        45.5004
        30.2504
 -10619309.85947  -8235646.69944
                  23692459.4454                                   23692453.9184
                                                                        43.2504
        24.2504
 -11135270.50448  -8626125.39546
                  22138679.1724                                   22138675.8204
                                                                        50.0004
        38.5004
 -12684741.32447  -9868721.80545
                  23179729.1254                                   23179724.8674
                                                                        45.2504
        31.5004
 09 10 30  0 10 30.0000000  0  7G02G05G10G13G16G29G07
  -2330517.46148  -1791457.03146
                  21766381.3594                                   21766375.3634
                                                                        50.5004
        39.0004
 -17583467.90248 -13637591.18447
                  21068650.7274                                   21068646.7504
                                                                        52.2504
        42.0004
 -15450341.40648 -11981990.85947
                  20584421.1724                                   20584417.3794
                                                                        53.0004
        42.0004
  -3251860.62547  -2504799.52045
                  22321962.3914                                   22321957.7774
                                                                        46.7504
        30.5004
 -10729555.22347  -8321552.14544
                  23671480.2274                                   23671475.3794
                                                                        42.5004
        24.0004
 -11218331.52048  -8690848.29346
                  22122873.5004                                   22122869.4144
                                                                        50.0004
        39.2504
 -12846963.19147  -9995128.28545
                  23148858.8054                                   23148854.6174
                                                                        45.0004
        32.5004
 09 10 30  0 11  0.0000000  0  7G02G05G10G13G16G29G07
  -2344812.91048  -1802596.33246
                  21763661.1024                                   21763655.1214
                                                                        50.7504
        39.0004
 -17729958.28948 -13751739.53947
                  21040774.4454                                   21040770.8164
                                                                        52.5004
        42.7504
 -15573059.00048 -12077614.97747
                  20561068.9304                                   20561065.0434
                                                                        53.0004
        42.0004
  -3270372.68747  -2519224.46544
                  22318439.7894                                   22318435.2704
                                                                        46.7504
        29.5004
 -10839163.64147  -8406961.27744
                  23650622.5084                                   23650617.3954
                                                                        42.7504
        25.5004
 -11300755.77748  -8755075.00046
                  22107188.6334                                   22107184.9184
                                                                        49.7504
        38.5004
 -13008671.54747 -10121134.82045
                  23118086.9384                                   23118082.3014
                                                                        45.5004
        31.0004
 09 10 30  0 11 30.0000000  0  7G02G05G10G13G16G29G07
  -2358650.29348  -1813378.69146
                  21761027.8674                                   21761021.8324
                                                                        50.0004
        39.2504
 -17875935.42248 -13865487.82047
                  21012996.1174                                   21012992.0164
                                                                        52.5004
        42.5004
 -15695183.76648 -12172777.16046
                  20537829.0004                                   20537825.3404
                                                                        53.2504
        41.5004
  -3288388.20347  -2533262.47345
                  22315011.4224                                   22315006.9694
                                                                        46.0004
        30.2504
 -10948132.10247  -8491871.90244
                  23629886.4144                                   23629881.7234
                                                                        43.0004
        24.5004
 -11382540.03148  -8818803.04746
                  22091625.6254                                   22091622.3244
                                                                        50.0004
        38.5004
 -13169860.69947 -10246736.75044
                  23087413.0314                                   23087409.0314
                                                                        44.7504
        29.5004
 09 10 30  0 12  0.0000000  0  7G02G05G10G13G16G29G07
  -2372027.96548  -1823802.81246
                  21758482.1804                                   21758476.0084
                                                                        51.0004
        38.5004
 -18021395.32448 -13978833.24247
                  20985315.8284                                   20985311.6174
                                                                        52.2504
        43.0004
 -15816711.65248 -12267474.39146
                  20514703.1174                                   20514699.6954
                                                                        52.5004
        41.7504
  -3305906.06647  -2546912.78545
                  22311677.6644                                   22311673.4924
                                                                        46.0004
        30.0004
 -11056455.83647  -8576280.06643
                  23609273.5164                                   23609267.9694
                                                                        42.2504
        22.7504
 -11463681.56248  -8882030.26646
                  22076184.9454                                   22076181.3094
                                                                        50.2504
        38.7504
 -13330524.88347 -10371929.78945
                  23056840.0314                                   23056835.5594
                                                                        45.0004
        30.5004
 09 10 30  0 12 30.0000000  0  7G02G05G10G13G16G29G07
  -2384953.09048  -1833874.37546
                  21756022.7114                                   21756016.6884
                                                                        50.0004
        38.5004
 -18166341.33648 -14091778.19547
                  20957733.5634                                   20957729.4264
                                                                        52.2504
        42.5004
 -15937646.71948 -12361709.59446
                  20491690.0944                                   20491686.4924
                                                                        53.2504
        41.5004
  -3322933.33647  -2560180.67645
                  22308437.5864                                   22308433.1844
                                                                        45.0004
        30.5004
 -11164139.77346  -8660189.70744
                  23588781.4454                                   23588776.9924
                                                                        41.5004
        24.5004
 -11544185.80948  -8944760.91446
                  22060865.5004                                   22060861.8244
                                                                        49.5004
        39.0004
 -13490666.76247 -10496716.03145
                  23026366.2114                                   23026361.8754
                                                                        45.0004
        30.0004
 09 10 30  0 13  0.0000000  0  7G02G05G10G13G16G29G07
  -2397435.02048  -1843600.54746
                  21753647.4454                                   21753641.4774
                                                                        50.0004
        38.5004
 -18310779.09848 -14204326.92247
                  20930247.8834                                   20930244.1454
                                                                        52.5004
        42.5004
 -16057995.52348 -12455487.75446
                  20468788.4694                                   20468784.7584
                                                                        52.5004
        41.5004
  -3339480.07447  -2573073.93045
                  22305289.0084                                   22305284.0044
                                                                        44.2504
        30.5004
 -11271190.53547  -8743605.90644
                  23568411.4454                                   23568405.8324
                                                                        42.7504
        24.2504
 -11624060.63748  -9007001.13746
                  22045666.0944                                   22045662.1764
                                                                        49.5004
        38.7504
 -13650290.25447 -10621097.85245
                  22995990.7584                                   22995986.3524
                                                                        44.5004
        30.5004
 09 10 30  0 13 30.0000000  0  7G02G05G10G13G16G29G07
  -2409478.76648  -1852985.33246
                  21751355.4064                                   21751349.3054
                                                                        49.5004
        38.0004
 -18454710.61748 -14316481.19147
                  20902858.4844                                   20902854.2234
                                                                        52.0004
        42.7504
 -16177761.18048 -12548811.77746
                  20445998.2194                                   20445994.2934
                                                                        52.7504
        41.5004
  -3355552.11747  -2585597.37145
                  22302230.1254                                   22302225.6884
                                                                        44.2504
        31.2504
 -11377610.43746  -8826530.51644
                  23548160.0164                                   23548154.7114
                                                                        41.5004
        25.5004
 -11703309.05548  -9068753.18746
                  22030585.2974                                   22030581.9104
                                                                        49.5004
        38.7504
 -13809397.30147 -10745077.59445
                  22965713.9694                                   22965709.4144
                                                                        44.5004
        30.7504
 09 10 30  0 14  0.0000000  0  7G02G05G10G13G16G29G07
  -2421086.31648  -1862030.27346
                  21749146.8134                                   21749140.4734
                                                                        49.5004
        39.0004
 -18598134.34448 -14428239.90247
                  20875565.9304                                   20875561.9654
                                                                        52.5004
        42.5004
 -16296942.04748 -12641680.12946
                  20423318.8284                                   20423314.7274
                                                                        52.5004
        41.7504
  -3371152.41047  -2597753.45345
                  22299261.4304                                   22299257.2774
                                                                        45.0004
        30.5004
 -11483399.43447  -8908963.59044
                  23528029.4144                                   23528024.1914
                                                                        42.2504
        25.7504
 -11781931.76648  -9130017.68746
                  22015624.0864                                   22015620.3094
                                                                        50.0004
        38.5004
 -13967984.31247 -10868651.81645
                  22935535.5474                                   22935531.4694
                                                                        45.2504
        30.7504
 09 10 30  0 14 30.0000000  0  7G02G05G10G13G16G29G07
  -2432263.39548  -1870739.82446
                  21747019.8364                                   21747014.4104
                                                                        48.5004
        39.0004
 -18741052.75048 -14539604.78947
                  20848369.3284                                   20848365.2194
                                                                        52.5004
        43.0004
 -16415541.31648 -12734095.16046
                  20400750.0004                                   20400746.1884
                                                                        52.5004
        41.7504
  -3386286.60947  -2609546.42645
                  22296381.5634                                   22296377.5234
                                                                        43.7504
        31.0004
 -11588560.21547  -8990907.06244
                  23508017.6484                                   23508012.4454
                                                                        43.0004
        25.7504
 -11859932.74248  -9190797.68046
                  22000781.0474                                   22000777.6564
                                                                        49.2504
        38.0004
 -14126053.81247 -10991823.02045
                  22905456.3524                                   22905452.1604
                                                                        45.0004
        32.0004
 09 10 30  0 15  0.0000000  0  7G02G05G10G13G16G29G07
  -2443008.61348  -1879112.73846
                  21744975.2504                                   21744969.1214
                                                                        49.7504
        38.0004
 -18883462.23448 -14650573.14147
                  20821269.7344                                   20821265.4024
                                                                        52.7504
        42.7504
 -16533555.30148 -12826053.98846
                  20378292.4694                                   20378288.8594
                                                                        52.5004
        41.5004
  -3400953.84047  -2620975.34045
                  22293590.5554                                   22293586.1134
                                                                        45.2504
        30.0004
 -11693090.14147  -9072359.02744
                  23488126.5164                                   23488121.1254
                                                                        42.7504
        25.5004
 -11937310.34048  -9251092.00846
                  21986056.9064                                   21986052.5164
                                                                        50.2504
        38.0004
 -14283599.22347 -11114585.58245
                  22875476.0944                                   22875472.0864
                                                                        46.0004
        30.5004
 09 10 30  0 15 30.0000000  0  7G02G05G10G13G16G29G07
  -2453325.53148  -1887152.13346
                  21743012.1954                                   21743006.5204
                                                                        49.5004
        39.0004
 -19025361.51648 -14761144.09047
                  20794267.3054                                   20794263.0864
                                                                        53.0004
        42.2504
 -16650984.58248 -12917557.19546
                  20355946.6174                                   20355942.6414
                                                                        52.5004
        41.7504
  -3415158.16047  -2632043.64845
                  22290887.5084                                   22290882.7464
                                                                        44.7504
        30.0004
 -11796989.14147  -9153319.34044
                  23468355.5784                                   23468349.7074
                                                                        43.2504
        26.0004
 -12014064.79348  -9310900.71146
                  21971450.9614                                   21971447.2854
                                                                        50.0004
        39.0004
 -14440620.59447 -11236940.14845
                  22845596.1094                                   22845592.1254
                                                                        46.2504
        32.2504
 09 10 30  0 16  0.0000000  0  7G02G05G10G13G16G29G07
  -2463213.85248  -1894857.41446
                  21741130.5474                                   21741124.9144
                                                                        49.2504
        37.5004
 -19166748.18748 -14871315.58247
                  20767362.1804                                   20767358.0164
                                                                        52.7504
        42.7504
 -16767826.66848 -13008602.73846
                  20333711.7814                                   20333708.0664
                                                                        52.5004
        41.5004
  -3428899.60947  -2642751.19945
                  22288272.2504                                   22288267.9804
                                                                        44.5004
        30.0004
 -11900255.20346  -9233786.57444
                  23448704.6954                                   23448699.0274
                                                                        41.7504
        25.5004
 -12090195.71948  -9370223.63746
                  21956963.8754                                   21956960.1214
                                                                        49.5004
        39.0004
 -14597112.08247 -11358881.56245
                  22815816.9844                                   22815813.3524
                                                                        45.2504
        31.7504
 09 10 30  0 16 30.0000000  0  7G02G05G10G13G16G29G07
  -2472684.45348  -1902237.06246
                  21739328.2194                                   21739322.5784
                                                                        49.0004
        38.0004
 -19307629.53548 -14981093.22347
                  20740553.2504                                   20740548.8874
                                                                        53.0004
        43.0004
 -16884090.53548 -13099197.90246
                  20311587.8204                                   20311583.7774
                                                                        52.7504
        41.5004
  -3442190.21147  -2653107.45344
                  22285743.2734                                   22285738.2384
                                                                        43.5004
        29.5004
 -12002896.62947  -9313767.09044
                  23429172.6644                                   23429167.4614
                                                                        42.0004
        25.5004
 -12165712.40248  -9429067.90646
                  21942593.4924                                   21942589.7544
                                                                        49.5004
        38.5004
 -14753081.08647 -11480415.86345
                  22786136.7974                                   22786133.2114
                                                                        46.2504
        31.7504
 09 10 30  0 17  0.0000000  0  7G02G05G10G13G16G29G07
  -2481735.35248  -1909289.67646
                  21737605.6804                                   21737599.6914
                                                                        49.0004
        37.7504
 -19448000.09848 -15090472.84447
                  20713841.7114                                   20713837.4494
                                                                        52.2504
        43.0004
 -16999770.60948 -13189337.98846
                  20289574.2114                                   20289570.4734
                                                                        52.7504
        41.7504
  -3455027.90247  -2663110.85544
                  22283299.8674                                   22283295.5904
                                                                        44.7504
        29.0004
 -12104908.84047  -9393257.21144
                  23409760.4844                                   23409754.9304
                                                                        43.0004
        25.5004
 -12240611.35948  -9487430.88746
                  21928340.6254                                   21928337.2974
                                                                        49.0004
        38.2504
 -14908521.29347 -11601538.18045
                  22756557.3444                                   22756554.2154
                                                                        46.0004
        31.2504
 09 10 30  0 17 30.0000000  0  7G02G05G10G13G16G29G07
  -2490369.14848  -1916017.48846
                  21735963.0784                                   21735957.4654
                                                                        49.0004
        37.7504
 -19587858.55948 -15199453.44147
                  20687227.3984                                   20687223.1844
                                                                        52.5004
        43.5004
 -17114867.24248 -13279023.75846
                  20267672.3594                                   20267668.4884
                                                                        53.0004
        41.0004
  -3467415.42647  -2672763.45744
                  22280943.1484                                   22280938.2934
                                                                        44.5004
        29.5004
 -12206291.83247  -9472257.12544
                  23390468.4694                                   23390462.8554
                                                                        42.0004
        26.2504
 -12314892.57048  -9545312.39846
                  21914205.2734                                   21914202.1094
                                                                        49.0004
        38.5004
 -15063429.56247 -11722245.50845
                  22727079.3444                                   22727075.1294
                                                                        46.2504
        31.2504
 09 10 30  0 18  0.0000000  0  7G02G05G10G13G16G29G07
  -2498583.68048  -1922418.75046
                  21734400.2424                                   21734394.0354
                                                                        48.5004
        37.7504
 -19727200.13348 -15308031.24247
                  20660711.6254                                   20660707.3404
                                                                        53.0004
        43.0004
 -17229375.92648 -13368251.57046
                  20245882.1484                                   20245878.0784
                                                                        52.2504
        41.5004
  -3479351.01647  -2682063.94144
                  22278671.8364                                   22278667.2034
                                                                        43.7504
        28.0004
 -12307041.67647  -9550763.84844
                  23371296.3204                                   23371291.0554
                                                                        42.0004
        26.5004
 -12388553.44548  -9602710.47746
                  21900188.4384                                   21900185.0634
                                                                        49.5004
        38.5004
 -15217799.58247 -11842533.37145
                  22697703.4454                                   22697699.2274
                                                                        46.0004
        31.5004
 09 10 30  0 18 30.0000000  0  7G02G05G10G13G16G29G07
   -930963.87148   -700896.79746
                  22032708.5164                                   22032702.4264
                                                                        48.7504
        38.2504
 -18290602.41848 -14188604.39547
                  20934087.0864                                   20934083.1524
                                                                        52.2504
        43.2504
 -15767875.17648 -12229419.80546
                  20523996.4774                                   20523992.6334
                                                                        53.0004
        41.7504
  -1915421.35247  -1463417.44544
                  22576278.0234                                   22576273.4574
                                                                        44.7504
        29.2504
 -10831737.54747  -8401176.43044
                  23652037.5474                                   23652032.4024
                                                                        42.7504
        26.0004
 -10886175.69548  -8432026.49246
                  22186081.0944                                   22186077.9384
                                                                        49.5004
        38.5004
 -13796209.65247 -10734800.92245
                  22968223.3754                                   22968218.9614
                                                                        46.2504
        31.5004
 09 10 30  0 19  0.0000000  0  7G02G05G10G13G16G29G07
   -938357.69548   -706658.20346
                  22031301.3914                                   22031295.4414
                                                                        49.0004
        37.7504
 -18428918.44548 -14296383.06647
                  20907766.5004                                   20907762.1294
                                                                        52.5004
        43.0004
 -15881217.27348 -12317738.31647
                  20502428.2194                                   20502424.2624
                                                                        52.7504
        42.0004
  -1926473.74647  -1472029.66045
                  22574174.4924                                   22574169.9774
                                                                        44.5004
        30.0004
 -10931231.18047  -8478704.17244
                  23633104.7274                                   23633099.9494
                                                                        42.0004
        24.5004
 -10958609.60948  -8488468.46146
                  22172297.3834                                   22172294.0394
                                                                        49.2504
        38.5004
 -13949511.18747 -10854256.55545
                  22939050.6414                                   22939046.3714
                                                                        45.5004
        31.5004
 09 10 30  0 19 30.0000000  0  7G02G05G10G13G16G29G07
   -945335.40648   -712095.42246
                  22029973.5554                                   22029967.5744
                                                                        48.7504
        37.5004
 -18566711.14548 -14403754.02047
                  20881545.3594                                   20881541.2934
                                                                        52.5004
        43.0004
 -15993966.14148 -12405594.44147
                  20480972.8754                                   20480968.7774
                                                                        52.2504
        42.2504
  -1937079.10547  -1480293.52745
                  22572156.7194                                   22572151.8794
                                                                        44.2504
        30.5004
 -11030087.41047  -8555735.08244
                  23614293.2734                                   23614288.9024
                                                                        42.5004
        26.7504
 -11030422.45348  -8544426.52746
                  22158632.2664                                   22158628.8204
                                                                        49.5004
        39.0004
 -14102265.50847 -10973285.70345
                  22909982.3914                                   22909977.7734
                                                                        46.0004
        32.0004
 09 10 30  0 20  0.0000000  0  7G02G05G10G13G16G29G07
   -951903.49648   -717213.40646
                  22028723.5314                                   22028718.0984
                                                                        49.0004
        38.0004
 -18703982.96548 -14510718.99647
                  20855423.1954                                   20855419.3284
                                                                        52.5004
        43.2504
 -16106126.43048 -12492991.94546
                  20459629.3754                                   20459625.2074
                                                                        53.0004
        41.5004
  -1947244.77347  -1488214.79744
                  22570221.8134                                   22570217.2894
                                                                        44.2504
        29.0004
 -11128310.91047  -8632272.95744
                  23595601.1094                                   23595596.7504
                                                                        43.0004
        26.7504
 -11101619.19948  -8599904.52046
                  22145083.6334                                   22145080.5664
                                                                        49.5004
        39.0004
 -14254475.30547 -11091890.64545
                  22881017.8134                                   22881013.3134
                                                                        47.5004
        32.5004
 09 10 30  0 20 30.0000000  0  7G02G05G10G13G16G29G07
   -958065.53548   -722015.01246
                  22027551.0234                                   22027545.2344
                                                                        49.0004
        37.5004
 -18840734.83248 -14617278.73447
                  20829400.2194                                   20829396.0944
                                                                        53.0004
        43.0004
 -16217699.17248 -12579931.79746
                  20438397.9774                                   20438393.9144
                                                                        52.2504
        41.7504
  -1956974.55147  -1495796.46544
                  22568370.3914                                   22568366.0164
                                                                        44.7504
        28.5004
 -11225902.60247  -8708318.50844
                  23577030.7584                                   23577025.9964
                                                                        42.5004
        25.0004
 -11172202.03548  -8654904.15246
                  22131652.0864                                   22131648.7344
                                                                        49.5004
        38.0004
 -14406139.34847 -11210070.28545
                  22852157.0004                                   22852152.6294
                                                                        47.0004
        32.5004
 09 10 30  0 21  0.0000000  0  7G02G05G10G13G16G29G07
   -963828.39548   -726505.63746
                  22026454.1484                                   22026448.3834
                                                                        49.5004
        37.0004
 -18976970.23048 -14723436.18447
                  20803475.4844                                   20803471.0164
                                                                        52.7504
        43.0004
 -16328687.87148 -12666416.32847
                  20417277.3054                                   20417273.2774
                                                                        52.2504
        42.0004
  -1966275.82047  -1503044.34444
                  22566600.3674                                   22566596.1024
                                                                        46.0004
        28.2504
 -11322866.46547  -8783874.62544
                  23558578.6954                                   23558574.4344
                                                                        42.5004
        24.5004
 -11242176.19948  -8709429.50046
                  22118336.4694                                   22118333.5124
                                                                        48.7504
        38.2504
 -14557260.47347 -11327826.94545
                  22823399.6724                                   22823395.0274
                                                                        47.5004
        32.0004
 09 10 30  0 21 30.0000000  0  8G02G08G05G10G13G16G29G07
   -969191.24648   -730684.46946
                  22025434.0704                                   22025428.3594
                                                                        48.2504
        37.2504
   4468167.22356   3529365.54753
                  24666378.4694                                   24666375.0004
                                                                        40.5004
        19.5004
 -19112685.22348 -14829188.04747
                  20777649.7114                                   20777645.4224
                                                                        53.0004
        43.0004
 -16439090.19948 -12752444.14547
                  20396268.2814                                   20396264.0984
                                                                        52.2504
        42.0004
  -1975147.98047  -1509957.73444
                  22564912.3594                                   22564907.5354
                                                                        44.7504
        28.2504
 -11419200.29746  -8858939.91444
                  23540247.1884                                   23540242.3094
                                                                        41.5004
        26.0004
 -11311540.22748  -8763479.37946
                  22105137.0704                                   22105133.5434
                                                                        49.0004
        38.2504
 -14707833.06247 -11445156.07045
                  22794746.1564                                   22794742.0004
                                                                        47.5004
        32.0004
 09 10 30  0 22  0.0000000  0  8G02G08G05G10G13G16G29G07
   -974160.07048   -734556.25046
                  22024488.7034                                   22024482.9264
                                                                        48.2504
        37.5004
   4264498.13746   3370661.55543
                  24627621.0164                                   24627619.3634
                                                                        40.2504
        20.2504
 -19247882.58648 -14934536.58647
                  20751922.4534                                   20751918.1134
                                                                        53.2504
        42.7504
 -16548908.99248 -12838017.18046
                  20375370.3444                                   20375366.2664
                                                                        52.7504
        41.2504
  -1983597.77047  -1516542.06644
                  22563304.2664                                   22563299.4844
                                                                        43.7504
        28.7504
 -11514908.28546  -8933517.51644
                  23522034.1564                                   23522030.0004
                                                                        41.7504
        26.0004
 -11380297.85547  -8817056.74246
                  22092052.8984                                   22092049.5234
                                                                        47.7504
        38.2504
 -14857859.39147 -11562059.61345
                  22766197.0944                                   22766192.9414
                                                                        46.7504
        32.0004
 09 10 30  0 22 30.0000000  0  8G02G08G05G10G13G16G29G07
   -978742.57048   -738127.07846
                  22023616.4384                                   22023610.6294
                                                                        48.5004
        36.7504
   4061006.53146   3212097.14843
                  24588898.1644                                   24588896.3554
                                                                        40.7504
        18.5004
 -19382566.35548 -15039484.98047
                  20726293.0004                                   20726288.5164
                                                                        52.7504
        43.0004
 -16658149.66848 -12923139.80546
                  20354582.4844                                   20354578.6484
                                                                        52.5004
        41.7504
  -1991632.51647  -1522802.87544
                  22561775.2734                                   22561771.0124
                                                                        43.7504
        28.5004
 -11609994.90247  -9007610.98044
                  23503939.5314                                   23503935.3874
                                                                        42.7504
        26.2504
 -11448456.22748  -8870167.12546
                  22079083.0164                                   22079079.0204
                                                                        48.5004
        38.5004
 -15007342.48447 -11678539.89845
                  22737751.6414                                   22737746.7114
                                                                        47.7504
        32.5004
 09 10 30  0 23  0.0000000  0  8G02G08G05G10G13G16G29G07
   -982941.09048   -741398.67646
                  22022817.4454                                   22022811.5744
                                                                        48.2504
        36.7504
   3857692.34447   3053670.53943
                  24550209.0704                                   24550206.4264
                                                                        42.5004
        21.5004
 -19516736.11348 -15144032.82447
                  20700761.3524                                   20700756.9734
                                                                        52.0004
        43.7504
 -16766812.51248 -13007812.15247
                  20333904.7894                                   20333900.6884
                                                                        52.2504
        42.0004
  -1999256.20347  -1528743.38744
                  22560324.4304                                   22560319.7234
                                                                        45.0004
        28.2504
 -11704461.20747  -9081221.05944
                  23485963.6334                                   23485959.0164
                                                                        42.2504
        25.5004
 -11516016.68748  -8922811.56646
                  22066226.6724                                   22066223.3284
                                                                        48.5004
        39.0004
 -15156280.95747 -11794595.86345
                  22709408.8674                                   22709404.7504
                                                                        47.0004
        31.7504
 09 10 30  0 23 30.0000000  0  8G02G08G05G10G13G16G29G07
   -986759.26648   -744373.91046
                  22022090.7584                                   22022085.2154
                                                                        48.0004
        36.7504
   3654557.02747   2895382.79744
                  24511554.4844                                   24511552.3524
                                                                        44.7504
        24.5004
 -19650392.02348 -15248180.31247
                  20675327.2424                                   20675322.8364
                                                                        52.5004
        43.0004
 -16874896.93748 -13092033.49646
                  20313336.5394                                   20313332.6484
                                                                        52.5004
        41.7504
  -2006472.35547  -1534366.36744
                  22558951.5314                                   22558946.6254
                                                                        44.2504
        28.2504
 -11798307.53547  -9154347.93444
                  23468104.7194                                   23468100.4924
                                                                        43.0004
        26.2504
 -11582980.62548  -8974991.18446
                  22053483.4384                                   22053480.1254
                                                                        48.2504
        38.0004
 -15304673.73847 -11910226.53545
                  22681171.3134                                   22681166.7584
                                                                        47.0004
        31.5004
 09 10 30  0 24  0.0000000  0  8G02G08G05G10G13G16G29G07
   -990191.54348   -747048.45346
                  22021437.6884                                   22021432.1414
                                                                        48.2504
        37.0004
   3451613.47347   2737245.16044
                  24472935.2114                                   24472933.5704
                                                                        45.0004
        25.5004
 -19783525.67248 -15351920.80147
                  20649992.8754                                   20649988.2544
                                                                        51.7504
        43.2504
 -16982397.27348 -13175799.97346
                  20292880.1094                                   20292875.9574
                                                                        52.0004
        41.2504
  -2013275.72347  -1539667.62944
                  22557657.4774                                   22557651.8524
                                                                        45.5004
        28.0004
 -11891527.55947  -9226986.87544
                  23450366.2274                                   23450361.8714
                                                                        42.7504
        26.0004
 -11649342.21147  -9026701.48846
                  22040855.4384                                   22040852.3204
                                                                        47.5004
        38.5004
 -15452511.55947 -12025424.80945
                  22653038.7114                                   22653034.4024
                                                                        47.7504
        32.5004
 09 10 30  0 24 30.0000000  0  8G02G08G05G10G13G16G29G07
   -993234.60248   -749419.69946
                  22020859.0234                                   22020852.9804
                                                                        49.2504
        37.5004
   3248867.70347   2579260.91844
                  24434353.6174                                   24434352.3834
                                                                        43.5004
        24.5004
 -19916130.44148 -15455249.27347
                  20624759.1094                                   20624754.9734
                                                                        51.7504
        43.2504
 -17089306.72748 -13259106.00046
                  20272535.9774                                   20272531.3674
                                                                        51.7504
        41.7504
  -2019663.55147  -1544645.05144
                  22556441.4064                                   22556436.3094
                                                                        45.0004
        28.0004
 -11984115.19147  -9299132.96544
                  23432747.0944                                   23432742.4384
                                                                        42.5004
        25.7504
 -11715096.55948  -9077938.59846
                  22028342.7114                                   22028339.0664
                                                                        48.0004
        38.5004
 -15599786.50847 -12140184.62945
                  22625013.2344                                   22625009.1604
                                                                        47.0004
        32.2504
 09 10 30  0 25  0.0000000  0  8G02G08G05G10G13G16G29G07
   -995891.05948   -751489.68746
                  22020353.4304                                   22020347.1454
                                                                        48.7504
        37.5004
   3046325.06347   2421435.80943
                  24395810.9384                                   24395809.5984
                                                                        42.5004
        23.0004
 -20048205.66048 -15558165.34047
                  20599626.4534                                   20599621.6484
                                                                        52.0004
        43.5004
 -17195625.48048 -13341951.78946
                  20252303.9614                                   20252299.7194
                                                                        52.7504
        41.7504
  -2025639.07047  -1549301.25444
                  22555304.0704                                   22555299.6294
                                                                        44.0004
        28.0004
 -12076070.77047  -9370786.59444
                  23415248.7034                                   23415244.0474
                                                                        42.5004
        26.0004
 -11780245.09048  -9128703.63346
                  22015945.2664                                   22015941.8484
                                                                        48.0004
        38.5004
 -15746497.09847 -12254504.61345
                  22597095.3204                                   22597090.9454
                                                                        47.0004
        32.2504
 09 10 30  0 25 30.0000000  0  8G02G08G05G10G13G16G29G07
   -998161.07448   -753258.63746
                  22019921.2894                                   22019915.5594
                                                                        48.5004
        37.5004
   2843989.75447   2263772.70743
                  24357307.2424                                   24357305.9774
                                                                        42.0004
        21.2504
 -20179748.11348 -15660666.39847
                  20574595.0004                                   20574590.6914
                                                                        51.7504
        43.2504
 -17301350.92648 -13424335.23047
                  20232185.1644                                   20232181.1884
                                                                        51.7504
        42.0004
  -2031202.54747  -1553636.37944
                  22554245.2894                                   22554240.7074
                                                                        44.0004
        27.7504
 -12167392.38747  -9441946.14844
                  23397870.2034                                   23397866.2464
                                                                        42.0004
        26.2504
 -11844787.21547  -9178996.16846
                  22003663.1024                                   22003659.8444
                                                                        47.5004
        38.0004
 -15892638.97747 -12368381.36345
                  22569285.0314                                   22569280.2544
                                                                        47.0004
        32.5004
 09 10 30  0 26  0.0000000  0  8G02G08G05G10G13G16G29G07
  -1000045.09448   -754726.95745
                  22019562.7274                                   22019557.7814
                                                                        48.0004
        35.7504
   2641867.41046   2106276.22743
                  24318843.1254                                   24318842.2344
                                                                        41.5004
        20.7504
 -20310753.93048 -15762748.62547
                  20549665.4144                                   20549660.9494
                                                                        51.5004
        43.5004
 -17406481.44148 -13506255.19546
                  20212179.2814                                   20212175.7384
                                                                        51.7504
        41.7504
  -2036354.90647  -1557651.22344
                  22553264.3284                                   22553260.2734
                                                                        43.2504
        28.0004
 -12258078.59847  -9512610.44544
                  23380612.7344                                   23380609.1604
                                                                        43.0004
        25.7504
 -11908721.42647  -9228814.96546
                  21991496.6884                                   21991493.2154
                                                                        47.5004
        38.2504
 -16038208.60247 -12481812.21945
                  22541584.1884                                   22541579.3324
                                                                        47.0004
        31.7504
 09 10 30  0 26 30.0000000  0  8G02G08G05G10G13G16G29G07
    573875.96148    471704.73445
                  22319070.2274                                   22319064.7894
                                                                        48.0004
        35.7504
   4015384.66047   3176549.40643
                  24580214.7194                                   24580212.7034
                                                                        42.0004
        20.5004
 -18865798.23448 -14636809.30947
                  20824631.0164                                   20824626.9144
                                                                        53.0004
        43.2504
 -15935592.07048 -12360107.73046
                  20492080.4774                                   20492076.6294
                                                                        52.7504
        41.7504
   -465677.36347   -333746.64844
                  22852154.8444                                   22852150.5084
                                                                        43.7504
        28.2504
 -10772705.11747  -8355176.37544
                  23663270.0864                                   23663265.6524
                                                                        42.2504
        26.7504
 -10396625.50447  -8050558.32046
                  22279239.3444                                   22279235.9654
                                                                        47.7504
        37.5004
 -14607777.90247 -11367190.80145
                  22813785.8284                                   22813781.3324
                                                                        47.5004
        33.0004
 09 10 30  0 27  0.0000000  0  8G02G08G05G10G13G16G29G07
    572759.49647    470834.84845
                  22318858.1414                                   22318852.2894
                                                                        47.7504
        35.7504
   3813692.53947   3019386.67643
                  24541834.7584                                   24541832.0084
                                                                        42.0004
        22.5004
 -18995729.12148 -14738054.25047
                  20799906.5944                                   20799902.1954
                                                                        52.2504
        44.5004
 -16039530.41048 -12441098.66046
                  20472301.7664                                   20472297.6054
                                                                        52.0004
        41.2504
   -470013.93047   -337125.70744
                  22851329.2504                                   22851325.0984
                                                                        43.5004
        28.0004
 -10862119.25847  -8424849.56644
                  23646255.4144                                   23646250.5314
                                                                        42.0004
        26.7504
 -10459346.10247  -8099431.46146
                  22267303.7344                                   22267300.2774
                                                                        47.7504
        38.5004
 -14752195.74647 -11479724.15245
                  22786304.1334                                   22786299.4264
                                                                        47.5004
        32.2504
 09 10 30  0 27 30.0000000  0  8G02G08G05G10G13G16G29G07
    572018.83247    470257.77746
                  22318716.7814                                   22318711.6134
                                                                        47.0004
        36.5004
   3612217.16847   2862392.98444
                  24503495.4064                                   24503492.3914
                                                                        43.2504
        25.0004
 -19125125.21548 -14838882.37147
                  20775283.1094                                   20775278.7734
                                                                        51.5004
        43.0004
 -16142876.24248 -12521627.73446
                  20452635.4384                                   20452631.5784
                                                                        51.5004
        41.7504
   -473951.21547   -340193.68744
                  22850580.5474                                   22850575.4454
                                                                        42.7504
        27.7504
 -10950902.13347  -8494030.81244
                  23629359.3284                                   23629355.6884
                                                                        42.5004
        25.2504
 -10521466.12148  -8147836.58646
                  22255482.6094                                   22255479.1334
                                                                        48.5004
        38.7504
 -14896039.20747 -11591809.92245
                  22758931.6724                                   22758926.9384
                                                                        47.0004
        32.5004
 09 10 30  0 28  0.0000000  0  8G02G08G05G10G13G16G29G07
    571652.99248    469972.85246
                  22318647.5084                                   22318642.2154
                                                                        48.7504
        37.0004
   3410962.66047   2705571.24644
                  24465198.0084                                   24465195.7074
                                                                        42.7504
        25.7504
 -19253983.49248 -14939291.18447
                  20750761.6884                                   20750757.6254
                                                                        51.7504
        43.7504
 -16245629.00448 -12601694.78546
                  20433082.3134                                   20433078.2114
                                                                        52.2504
        41.5004
   -477490.31647   -342951.41044
                  22849906.7974                                   22849901.5394
                                                                        43.7504
        27.2504
 -11039052.82046  -8562719.59444
                  23612584.8914                                   23612581.0044
                                                                        41.7504
        27.0004
 -10582985.35948  -8195773.64846
                  22243775.5864                                   22243772.8954
                                                                        48.5004
        38.5004
 -15039305.15247 -11703445.63745
                  22731668.9844                                   22731664.1804
                                                                        47.7504
        32.2504
 09 10 30  0 28 30.0000000  0  8G02G08G05G10G13G16G29G07
    571659.72348    469978.18046
                  22318648.6334                                   22318643.0864
                                                                        49.5004
        36.5004
   3209932.27746   2548924.21944
                  24426943.0704                                   24426940.4304
                                                                        41.5004
        24.5004
 -19382304.42248 -15039281.60547
                  20726343.1484                                   20726338.8444
                                                                        52.2504
        43.7504
 -16347788.48048 -12681299.62946
                  20413642.3444                                   20413638.2974
                                                                        53.0004
        41.2504
   -480634.10247   -345401.07844
                  22849308.4844                                   22849303.7894
                                                                        45.0004
        25.0004
 -11126571.48446  -8630915.89544
                  23595931.0784                                   23595926.3594
                                                                        41.0004
        25.5004
 -10643904.97348  -8243243.49646
                  22232183.2504                                   22232180.0314
                                                                        48.5004
        38.2504
 -15181991.88747 -11814630.13345
                  22704516.5784                                   22704511.7974
                                                                        47.5004
        33.0004
 09 10 30  0 29  0.0000000  0  8G02G08G05G10G13G16G29G07
    572035.11348    470270.72746
                  22318719.7664                                   22318714.5314
                                                                        49.0004
        36.2504
   3009127.57446   2392453.26643
                  24388730.6484                                   24388728.6524
                                                                        41.0004
        23.5004
 -19510087.65648 -15138852.81247
                  20702026.8914                                   20702022.5434
                                                                        51.7504
        43.5004
 -16449355.62948 -12760442.84846
                  20394314.4924                                   20394310.6374
                                                                        52.2504
        41.7504
   -483386.52047   -347545.82044
                  22848784.2194                                   22848780.0554
                                                                        43.0004
        26.0004
 -11213460.07447  -8698621.25044
                  23579396.8984                                   23579392.5234
                                                                        42.0004
        25.2504
 -10704227.73848  -8290248.33246
                  22220704.4774                                   22220700.5474
                                                                        49.5004
        37.7504
 -15324098.93748 -11925362.91045
                  22677474.5004                                   22677469.8834
                                                                        48.0004
        32.5004
 09 10 30  0 29 30.0000000  0  8G02G08G05G10G13G16G29G07
    572774.01648    470846.24646
                  22318860.3364                                   22318855.5594
                                                                        48.5004
        36.5004
   2808548.32846   2236157.90243
                  24350561.7584                                   24350559.3134
                                                                        41.0004
        23.2504
 -19637335.87948 -15238007.40647
                  20677812.3134                                   20677807.7664
                                                                        51.7504
        43.7504
 -16550333.30548 -12839126.78146
                  20375099.1174                                   20375095.0554
                                                                        52.2504
        41.2504
   -485753.25447   -349390.07444
                  22848334.2114                                   22848329.7384
                                                                        42.7504
        26.0004
 -11299721.32046  -8765837.77344
                  23562981.8674                                   23562977.0394
                                                                        40.7504
        25.0004
 -10763957.22348  -8336790.81246
                  22209338.3914                                   22209334.7814
                                                                        49.2504
        38.0004
 -15465626.98848 -12035644.47345
                  22650542.5554                                   22650537.9614
                                                                        48.0004
        31.5004
 09 10 30  0 30  0.0000000  0  8G02G08G05G10G13G16G29G07
    573876.57847    471705.48845
                  22319070.1334                                   22319064.6094
                                                                        47.0004
        35.5004
   2608198.25047   2080040.66443
                  24312436.3284                                   24312433.8164
                                                                        42.7504
        22.7504
 -19764046.51648 -15336743.24247
                  20653700.4614                                   20653696.7774
                                                                        50.7504
        43.5004
 -16650720.16848 -12917350.26246
                  20355995.8054                                   20355991.8674
                                                                        51.0004
        41.2504
   -487735.27047   -350934.46144
                  22847957.4614                                   22847953.1524
                                                                        42.2504
        27.0004
 -11385354.37146  -8832564.81244
                  23546686.1644                                   23546681.6564
                                                                        41.7504
        25.7504
 -10823093.69148  -8382871.19946
                  22198085.0314                                   22198081.8444
                                                                        49.5004
        38.2504
 -15606573.19948 -12145472.65245
                  22623721.3594                                   22623716.9654
                                                                        48.0004
        32.5004
 09 10 30  0 30 30.0000000  0  8G02G08G05G10G13G16G29G07
    575338.96547    472845.05545
                  22319348.8134                                   22319343.1214
                                                                        47.5004
        35.0004
   2408081.57447   1924105.85944
                  24274356.3444                                   24274352.8834
                                                                        43.5004
        24.0004
 -19890218.78148 -15435059.30947
                  20629690.7814                                   20629686.5004
                                                                        52.0004
        43.2504
 -16750516.77048 -12995113.78547
                  20337005.2814                                   20337001.3164
                                                                        52.0004
        42.0004
   -489336.06647   -352181.84844
                  22847652.4844                                   22847648.4964
                                                                        42.0004
        27.5004
 -11470360.34846  -8898803.18044
                  23530509.8754                                   23530505.2234
                                                                        41.5004
        25.5004
 -10881638.97748  -8428490.96146
                  22186944.4064                                   22186940.6994
                                                                        49.7504
        38.0004
 -15746936.16047 -12254846.30545
                  22597011.0164                                   22597006.1254
                                                                        47.5004
        33.0004
 09 10 30  0 31  0.0000000  0  8G02G08G05G10G13G16G29G07
    577164.90248    474267.89545
                  22319696.4774                                   22319690.1604
                                                                        49.2504
        35.5004
   2208206.16047   1768359.08243
                  24236320.3444                                   24236317.3954
                                                                        43.5004
        22.7504
 -20015846.23848 -15532950.73847
                  20605784.2424                                   20605780.2934
                                                                        51.2504
        43.7504
 -16849718.26248 -13072414.07047
                  20318128.2894                                   20318124.0394
                                                                        51.5004
        42.0004
   -490552.39547   -353129.56644
                  22847421.4844                                   22847417.0394
                                                                        45.0004
        28.0004
 -11554733.97747  -8964548.82844
                  23514454.7274                                   23514449.5234
                                                                        43.2504
        25.7504
 -10939588.47348  -8473646.40246
                  22175916.7734                                   22175913.2894
                                                                        50.0004
        39.0004
 -15886708.79348 -12363760.03945
                  22570413.6024                                   22570408.4344
                                                                        48.0004
        32.0004
 09 10 30  0 31 30.0000000  0  8G02G08G05G10G13G16G29G07
    579349.69948    475970.25446
                  22320111.9924                                   22320106.3714
                                                                        49.2504
        36.0004
   2008571.60947   1612799.55543
                  24198331.2424                                   24198328.0664
                                                                        44.0004
        22.7504
 -20140931.02048 -15630419.39547
                  20581981.7974                                   20581977.3674
                                                                        51.0004
        43.5004
 -16948326.38348 -13149252.21146
                  20299364.4774                                   20299360.4734
                                                                        51.5004
        41.7504
   -491389.28547   -353781.60944
                  22847261.6804                                   22847257.4614
                                                                        44.5004
        27.0004
 -11638477.90647  -9029803.80144
                  23498518.3914                                   23498513.6844
                                                                        42.0004
        24.7504
 -10996946.23848  -8518340.91446
                  22165002.3594                                   22164999.2544
                                                                        48.5004
        38.2504
 -16025891.69147 -12472214.16845
                  22543927.2274                                   22543922.6954
                                                                        47.2504
        33.0004
 09 10 30  0 32  0.0000000  0  8G02G08G05G10G13G16G29G07
    581888.91048    477948.75045
                  22320595.4694                                   22320589.7544
                                                                        48.2504
        35.2504
   1809179.75046   1457429.26243
                  24160387.5004                                   24160384.7814
                                                                        41.5004
        22.5004
 -20265474.59448 -15727466.50847
                  20558282.0164                                   20558277.5234
                                                                        50.5004
        43.7504
 -17046341.80948 -13225627.86746
                  20280712.3984                                   20280708.7074
                                                                        51.2504
        41.7504
   -491851.91447   -354142.08644
                  22847173.5314                                   22847169.6024
                                                                        44.0004
        26.0004
 -11721594.66447  -9094570.09444
                  23482701.8284                                   23482696.8324
                                                                        42.5004
        25.5004
 -11053715.30148  -8562576.71546
                  22154199.2814                                   22154196.2624
                                                                        49.7504
        37.7504
 -16164484.66047 -12580208.55945
                  22517554.0864                                   22517549.5784
                                                                        47.0004
        34.0004
 09 10 30  0 32 30.0000000  0  8G02G08G05G10G13G16G29G07
    584778.40248    480200.19146
                  22321144.9614                                   22321139.6094
                                                                        48.7504
        36.0004
   1610031.77346   1302249.07043
                  24122491.3914                                   24122488.8364
                                                                        41.7504
        22.5004
 -20389477.22348 -15824092.04747
                  20534685.2114                                   20534681.2464
                                                                        51.5004
        44.0004
 -17143767.54748 -13301543.99646
                  20262172.9924                                   20262169.0984
                                                                        51.7504
        41.5004
   -491944.20747   -354213.91843
                  22847156.0234                                   22847151.2584
                                                                        43.2504
        22.7504
 -11804086.44947  -9158849.41444
                  23467004.5474                                   23466999.6724
                                                                        43.0004
        26.2504
 -11109898.47348  -8606355.82046
                  22143508.1954                                   22143505.4494
                                                                        50.0004
        38.0004
 -16302488.20747 -12687743.78545
                  22491293.0084                                   22491288.7584
                                                                        47.0004
        32.5004
 09 10 30  0 33  0.0000000  0  8G02G08G05G10G13G16G29G07
    588018.57447    482724.95745
                  22321761.9534                                   22321756.4454
                                                                        47.0004
        35.2504
   1411132.62146   1147262.79744
                  24084641.8444                                   24084640.0864
                                                                        41.7504
        25.7504
 -20512935.90248 -15920293.61347
                  20511191.6564                                   20511187.7074
                                                                        52.0004
        44.0004
 -17240601.25848 -13376998.75846
                  20243746.1094                                   20243742.4304
                                                                        52.5004
        41.7504
   -491667.18047   -353998.00443
                  22847208.3204                                   22847203.5514
                                                                        42.5004
        22.5004
 -11885951.62547  -9222640.43744
                  23451426.0234                                   23451421.1214
                                                                        43.0004
        26.7504
 -11165495.08648  -8649677.73846
                  22132928.6724                                   22132924.9614
                                                                        49.5004
        38.0004
 -16439898.17248 -12794816.43445
                  22465144.9384                                   22465140.2704
                                                                        48.0004
        33.5004
 09 10 30  0 33 30.0000000  0  8G02G08G05G10G13G16G29G07
    591606.52347    485520.67245
                  22322444.1254                                   22322438.8014
                                                                        46.7504
        35.7504
   1212485.75447    992473.21544
                  24046840.8444                                   24046838.4184
                                                                        42.7504
        25.0004
 -20635849.91048 -16016070.78147
                  20487801.8984                                   20487798.0084
                                                                        51.0004
        43.2504
 -17336843.14548 -13451992.53946
                  20225431.9384                                   20225428.3364
                                                                        51.2504
        41.7504
   -491023.37947   -353496.34844
                  22847331.1414                                   22847326.4224
                                                                        42.0004
        24.5004
 -11967190.52747  -9285943.46544
                  23435966.6414                                   23435961.5594
                                                                        43.7504
        24.0004
 -11220506.67248  -8692543.91846
                  22122460.2034                                   22122456.5594
                                                                        49.2504
        38.0004
 -16576712.89147 -12901425.20345
                  22439109.8754                                   22439105.9304
                                                                        47.5004
        33.7504
 09 10 30  0 34  0.0000000  0  8G02G08G05G10G13G16G29G07
    595538.71547    488584.43845
                  22323193.0784                                   22323187.5084
                                                                        46.2504
        34.5004
   1014092.71147    837881.47344
                  24009087.3134                                   24009085.3954
                                                                        42.5004
        24.7504
 -20758219.62948 -16111423.77347
                  20464515.5944                                   20464511.5904
                                                                        50.7504
        43.5004
 -17432494.66448 -13526526.35946
                  20207230.1954                                   20207226.2934
                                                                        50.2504
        41.5004
   -490016.51647   -352711.69144
                  22847522.5004                                   22847518.4264
                                                                        43.7504
        26.5004
 -12047805.21147  -9348760.09044
                  23420626.0634                                   23420621.0664
                                                                        44.0004
        26.5004
 -11274936.21148  -8734956.64146
                  22112102.4614                                   22112099.1054
                                                                        49.0004
        37.2504
 -16712932.09047 -13007569.93045
                  22413188.0554                                   22413183.4574
                                                                        47.7504
        34.0004
 09 10 30  0 34 30.0000000  0  8G02G08G05G10G13G16G29G07
    599809.40647    491912.19545
                  22324006.1174                                   22324000.5824
                                                                        47.0004
        35.2504
    815951.91047    683486.03544
                  23971383.1094                                   23971379.8524
                                                                        43.5004
        24.7504
 -20880048.69148 -16206355.43747
                  20441332.0634                                   20441328.0514
                                                                        51.0004
        43.5004
 -17527559.42248 -13600602.82446
                  20189139.9224                                   20189136.3554
                                                                        51.2504
        41.2504
   -488653.37947   -351649.50044
                  22847782.6414                                   22847777.6024
                                                                        45.2504
        28.2504
 -12127800.41847  -9411094.00844
                  23405403.6804                                   23405398.7934
                                                                        43.5004
        26.0004
 -11328788.57048  -8776919.53546
                  22101854.6724                                   22101851.3714
                                                                        49.0004
        38.0004
 -16848558.61747 -13113252.89545
                  22387379.1414                                   22387374.3674
                                                                        47.7504
        35.0004
 09 10 30  0 35  0.0000000  0  8G02G08G05G10G13G16G29G07
   2179839.94147   1723104.99245
                  22624675.8284                                   22624670.2074
                                                                        46.0004
        35.0004
   2193496.78147   1756897.63744
                  24233521.1564                                   24233518.4774
                                                                        44.0004
        26.5004
 -19425908.88348 -15073259.50847
                  20718045.9224                                   20718042.1094
                                                                        51.5004
        43.5004
 -16046611.21148 -12446617.27346
                  20470955.0704                                   20470951.1804
                                                                        51.7504
        41.5004
   1088486.97347    877291.11344
                  23147902.2584                                   23147897.7974
                                                                        42.0004
        28.2504
 -10631750.31247  -8245340.68444
                  23690092.3054                                   23690087.3204
                                                                        44.5004
        25.2504
  -9806640.25848  -7590829.94946
                  22391509.8204                                   22391506.4694
                                                                        48.7504
        36.7504
 -15408162.68748 -11990866.51645
                  22661477.2664                                   22661472.7234
                                                                        48.5004
        34.0004
 09 10 30  0 35 30.0000000  0  9G02G08G05G10G13G16G21G29G07
   2184786.48047   1726959.53945
                  22625616.5554                                   22625611.0594
                                                                        47.0004
        35.0004
   1995876.30947   1602907.78544
                  24195914.6174                                   24195911.6724
                                                                        43.7504
        26.0004
 -19546648.32448 -15167342.08647
                  20695069.9534                                   20695066.2664
                                                                        50.5004
        43.7504
 -16140497.79748 -12519775.66846
                  20453088.9454                                   20453085.3674
                                                                        50.7504
        41.0004
   1090560.43846    878906.78144
                  23148296.7194                                   23148292.3014
                                                                        41.7504
        26.5004
 -10710502.24647  -8306705.82044
                  23675106.5394                                   23675101.7734
                                                                        43.7504
        25.0004
   7623280.62156   5987084.60253
                  24901810.1414                                   24901804.7664
                                                                        41.5004
        22.2504
  -9859337.39548  -7631892.63746
                  22381481.8984                                   22381478.5124
                                                                        48.5004
        37.0004
 -15542592.76247 -12095617.32845
                  22635895.9614                                   22635891.8014
                                                                        47.5004
        34.5004
 09 10 30  0 36  0.0000000  0  9G02G08G05G10G13G16G21G29G07
   2190063.64847   1731071.82845
                  22626620.4384                                   22626615.4844
                                                                        46.0004
        35.0004
   1798516.27047   1449120.81343
                  24158357.7734                                   24158355.8914
                                                                        43.0004
        23.2504
 -19666845.84448 -15261002.48047
                  20672197.2734                                   20672193.2664
                                                                        49.5004
        44.0004
 -16233799.09448 -12592477.94546
                  20435334.6024                                   20435330.8714
                                                                        49.0004
        41.2504
   1092981.14846    880793.02344
                  23148756.6094                                   23148752.6994
                                                                        41.5004
        24.0004
 -10788637.10547  -8367590.10244
                  23660238.1484                                   23660232.8054
                                                                        44.0004
        26.7504
   7423001.71146   5831023.12944
                  24863698.5474                                   24863693.4804
                                                                        41.5004
        25.0004
  -9911462.46148  -7672509.50446
                  22371562.9384                                   22371559.5474
                                                                        49.0004
        37.5004
 -15676425.60247 -12199902.55545
                  22610428.6804                                   22610424.0864
                                                                        47.5004
        34.0004
 09 10 30  0 36 30.0000000  0  9G02G08G05G10G13G16G21G29G07
   2195659.35947   1735431.98445
                  22627685.5394                                   22627680.2114
                                                                        45.7504
        34.7504
   1601411.32847   1295532.63343
                  24120850.8594                                   24120848.0744
                                                                        42.5004
        22.7504
 -19786509.48048 -15354246.82447
                  20649425.8204                                   20649421.5274
                                                                        52.2504
        44.0004
 -16326523.77348 -12664730.89846
                  20417689.4224                                   20417685.4104
                                                                        51.0004
        41.7504
   1095737.63347    882940.87943
                  23149281.5394                                   23149277.3134
                                                                        42.2504
        23.5004
 -10866164.43747  -8428001.00444
                  23645484.8054                                   23645479.6564
                                                                        44.2504
        26.5004
   7222843.53946   5675055.71943
                  24825609.7894                                   24825604.3984
                                                                        40.5004
        22.0004
  -9963026.15648  -7712688.89546
                  22361750.4844                                   22361746.9264
                                                                        48.7504
        38.0004
 -15809669.10548 -12303728.63345
                  22585072.6334                                   22585068.3554
                                                                        48.5004
        33.5004
 09 10 30  0 37  0.0000000  0  9G02G08G05G10G13G16G21G29G07
   2201574.18447   1740040.89145
                  22628811.3984                                   22628805.8324
                                                                        46.7504
        34.2504
   1404566.41447   1142147.20344
                  24083391.7664                                   24083389.4614
                                                                        42.5004
        24.5004
 -19905636.15648 -15447072.68747
                  20626756.7274                                   20626752.1804
                                                                        51.0004
        44.0004
 -16418670.24248 -12736533.33646
                  20400154.8054                                   20400150.8674
                                                                        51.2504
        41.7504
   1098829.45347    885350.10544
                  23149869.9534                                   23149865.4694
                                                                        43.7504
        24.5004
 -10943082.32847  -8487937.01244
                  23630847.9924                                   23630842.8834
                                                                        44.7504
        25.2504
   7022810.86346   5519186.14543
                  24787544.0234                                   24787539.1884
                                                                        39.2504
        22.2504
 -10014027.57848  -7752430.12546
                  22352045.4064                                   22352041.6254
                                                                        48.7504
        38.2504
 -15942319.55148 -12407092.55545
                  22559830.2974                                   22559825.9024
                                                                        48.7504
        33.5004
 09 10 30  0 37 30.0000000  0  9G02G08G05G10G13G16G21G29G07
   2207811.38347   1744901.09045
                  22629998.1334                                   22629992.8404
                                                                        47.5004
        34.7504
   1207989.34447    988970.18044
                  24045984.7584                                   24045981.9494
                                                                        43.0004
        25.5004
 -20024220.16048 -15539475.68747
                  20604190.5554                                   20604186.5704
                                                                        49.7504
        44.0004
 -16510233.68048 -12807881.52046
                  20382730.7734                                   20382726.7114
                                                                        49.5004
        41.2504
   1102259.41447    888022.82844
                  23150522.7894                                   23150517.4964
                                                                        43.7504
        24.7504
 -11019387.29347  -8547395.41044
                  23616327.6804                                   23616322.3404
                                                                        45.0004
        26.5004
   6822910.44946   5363419.67643
                  24749504.6024                                   24749499.6914
                                                                        39.2504
        22.0004
 -10064463.57848  -7791730.87546
                  22342447.6884                                   22342444.0634
                                                                        50.0004
        37.5004
 -16074369.50447 -12509988.55945
                  22534702.3284                                   22534697.4884
                                                                        47.7504
        33.5004
 09 10 30  0 38  0.0000000  0  9G02G08G05G10G13G16G21G29G07
   2214372.29747   1750013.51245
                  22631246.2194                                   22631240.8404
                                                                        47.5004
        34.5004
   1011687.93447    836008.05944
                  24008629.9454                                   24008627.2584
                                                                        43.5004
        25.2504
 -20142256.89548 -15631452.29347
                  20581729.1254                                   20581724.7424
                                                                        50.7504
        43.5004
 -16601209.75848 -12878772.02046
                  20365418.7344                                   20365414.3714
                                                                        52.0004
        41.0004
   1106028.64147    890959.91844
                  23151240.2194                                   23151235.2774
                                                                        44.0004
        26.2504
 -11095075.39847  -8606373.16044
                  23601924.4534                                   23601919.3244
                                                                        44.2504
        26.5004
   6623148.82046   5207761.35543
                  24711490.2734                                   24711486.1954
                                                                        41.0004
        22.7504
 -10114331.50448  -7830589.00446
                  22332957.8134                                   22332954.3204
                                                                        49.2504
        37.5004
 -16205814.03548 -12612412.79345
                  22509688.8054                                   22509684.6374
                                                                        48.0004
        33.0004
 09 10 30  0 38 30.0000000  0  9G02G08G05G10G13G16G21G29G07
   2221258.14847   1755379.07445
                  22632557.1644                                   22632551.5434
                                                                        46.5004
        34.2504
    815668.14147    683265.34844
                  23971328.5474                                   23971325.7734
                                                                        43.0004
        27.5004
 -20259741.62148 -15722998.55547
                  20559372.2424                                   20559367.7344
                                                                        51.2504
        44.0004
 -16691595.52048 -12949202.46546
                  20348218.7814                                   20348214.8324
                                                                        51.7504
        41.7504
   1110138.04347    894162.08644
                  23152021.9454                                   23152017.3284
                                                                        42.2504
        27.0004
 -11170144.01247  -8664868.16844
                  23587639.3444                                   23587634.3754
                                                                        44.5004
        26.0004
   6423531.38746   5052215.37143
                  24673504.9224                                   24673500.0864
                                                                        41.7504
        22.7504
 -10163628.85548  -7869002.57046
                  22323577.1954                                   22323573.6454
                                                                        49.5004
        37.7504
 -16336647.95347 -12714361.18445
                  22484792.2584                                   22484787.6604
                                                                        47.2504
        33.5004
 09 10 30  0 39  0.0000000  0  9G02G08G05G10G13G16G21G29G07
   2228462.63747   1760992.98845
                  22633927.7974                                   22633922.4384
                                                                        47.2504
        34.0004
    619929.02747    530741.40244
                  23934080.5704                                   23934078.2774
                                                                        42.5004
        26.5004
 -20376678.61348 -15814118.27047
                  20537120.0084                                   20537115.8054
                                                                        51.7504
        43.7504
 -16781395.17648 -13019176.16446
                  20331130.4384                                   20331126.8754
                                                                        51.5004
        41.7504
   1114581.02047    897624.17244
                  23152867.7114                                   23152863.5274
                                                                        42.2504
        25.0004
 -11244597.92247  -8722884.19143
                  23573471.0234                                   23573466.1024
                                                                        44.5004
        22.7504
   6224056.46947   4896780.37143
                  24635546.2584                                   24635541.3634
                                                                        42.5004
        22.0004
 -10212361.58648  -7906975.91446
                  22314303.5634                                   22314300.2584
                                                                        49.0004
        38.2504
 -16466874.53547 -12815836.47745
                  22460010.8914                                   22460006.0044
                                                                        47.7504
        33.5004
 09 10 30  0 39 30.0000000  0  9G02G08G05G10G13G16G21G29G07
   2235987.21947   1766856.38345
                  22635359.5474                                   22635353.8834
                                                                        46.7504
        33.5004
    424477.44546    378441.53544
                  23896887.2734                                   23896884.1884
                                                                        41.7504
        25.7504
 -20493063.16448 -15904807.61747
                  20514973.0004                                   20514968.4344
                                                                        50.5004
        44.0004
 -16870604.71948 -13088690.04747
                  20314154.0864                                   20314150.9414
                                                                        50.0004
        42.2504
   1119358.07446    901346.50444
                  23153775.9384                                   23153772.2114
                                                                        41.2504
        24.0004
 -11318434.09447  -8780418.89144
                  23559420.6174                                   23559415.6484
                                                                        43.5004
        25.7504
   6024729.62547   4741460.75443
                  24597615.7974                                   24597610.9384
                                                                        42.0004
        22.2504
 -10260527.45348  -7944507.53946
                  22305137.5554                                   22305133.9224
                                                                        49.5004
        38.2504
 -16596487.66848 -12916833.69945
                  22435346.3914                                   22435340.9774
                                                                        48.0004
        33.5004
 09 10 30  0 40  0.0000000  0  9G02G08G05G10G13G16G21G29G07
   2243831.46147   1772968.66445
                  22636852.2424                                   22636846.7704
                                                                        44.7504
        33.5004
    229319.20746    226370.40244
                  23859749.8914                                   23859746.7894
                                                                        41.5004
        25.5004
 -20608891.76648 -15995063.62947
                  20492931.1954                                   20492927.1604
                                                                        49.5004
        43.7504
 -16959222.44548 -13157742.68046
                  20297290.9454                                   20297287.1094
                                                                        50.2504
        41.5004
   1124469.25846    905329.16844
                  23154748.7274                                   23154744.6334
                                                                        41.2504
        25.0004
 -11391651.30147  -8837471.26244
                  23545487.6414                                   23545483.0394
                                                                        44.2504
        25.5004
   5825554.93446   4586259.66443
                  24559714.3834                                   24559708.3364
                                                                        41.5004
        21.7504
 -10308126.00448  -7981597.28546
                  22296080.3594                                   22296076.1174
                                                                        49.0004
        37.5004
 -16725484.21148 -13017350.61345
                  22410799.2344                                   22410793.8834
                                                                        48.2504
        33.0004
 09 10 30  0 40 30.0000000  0  9G02G08G05G10G13G16G21G29G07
   2251991.70747   1779326.93445
                  22638405.6024                                   22638400.0904
                                                                        45.0004
        34.0004
     34455.16846     74528.36344
                  23822667.9614                                   23822665.3054
                                                                        41.5004
        24.0004
 -20724166.30148 -16084888.04347
                  20470995.2974                                   20470991.2704
                                                                        51.0004
        43.7504
 -17047249.51248 -13226334.88746
                  20280539.7584                                   20280535.5984
                                                                        50.0004
        41.5004
   1129910.74246    909569.29344
                  23155784.7344                                   23155779.8674
                                                                        40.7504
        25.5004
 -11464251.33247  -8894042.71544
                  23531673.0474                                   23531667.7304
                                                                        44.5004
        26.2504
   5626533.81646   4431178.30543
                  24521841.7664                                   24521836.8404
                                                                        38.5004
        22.2504
 -10355160.08648  -8018247.25446
                  22287129.4774                                   22287126.2304
                                                                        48.5004
        37.5004
 -16853863.74247 -13117386.67245
                  22386369.3524                                   22386364.3834
                                                                        47.5004
        32.5004
 09 10 30  0 41  0.0000000  0  9G02G08G05G10G13G16G21G29G07
   2260465.82447   1785930.03145
                  22640018.3204                                   22640012.8914
                                                                        46.2504
        34.0004
   -160112.20746    -77082.73044
                  23785643.8364                                   23785639.9574
                                                                        41.7504
        24.5004
 -20838885.68048 -16174279.80147
                  20449165.1414                                   20449160.6914
                                                                        51.5004
        43.5004
 -17134687.85248 -13294468.62946
                  20263900.6804                                   20263896.9774
                                                                        51.5004
        41.0004
   1135679.39547    914064.36344
                  23156882.7584                                   23156877.5474
                                                                        42.7504
        25.0004
 -11536235.41047  -8950134.19544
                  23517975.0084                                   23517969.7034
                                                                        44.5004
        25.0004
   5427667.77746   4276217.83643
                  24483998.1644                                   24483993.9574
                                                                        39.2504
        21.7504
 -10401631.48448  -8054458.53146
                  22278286.2114                                   22278282.3794
                                                                        49.0004
        36.7504
 -16981625.69147 -13216941.50045
                  22362057.0784                                   22362052.8134
                                                                        47.7504
        33.5004
 09 10 30  0 41 30.0000000  0  9G02G08G05G10G13G16G21G29G07
   2269250.17647   1792774.84845
                  22641690.2344                                   22641684.5554
                                                                        47.0004
        34.0004
   -354380.80147   -228461.13744
                  23748675.4454                                   23748672.3364
                                                                        42.0004
        25.0004
 -20953050.11348 -16263239.02047
                  20427440.0234                                   20427435.9414
                                                                        50.0004
        43.7504
 -17221537.50048 -13362143.55946
                  20247373.6954                                   20247370.0434
                                                                        50.2504
        41.0004
   1141771.48047    918811.43043
                  23158041.9304                                   23158036.6724
                                                                        42.5004
        22.7504
 -11607605.27047  -9005747.07844
                  23504393.8444                                   23504388.2734
                                                                        44.5004
        26.0004
   5228958.44946   4121379.55143
                  24446185.6174                                   24446180.4494
                                                                        39.7504
        22.7504
 -10447542.54348  -8090233.13346
                  22269549.3754                                   22269545.8714
                                                                        48.5004
        37.2504
 -17108769.25848 -13316014.36745
                  22337862.4454                                   22337857.7734
                                                                        48.0004
        33.0004
 09 10 30  0 42  0.0000000  0  9G02G08G05G10G13G16G21G29G07
   2278342.82447   1799859.71545
                  22643420.5314                                   22643415.1134
                                                                        46.5004
        34.0004
   -548345.96147   -379602.71544
                  23711765.3444                                   23711762.2624
                                                                        43.7504
        27.5004
 -21066659.30948 -16351765.72747
                  20405821.1174                                   20405816.7034
                                                                        50.5004
        43.2504
 -17307798.93748 -13429360.25447
                  20230958.4064                                   20230954.9064
                                                                        51.2504
        42.2504
   1148184.96946    923808.93043
                  23159262.0314                                   23159256.7704
                                                                        41.7504
        22.7504
 -11678362.12147  -9060882.28143
                  23490928.9304                                   23490923.5474
                                                                        45.0004
        23.5004
   5030407.86746   3966664.90244
                  24408402.6804                                   24408397.7664
                                                                        41.5004
        25.0004
 -10492895.37948  -8125572.91446
                  22260919.0234                                   22260915.1604
                                                                        48.5004
        37.5004
 -17235293.09448 -13414604.41045
                  22313785.5784                                   22313780.9804
                                                                        48.2504
        33.5004
 09 10 30  0 42 30.0000000  0  9G02G08G05G10G13G16G21G29G07
   2287742.33647   1807183.94145
                  22645208.8834                                   22645204.0904
                                                                        45.0004
        33.0004
   -742005.91047   -530506.81244
                  23674913.5004                                   23674910.5904
                                                                        43.2504
        27.5004
 -21179712.25848 -16439859.02347
                  20384307.7034                                   20384303.4654
                                                                        51.2504
        43.7504
 -17393472.23448 -13496118.68747
                  20214655.4144                                   20214651.4264
                                                                        51.5004
        42.7504
   1154917.25846    929054.84043
                  23160543.3134                                   23160538.3874
                                                                        41.2504
        22.5004
 -11748506.44947  -9115540.19144
                  23477580.8134                                   23477575.7974
                                                                        44.0004
        24.0004
   4832018.46547   3812075.71943
                  24370650.6094                                   24370645.2034
                                                                        42.0004
        22.7504
 -10537691.07048  -8160478.52746
                  22252394.6094                                   22252390.8874
                                                                        48.5004
        37.2504
 -17361195.01247 -13512709.76245
                  22289827.1884                                   22289822.4384
                                                                        47.5004
        33.0004
 09 10 30  0 43  0.0000000  0  9G02G08G05G10G13G16G21G29G07
   3872869.01247   3042347.71145
                  22946848.8134                                   22946843.2624
                                                                        44.5004
        33.0004
    640072.76647    546437.68044
                  23937914.0634                                   23937910.8834
                                                                        43.0004
        27.0004
 -19716781.21148 -15299912.75447
                  20662694.1254                                   20662690.1994
                                                                        50.2504
        43.5004
 -15903132.24648 -12334814.85246
                  20498257.9144                                   20498254.1564
                                                                        52.0004
        41.5004
   2737388.30546   2162149.12543
                  23461676.5944                                   23461672.6724
                                                                        41.0004
        23.7504
 -10242613.43447  -7942117.03944
                  23764142.9844                                   23764137.3754
                                                                        45.0004
        25.5004
   6209222.18446   4885221.54743
                  24632723.6644                                   24632718.0004
                                                                        41.5004
        22.7504
  -9006506.83248  -6967347.96946
                  22543769.1644                                   22543765.5824
                                                                        48.2504
        37.5004
 -15911047.16447 -12382724.37145
                  22565781.1954                                   22565776.6684
                                                                        47.5004
        33.2504
 09 10 30  0 43 30.0000000  0  9G02G08G05G10G13G16G21G29G07
   3882870.76247   3050140.90645
                  22948752.0944                                   22948746.9184
                                                                        46.0004
        32.5004
    447030.61347    396015.16444
                  23901179.1884                                   23901176.6804
                                                                        42.7504
        26.0004
 -19828722.84448 -15387140.06647
                  20641392.6884                                   20641388.4884
                                                                        49.5004
        43.5004
 -15987633.35948 -12400659.93046
                  20482177.9454                                   20482173.9804
                                                                        50.7504
        41.7504
   2744747.38746   2167883.42643
                  23463077.7504                                   23463073.8524
                                                                        40.0004
        22.5004
 -10311537.60947  -7995824.19144
                  23751026.9694                                   23751021.2544
                                                                        44.2504
        25.7504
   6011158.84846   4730886.46943
                  24595033.0164                                   24595027.7664
                                                                        41.5004
        21.2504
  -9050196.44148  -7001391.76246
                  22535455.3834                                   22535451.7304
                                                                        48.7504
        37.2504
 -16035706.04748 -12479861.18045
                  22542059.7974                                   22542054.8134
                                                                        48.0004
        33.5004
 09 10 30  0 44  0.0000000  0  9G02G08G05G10G13G16G21G29G07
   3893170.27047   3058166.82845
                  22950711.9614                                   22950706.5664
                                                                        46.2504
        33.2504
    254300.50847    245835.96544
                  23864503.5004                                   23864500.8094
                                                                        43.2504
        25.0004
 -19940109.32048 -15473934.75447
                  20620196.6804                                   20620192.4344
                                                                        49.5004
        44.0004
 -16071550.49248 -12466049.96946
                  20466208.7734                                   20466205.0204
                                                                        49.2504
        41.5004
   2752414.59046   2173857.80144
                  23464537.0474                                   23464532.7854
                                                                        41.5004
        25.0004
 -10379854.94547  -8049058.46544
                  23738026.3364                                   23738020.9184
                                                                        44.5004
        24.5004
   5813260.18046   4576679.75843
                  24557374.0634                                   24557368.5084
                                                                        41.2504
        22.0004
  -9093337.10948  -7035007.88346
                  22527245.8674                                   22527242.2384
                                                                        49.2504
        37.5004
 -16159742.55947 -12576513.06645
                  22518456.2504                                   22518451.5124
                                                                        47.5004
        34.5004
 09 10 30  0 44 30.0000000  0  9G02G08G05G10G13G16G21G29G07
   3903764.67247   3066422.32045
                  22952727.7814                                   22952722.6644
                                                                        46.7504
        33.2504
     61886.51247     95902.98844
                  23827888.2424                                   23827886.1524
                                                                        44.5004
        26.5004
 -20050938.63348 -15560295.26647
                  20599106.2974                                   20599102.3204
                                                                        50.5004
        43.7504
 -16154882.00048 -12530983.65646
                  20450351.8364                                   20450347.6764
                                                                        50.7504
        41.5004
   2760388.57447   2180071.25844
                  23466054.5634                                   23466050.1804
                                                                        42.5004
        24.5004
 -10447565.20347  -8101819.68744
                  23725141.3134                                   23725136.2194
                                                                        43.7504
        24.2504
   5615529.82046   4422604.21143
                  24519747.2194                                   24519741.8054
                                                                        41.2504
        23.0004
  -9135928.99648  -7068196.33246
                  22519140.9534                                   22519137.3364
                                                                        49.0004
        37.2504
 -16283154.12547 -12672677.96545
                  22494971.7034                                   22494966.9384
                                                                        47.5004
        34.2504
 09 10 30  0 45  0.0000000  0  9G02G08G05G10G13G16G21G29G07
   3914650.44947   3074904.51645
                  22954799.5704                                   22954794.3874
                                                                        44.5004
        33.5004
   -130209.75447    -53782.41444
                  23791334.3444                                   23791330.9884
                                                                        45.0004
        27.5004
 -20161211.96148 -15646222.41847
                  20578122.0314                                   20578117.7304
                                                                        50.5004
        43.7504
 -16237629.99648 -12595462.64846
                  20434604.8754                                   20434601.4144
                                                                        50.7504
        41.2504
   2768665.27046   2186520.57843
                  23467629.7274                                   23467625.0274
                                                                        40.5004
        23.5004
 -10514670.41447  -8154109.44943
                  23712372.0234                                   23712366.1134
                                                                        44.2504
        23.7504
   5417968.69946   4268660.53543
                  24482152.4844                                   24482147.2424
                                                                        41.2504
        22.7504
  -9177975.16048  -7100959.54346
                  22511139.8054                                   22511135.9454
                                                                        48.7504
        37.0004
 -16405941.09048 -12768356.21545
                  22471606.6884                                   22471601.7154
                                                                        48.0004
        33.5004
 09 10 30  0 45 30.0000000  0  9G02G08G05G10G13G16G21G29G07
   3925826.96147   3083613.56645
                  22956926.7034                                   22956921.6054
                                                                        45.7504
        33.5004
   -321983.62147   -203216.30144
                  23754840.3364                                   23754837.6914
                                                                        45.2504
        27.0004
 -20270927.87148 -15731715.02347
                  20557243.5474                                   20557239.6214
                                                                        50.7504
        43.7504
 -16319794.41048 -12659486.79346
                  20418969.7974                                   20418966.0164
                                                                        50.5004
        41.5004
   2777242.93846   2193204.53943
                  23469261.8364                                   23469257.3484
                                                                        41.2504
        22.5004
 -10581171.31247  -8205928.32043
                  23699717.1254                                   23699711.8244
                                                                        44.0004
        23.7504
   5220579.66046   4114850.96943
                  24444590.7894                                   24444586.2934
                                                                        40.5004
        23.2504
  -9219477.04747  -7133298.61346
                  22503242.2734                                   22503238.4344
                                                                        47.2504
        37.0004
 -16528101.25448 -12863545.94545
                  22448359.9614                                   22448355.4614
                                                                        48.0004
        34.0004
 09 10 30  0 46  0.0000000  0  9G02G08G05G10G13G16G21G29G07
   3937296.09847   3092550.67245
                  22959109.0474                                   22959103.5784
                                                                        45.7504
        32.2504
   -513427.91047   -352393.10244
                  23718408.6954                                   23718406.0864
                                                                        44.7504
        27.7504
 -20380081.52348 -15816769.70347
                  20536472.5554                                   20536468.1604
                                                                        51.0004
        43.7504
 -16401370.26248 -12723052.25047
                  20403446.0784                                   20403442.5864
                                                                        50.7504
        42.0004
   2786123.48446   2200124.45843
                  23470951.7194                                   23470946.4384
                                                                        40.5004
        22.2504
 -10647063.73447  -8257273.08244
                  23687178.0314                                   23687172.6484
                                                                        43.5004
        25.0004
   5023369.94146   3961181.09843
                  24407063.2734                                   24407057.9304
                                                                        41.5004
        23.7504
  -9260431.43748  -7165211.17246
                  22495448.8364                                   22495445.3364
                                                                        48.0004
        37.0004
 -16649628.96148 -12958242.88345
                  22425233.9064                                   22425229.6484
                                                                        48.5004
        34.2504
 09 10 30  0 46 30.0000000  0  9G02G08G05G10G13G16G21G29G07
   3949053.22747   3101712.24645
                  22961345.7424                                   22961340.6024
                                                                        45.5004
        33.0004
   -704543.70347   -501314.68044
                  23682040.9844                                   23682037.9454
                                                                        44.7504
        26.2504
 -20488674.84448 -15901387.82047
                  20515807.7974                                   20515803.0904
                                                                        49.5004
        43.7504
 -16482360.81248 -12786161.55146
                  20388034.3444                                   20388030.1994
                                                                        49.5004
        41.7504
   2795302.03146   2207276.55943
                  23472697.6414                                   23472692.7664
                                                                        40.2504
        21.5004
 -10712351.48047  -8308146.64144
                  23674754.1334                                   23674748.9264
                                                                        43.0004
        24.0004
   4826338.92646   3807650.46143
                  24369569.0164                                   24369564.0594
                                                                        41.7504
        23.7504
  -9300842.61748  -7196700.41446
                  22487758.7344                                   22487755.0124
                                                                        48.5004
        36.7504
 -16770525.37148 -13052447.80545
                  22402228.4304                                   22402223.7774
                                                                        48.0004
        34.5004
 09 10 30  0 47  0.0000000  0  9G02G08G05G10G13G16G21G29G07
   3961092.37547   3111093.53945
                  22963636.2584                                   22963631.4884
                                                                        44.5004
        32.5004
   -895329.39147   -649978.64844
                  23645735.9614                                   23645732.5474
                                                                        44.5004
        27.5004
 -20596710.76248 -15985571.51247
                  20495248.8524                                   20495244.8914
                                                                        51.2504
        43.5004
 -16562770.20348 -12848818.02047
                  20372732.6094                                   20372728.5234
                                                                        50.0004
        42.2504
   2804772.60946   2214656.29343
                  23474499.9774                                   23474495.8244
                                                                        40.5004
        22.7504
 -10777039.18447  -8358552.66044
                  23662443.5944                                   23662439.5394
                                                                        43.5004
        25.0004
   4629485.18846   3654257.93843
                  24332108.6414                                   24332103.7034
                                                                        40.5004
        22.5004
  -9340716.06248  -7227770.64546
                  22480171.5634                                   22480167.7074
                                                                        48.0004
        36.5004
 -16890793.35248 -13146163.23445
                  22379342.2194                                   22379337.5164
                                                                        48.5004
        34.5004
 09 10 30  0 47 30.0000000  0  9G02G08G05G10G13G16G21G29G07
   3973405.72747   3120688.36745
                  22965980.0554                                   22965974.0004
                                                                        44.7504
        33.0004
  -1085787.98447   -798387.78944
                  23609492.5554                                   23609489.4184
                                                                        44.7504
        26.7504
 -20704193.75048 -16069324.48447
                  20474795.2894                                   20474791.1524
                                                                        50.2504
        44.0004
 -16642603.93048 -12911026.03546
                  20357540.8914                                   20357536.6414
                                                                        50.0004
        41.2504
   2814527.20347   2222257.25843
                  23476356.3984                                   23476351.7704
                                                                        42.5004
        22.2504
 -10841132.73047  -8408495.68044
                  23650248.4384                                   23650243.3524
                                                                        42.7504
        24.5004
   4432806.47646   3501001.78443
                  24294682.7194                                   24294677.4414
                                                                        41.2504
        22.2504
  -9380058.18748  -7258426.82846
                  22472684.6724                                   22472680.7814
                                                                        48.5004
        36.5004
 -17010436.56248 -13239391.78545
                  22356574.8674                                   22356569.9414
                                                                        48.7504
        34.5004
 09 10 30  0 48  0.0000000  0  9G02G08G05G10G13G16G21G29G07
   3985992.04347   3130496.02745
                  22968374.9064                                   22968369.4534
                                                                        44.5004
        32.0004
  -1275916.12547   -946539.59044
                  23573312.0084                                   23573309.4224
                                                                        44.5004
        27.0004
 -20811123.65248 -16152646.44547
                  20454447.4924                                   20454443.2304
                                                                        49.7504
        44.0004
 -16721862.11348 -12972785.60946
                  20342458.2344                                   20342454.4844
                                                                        49.7504
        41.5004
   2824563.68046   2230077.81344
                  23478266.5704                                   23478261.3714
                                                                        40.5004
        24.5004
 -10904633.27747  -8457976.63744
                  23638164.1884                                   23638159.4304
                                                                        42.2504
        26.0004
   4236305.06647   3347883.84043
                  24257289.3834                                   24257283.8834
                                                                        42.5004
        23.5004
  -9418870.60548  -7288670.18746
                  22465298.9534                                   22465295.2814
                                                                        48.2504
        37.0004
 -17129453.94548 -13332132.74245
                  22333926.6254                                   22333922.2504
                                                                        48.0004
        34.5004
 09 10 30  0 48 30.0000000  0  9G02G08G05G10G13G16G21G29G07
   3998851.50847   3140516.48845
                  22970821.9534                                   22970816.7814
                                                                        46.0004
        31.2504
  -1465707.99647  -1094429.38344
                  23537196.3444                                   23537193.2894
                                                                        44.5004
        26.5004
 -20917497.12948 -16235534.85247
                  20434205.2274                                   20434201.3324
                                                                        49.0004
        44.0004
 -16800542.82448 -13034095.23846
                  20327485.7274                                   20327482.0084
                                                                        49.0004
        41.7504
   2834882.14146   2238118.13744
                  23480230.4064                                   23480225.6644
                                                                        41.5004
        24.2504
 -10967539.26647  -8506994.29744
                  23626193.5634                                   23626189.2194
                                                                        42.2504
        24.5004
   4039985.62147   3194907.70743
                  24219931.8444                                   24219925.3204
                                                                        42.5004
        23.0004
  -9457153.15648  -7318500.72346
                  22458014.2424                                   22458010.5044
                                                                        48.5004
        36.7504
 -17247841.21148 -13424382.59045
                  22311398.4924                                   22311394.0234
                                                                        48.7504
        34.5004
 09 10 30  0 49  0.0000000  0  9G02G08G05G10G13G16G21G29G07
   4011979.10947   3150745.75045
                  22973320.2664                                   22973314.1804
                                                                        45.7504
        31.5004
  -1655163.56247  -1242057.45744
                  23501144.3284                                   23501141.5204
                                                                        44.2504
        28.5004
 -21023315.38348 -16317990.61347
                  20414068.6094                                   20414064.3444
                                                                        51.0004
        44.0004
 -16878648.16848 -13094956.52346
                  20312622.5164                                   20312618.6094
                                                                        51.0004
        41.7504
   2845477.79346   2246374.44143
                  23482246.2894                                   23482242.1994
                                                                        40.7504
        22.5004
 -11029853.97347  -8555551.19544
                  23614335.7734                                   23614330.6804
                                                                        43.2504
        25.2504
   3843848.44146   3042073.54743
                  24182606.8834                                   24182601.4614
                                                                        40.7504
        22.2504
  -9494909.37548  -7347921.10546
                  22450829.3364                                   22450825.3404
                                                                        48.0004
        36.7504
 -17365599.08648 -13516141.92645
                  22288989.6564                                   22288985.2344
                                                                        48.0004
        34.5004
 09 10 30  0 49 30.0000000  0  9G02G08G05G10G13G16G21G29G07
   4025374.95347   3161184.12945
                  22975869.0394                                   22975863.5204
                                                                        44.7504
        31.2504
  -1844276.35547  -1389418.25444
                  23465157.6724                                   23465154.8094
                                                                        45.0004
        27.5004
 -21128576.37548 -16400012.17247
                  20394038.3134                                   20394033.9184
                                                                        50.7504
        44.0004
 -16956176.64148 -13155368.27746
                  20297869.6174                                   20297865.2734
                                                                        51.0004
        41.7504
   2856350.36346   2254846.51243
                  23484315.7894                                   23484310.8834
                                                                        41.0004
        21.5004
 -11091576.59447  -8603646.73844
                  23602590.3834                                   23602585.0944
                                                                        43.5004
        24.5004
   3647897.92246   2889384.84844
                  24145319.2114                                   24145313.8524
                                                                        41.5004
        26.0004
  -9532139.37947  -7376931.53946
                  22443744.4144                                   22443740.4774
                                                                        47.7504
        36.5004
 -17482725.14148 -13607408.93745
                  22266701.2734                                   22266696.9844
                                                                        48.5004
        35.0004
 09 10 30  0 50  0.0000000  0 10G02G08G05G10G13G16G21G29G07G15
   4039034.27047   3171827.75445
                  22978468.2194                                   22978462.7934
                                                                        42.7504
        30.0004
  -2033045.73847  -1536510.97344
                  23429235.4304                                   23429232.5554
                                                                        43.7504
        26.5004
 -21233282.53948 -16481601.37547
                  20374113.3134                                   20374108.8954
                                                                        50.7504
        44.0004
 -17033131.91848 -13215333.44147
                  20283225.7894                                   20283221.5904
                                                                        50.5004
        42.0004
   2867494.62546   2263530.34043
                  23486435.9774                                   23486431.2664
                                                                        40.7504
        22.0004
 -11152710.70347  -8651283.69944
                  23590956.6564                                   23590952.0594
                                                                        44.2504
        27.0004
   3452133.48447   2736841.14544
                  24108066.7894                                   24108061.1454
                                                                        43.2504
        24.7504
  -9568847.62548  -7405535.39146
                  22436759.4694                                   22436755.3524
                                                                        48.0004
        36.0004
 -17599220.91048 -13698184.80545
                  22244532.9384                                   22244528.0594
                                                                        48.0004
        35.0004
   9184192.25857   7177331.44954
                  24298080.9304                                   24298077.1724
                                                                        45.2504
        28.5004
 09 10 30  0 50 30.0000000  0 10G02G08G05G10G13G16G21G29G07G15
   4052952.11347   3182672.83245
                  22981117.1024                                   22981111.2854
                                                                        44.5004
        30.7504
  -2221471.98047  -1683336.45344
                  23393378.9534                                   23393376.1684
                                                                        43.5004
        27.5004
 -21337435.56648 -16562759.57847
                  20354293.7194                                   20354289.1954
                                                                        49.7504
        44.0004
 -17109516.76648 -13274854.11346
                  20268690.0704                                   20268686.2464
                                                                        50.0004
        41.5004
   2878905.77047   2272422.25043
                  23488607.7424                                   23488602.8874
                                                                        42.0004
        22.7504
 -11213259.82447  -8698464.83644
                  23579435.1414                                   23579430.1024
                                                                        43.5004
        24.0004
   3256555.33247   2584442.56644
                  24070848.7584                                   24070843.9454
                                                                        42.5004
        25.7504
  -9605038.06248  -7433735.73846
                  22429872.4534                                   22429868.6374
                                                                        48.0004
        37.0004
 -17715088.04348 -13788470.84445
                  22222484.2274                                   22222479.5554
                                                                        49.0004
        34.7504
   8973555.95747   7013199.31344
                  24257997.5234                                   24257994.4494
                                                                        43.0004
        28.2504
 09 10 30  0 51  0.0000000  0 10G02G08G05G10G13G16G21G29G07G15
   4067120.27047   3193713.07445
                  22983812.8754                                   22983807.6054
                                                                        45.5004
        30.7504
  -2409557.98447  -1829896.66044
                  23357587.5864                                   23357584.7934
                                                                        42.5004
        27.5004
 -21441041.38348 -16643491.36347
                  20334577.9304                                   20334573.5744
                                                                        50.5004
        44.0004
 -17185337.55148 -13333935.26246
                  20254261.6724                                   20254257.8164
                                                                        50.5004
        41.5004
   2890574.73846   2281515.00043
                  23490828.3674                                   23490823.5314
                                                                        41.7504
        22.2504
 -11273231.91847  -8745196.33244
                  23568022.2504                                   23568017.4884
                                                                        44.0004
        25.5004
   3061159.42646   2432186.04744
                  24033666.5164                                   24033661.6024
                                                                        41.0004
        26.0004
  -9640718.79347  -7461538.87546
                  22423082.7114                                   22423078.6254
                                                                        47.5004
        36.2504
 -17830331.69548 -13878270.96545
                  22200554.1804                                   22200549.6214
                                                                        48.2504
        34.7504
   8763044.42247   6849164.49244
                  24217937.9384                                   24217935.0474
                                                                        42.0004
        26.0004
 09 10 30  0 51 30.0000000  0 10G02G08G05G10G13G16G21G29G07G15
   5656954.89147   4432545.08645
                  23286348.9304                                   23286343.2734
                                                                        46.2504
        32.2504
  -1021875.88347   -748585.77344
                  23621654.5164                                   23621650.9734
                                                                        43.2504
        28.2504
 -19968676.91848 -15496194.35247
                  20614759.5944                                   20614755.3984
                                                                        50.2504
        44.0004
 -15685173.34048 -12164976.07446
                  20539733.8284                                   20539729.7504
                                                                        50.0004
        41.7504
   4477917.95746   3518405.87943
                  23792889.1884                                   23792885.0664
                                                                        40.0004
        22.5004
  -9757206.77047  -7563878.05544
                  23856512.7344                                   23856507.8794
                                                                        44.2504
        25.7504
   4441373.93046   3507677.91444
                  24296312.4064                                   24296307.6294
                                                                        41.5004
        25.0004
  -8100471.52048  -6261346.19546
                  22716181.7584                                   22716177.9344
                                                                        48.0004
        36.2504
 -16369527.35248 -12739981.68745
                  22478535.4304                                   22478531.2704
                                                                        48.7504
        34.0004
  10128086.23047   7912833.54344
                  24477697.6094                                   24477694.3874
                                                                        43.7504
        28.0004
 09 10 30  0 52  0.0000000  0 10G02G08G05G10G13G16G21G29G07G15
   5671619.47747   4443971.80145
                  23289139.5084                                   23289133.7074
                                                                        46.2504
        31.5004
  -1209270.07847   -894607.25844
                  23585994.3594                                   23585991.1454
                                                                        43.0004
        26.7504
 -20071183.54348 -15576069.56247
                  20595253.1024                                   20595249.0514
                                                                        50.0004
        44.2504
 -15759864.53948 -12223177.00847
                  20525519.9694                                   20525516.1214
                                                                        49.7504
        42.0004
   4490098.71946   3527897.38343
                  23795207.3134                                   23795203.5434
                                                                        40.0004
        22.5004
  -9816024.43747  -7609710.00044
                  23845319.9844                                   23845315.4774
                                                                        43.5004
        24.7504
   4246352.91047   3355713.50844
                  24259201.5944                                   24259196.2624
                                                                        42.0004
        24.0004
  -8135135.45348  -6288356.97746
                  22709585.3984                                   22709581.6524
                                                                        48.0004
        36.2504
 -16483517.38348 -12828805.08645
                  22456844.0394                                   22456839.5824
                                                                        48.7504
        34.5004
   9917834.83247   7749001.36744
                  24437688.1644                                   24437683.9264
                                                                        44.2504
        27.0004
 09 10 30  0 52 30.0000000  0 10G02G08G05G10G13G16G21G29G07G15
   5686533.75847   4455593.19145
                  23291977.3284                                   23291972.0824
                                                                        44.7504
        30.2504
  -1396308.69547  -1040351.62544
                  23550401.9774                                   23550399.0204
                                                                        44.2504
        26.5004
 -20173135.68748 -15655512.69947
                  20575852.5554                                   20575848.0984
                                                                        50.0004
        44.0004
 -15833987.12548 -12280934.80146
                  20511415.2114                                   20511411.0744
                                                                        49.7504
        41.7504
   4502536.01246   3537588.70343
                  23797574.1564                                   23797569.7934
                                                                        40.7504
        22.0004
  -9874262.38347  -7655090.23044
                  23834237.1884                                   23834232.7584
                                                                        43.2504
        25.2504
   4051527.29347   3203901.32443
                  24222127.4614                                   24222121.6094
                                                                        42.0004
        23.2504
  -8169289.44547  -6314970.39546
                  22703086.1884                                   22703082.3554
                                                                        47.2504
        36.2504
 -16596874.94548 -12917135.67245
                  22435272.8054                                   22435268.1844
                                                                        48.2504
        34.2504
   9707721.06647   7585276.26644
                  24397704.8594                                   24397700.4064
                                                                        45.5004
        27.7504
 09 10 30  0 53  0.0000000  0 10G02G08G05G10G13G16G21G29G07G15
   5701698.49647   4467409.74245
                  23294863.3914                                   23294857.5864
                                                                        45.5004
        31.7504
  -1582986.21547  -1185814.73444
                  23514878.6884                                   23514875.9184
                                                                        43.5004
        28.5004
 -20274529.94948 -15734521.18447
                  20556557.5314                                   20556553.1454
                                                                        50.5004
        44.2504
 -15907538.84448 -12338247.76646
                  20497418.6564                                   20497414.6844
                                                                        50.7504
        41.7504
   4515230.47346   3547480.50843
                  23799990.0474                                   23799985.2194
                                                                        41.7504
        22.0004
  -9931918.71147  -7700017.23444
                  23823266.2894                                   23823261.3914
                                                                        43.2504
        25.2504
   3856903.00447   3052246.02743
                  24185091.4534                                   24185085.6294
                                                                        42.5004
        22.7504
  -8202932.24647  -6341185.50045
                  22696684.4304                                   22696680.5124
                                                                        47.2504
        35.7504
 -16709595.65248 -13004969.96145
                  22413822.8834                                   22413818.1054
                                                                        48.7504
        34.0004
   9497750.86747   7421662.96144
                  24357748.7504                                   24357744.8094
                                                                        44.2504
        27.5004
 09 10 30  0 53 30.0000000  0 10G02G08G05G10G13G16G21G29G07G15
   5717113.78947   4479421.44145
                  23297797.1334                                   23297792.0164
                                                                        44.5004
        32.0004
  -1769296.50047  -1330991.60545
                  23479425.4224                                   23479422.7854
                                                                        44.0004
        30.7504
 -20375363.14848 -15813092.46947
                  20537369.5634                                   20537365.3914
                                                                        50.7504
        43.7504
 -15980517.37948 -12395114.09046
                  20483531.1644                                   20483527.4964
                                                                        49.5004
        41.5004
   4528182.25847   3557572.76643
                  23802454.7974                                   23802449.7934
                                                                        42.2504
        21.5004
  -9988992.24647  -7744490.14844
                  23812405.7194                                   23812400.4654
                                                                        44.5004
        25.7504
   3662484.37947   2900751.00444
                  24148094.8594                                   24148089.5044
                                                                        42.5004
        25.2504
  -8236063.40647  -6367001.91846
                  22690379.4064                                   22690375.7504
                                                                        47.7504
        36.0004
 -16821676.66848 -13092305.88745
                  22392495.0004                                   22392490.0274
                                                                        49.0004
        35.5004
   9287928.90647   7258165.13344
                  24317821.0394                                   24317817.4774
                                                                        42.5004
        27.5004
 09 10 30  0 54  0.0000000  0 10G02G08G05G10G13G16G21G29G07G15
   5732777.19547   4491626.62145
                  23300777.6804                                   23300772.1134
                                                                        43.0004
        31.0004
  -1955237.29747  -1475880.49245
                  23444041.8364                                   23444038.6254
                                                                        44.5004
        30.2504
 -20475636.47348 -15891227.53147
                  20518288.5084                                   20518283.5704
                                                                        49.5004
        43.5004
 -16052924.50448 -12451535.19547
                  20469752.4694                                   20469748.2194
                                                                        48.7504
        42.0004
   4541388.02046   3567862.99643
                  23804967.6094                                   23804962.1214
                                                                        40.2504
        21.5004
 -10045485.05147  -7788510.52344
                  23801654.6414                                   23801650.1174
                                                                        44.5004
        25.7504
   3468272.78947   2749417.33244
                  24111137.5634                                   24111132.3284
                                                                        42.7504
        25.7504
  -8268685.59447  -6392421.79346
                  22684171.5944                                   22684167.8094
                                                                        47.2504
        36.2504
 -16933117.41448 -13179142.82845
                  22371288.0944                                   22371283.1254
                                                                        49.0004
        34.0004
   9078256.80946   7094784.09044
                  24277921.7664                                   24277918.5664
                                                                        41.0004
        27.5004
 09 10 30  0 54 30.0000000  0 10G02G08G05G10G13G16G21G29G07G15
   5748688.21547   4504024.91045
                  23303805.4454                                   23303799.9774
                                                                        44.0004
        30.7504
  -2140804.20347  -1620478.18044
                  23408729.6174                                   23408726.7464
                                                                        44.5004
        29.5004
 -20575346.99648 -15968924.07047
                  20499314.0164                                   20499309.3754
                                                                        50.0004
        44.0004
 -16124758.87548 -12507510.04746
                  20456083.0394                                   20456078.9414
                                                                        49.2504
        41.7504
   4554847.32446   3578350.82043
                  23807528.7274                                   23807523.6564
                                                                        39.7504
        20.7504
 -10101396.40647  -7832077.82444
                  23791015.0864                                   23791010.6334
                                                                        45.5004
        25.5004
   3274272.90647   2598248.60544
                  24074220.3834                                   24074215.5354
                                                                        43.7504
        25.7504
  -8300798.90648  -6417445.15646
                  22678060.7344                                   22678056.4024
                                                                        48.0004
        36.2504
 -17043915.18748 -13265478.72745
                  22350203.4844                                   22350198.7034
                                                                        49.0004
        34.0004
   8868739.56647   6931523.91044
                  24238051.7894                                   24238048.3134
                                                                        42.0004
        28.5004
 09 10 30  0 55  0.0000000  0 10G02G08G05G10G13G16G21G29G07G15
   5764842.52747   4516612.64545
                  23306879.4144                                   23306874.2274
                                                                        44.2504
        30.2504
  -2325995.12147  -1764782.83244
                  23373488.6644                                   23373485.9064
                                                                        44.0004
        28.7504
 -20674496.02048 -16046183.05147
                  20480446.6564                                   20480442.3134
                                                                        51.5004
        43.7504
 -16196022.13748 -12563039.86746
                  20442521.9694                                   20442518.2034
                                                                        50.2504
        41.7504
   4568556.18047   3589033.08243
                  23810137.1954                                   23810132.3524
                                                                        42.0004
        21.2504
 -10156729.25447  -7875194.33644
                  23780485.9384                                   23780480.9104
                                                                        44.7504
        25.5004
   3080485.73847   2447245.62944
                  24037344.6484                                   24037338.5474
                                                                        43.5004
        25.5004
  -8332406.80548  -6442074.68746
                  22672046.1564                                   22672042.0984
                                                                        48.0004
        36.0004
 -17154070.77048 -13351314.17245
                  22329241.8674                                   22329236.6724
                                                                        48.7504
        34.0004
   8659377.82447   6768384.85944
                  24198211.3984                                   24198208.3594
                                                                        42.5004
        29.2504
 09 10 30  0 55 30.0000000  0 10G02G08G05G10G13G16G21G29G07G15
   5781237.09047   4529387.55545
                  23309999.3674                                   23309994.2344
                                                                        44.2504
        31.0004
  -2510808.15247  -1908792.94544
                  23338320.0634                                   23338317.0704
                                                                        44.0004
        28.2504
 -20773084.20748 -16123005.01647
                  20461685.8444                                   20461681.5664
                                                                        51.5004
        43.7504
 -16266716.12948 -12618126.08246
                  20429069.2034                                   20429065.2504
                                                                        50.7504
        41.2504
   4582511.01246   3599906.85943
                  23812792.3204                                   23812787.9304
                                                                        39.0004
        19.7504
 -10211486.04347  -7917861.95344
                  23770065.3984                                   23770060.8014
                                                                        44.5004
        26.2504
   2886912.46547   2296409.29744
                  24000507.9774                                   24000503.5234
                                                                        44.0004
        26.2504
  -8363511.99647  -6466312.48445
                  22666126.9304                                   22666123.2504
                                                                        47.5004
        35.7504
 -17263584.32848 -13436649.44545
                  22308401.6884                                   22308397.5044
                                                                        48.7504
        34.7504
   8450172.40247   6605367.57444
                  24158401.1334                                   24158398.1524
                                                                        43.0004
        29.7504
 09 10 30  0 56  0.0000000  0 10G02G08G05G10G13G16G21G29G07G15
   5797871.42647   4542349.39545
                  23313164.8054                                   23313159.1524
                                                                        44.2504
        30.0004
  -2695238.69547  -2052504.93744
                  23303223.8834                                   23303220.3324
                                                                        44.2504
        28.0004
 -20871109.96148 -16199388.72747
                  20443032.3284                                   20443027.8754
                                                                        51.0004
        44.2504
 -16336839.86348 -12672767.94146
                  20415725.4844                                   20415721.2464
                                                                        50.7504
        40.7504
   4596711.18046   3610971.84843
                  23815495.3134                                   23815490.6414
                                                                        39.5004
        20.5004
 -10265666.74247  -7960080.69544
                  23759755.5944                                   23759750.1764
                                                                        45.0004
        25.5004
   2693557.00447   2145742.75444
                  23963713.8134                                   23963709.0354
                                                                        42.2504
        25.0004
  -8394115.27047  -6490159.23845
                  22660303.0784                                   22660299.7234
                                                                        47.5004
        35.7504
 -17372453.37548 -13521482.41045
                  22287684.8054                                   22287680.4734
                                                                        49.5004
        34.5004
   8241127.12147   6442474.84044
                  24118621.0864                                   24118618.5864
                                                                        42.0004
        27.2504
 09 10 30  0 56 30.0000000  0 10G02G08G05G10G13G16G21G29G07G15
   5814741.63747   4555494.84444
                  23316375.1804                                   23316369.8554
                                                                        44.7504
        29.0004
  -2879284.84847  -2195917.27744
                  23268201.0234                                   23268197.4654
                                                                        44.2504
        27.0004
 -20968574.30948 -16275335.05547
                  20424485.3204                                   20424481.0474
                                                                        49.0004
        43.7504
 -16406395.50848 -12726967.15246
                  20402489.4694                                   20402485.3834
                                                                        49.0004
        41.7504
   4611152.76646   3622224.93443
                  23818243.5004                                   23818239.0124
                                                                        41.5004
        21.5004
 -10319273.69147  -8001852.32844
                  23749554.6024                                   23749548.6564
                                                                        44.5004
        24.5004
   2500420.71947   1995246.97744
                  23926961.1884                                   23926956.0784
                                                                        43.0004
        24.5004
  -8424219.80148  -6513617.35546
                  22654574.4454                                   22654570.7344
                                                                        48.2504
        36.0004
 -17480678.92248 -13605813.93445
                  22267090.7274                                   22267085.5744
                                                                        48.0004
        34.5004
   8032244.80547   6279709.68044
                  24078872.7194                                   24078869.2154
                                                                        42.5004
        28.0004
 09 10 30  0 57  0.0000000  0 10G02G08G05G10G13G16G21G29G07G15
   5831844.69147   4568821.64844
                  23319629.3594                                   23319624.3284
                                                                        45.0004
        29.2504
  -3062944.98847  -2339029.05544
                  23233251.7034                                   23233248.5984
                                                                        44.5004
        27.0004
 -21065477.35548 -16350843.92647
                  20406045.7274                                   20406041.1524
                                                                        49.7504
        44.0004
 -16475384.29348 -12780724.62946
                  20389361.1804                                   20389357.2274
                                                                        49.7504
        41.2504
   4625832.53946   3633663.53943
                  23821037.5234                                   23821033.0164
                                                                        39.7504
        21.0004
 -10372309.03947  -8043178.54343
                  23739462.5314                                   23739456.7814
                                                                        44.5004
        22.7504
   2307505.31647   1844923.32044
                  23890251.0864                                   23890245.6844
                                                                        44.2504
        26.0004
  -8453828.18747  -6536688.85545
                  22648940.0164                                   22648936.5554
                                                                        47.7504
        35.7504
 -17588260.57448 -13689643.71945
                  22246618.1804                                   22246613.2894
                                                                        49.0004
        34.0004
   7823526.00847   6117071.88744
                  24039154.3984                                   24039150.7584
                                                                        43.2504
        28.0004
 09 10 30  0 57 30.0000000  0 10G02G08G05G10G13G16G21G29G07G15
   5849177.26247   4582327.38344
                  23322928.3594                                   23322923.3324
                                                                        45.5004
        29.5004
  -3246217.55947  -2481838.86344
                  23198376.2194                                   23198373.0314
                                                                        45.0004
        29.5004
 -21161821.02048 -16425916.88747
                  20387711.5944                                   20387707.4494
                                                                        51.0004
        44.0004
 -16543808.77748 -12834042.44146
                  20376340.4844                                   20376336.3594
                                                                        50.5004
        41.7504
   4640746.69146   3645284.84043
                  23823874.8834                                   23823870.8794
                                                                        41.5004
        22.0004
 -10424776.33647  -8084062.13344
                  23729477.8134                                   23729472.7894
                                                                        44.2504
        24.5004
   2114810.62947   1694771.60544
                  23853582.5234                                   23853576.3524
                                                                        45.5004
        25.5004
  -8482944.68447  -6559377.00845
                  22643399.3914                                   22643395.4774
                                                                        47.5004
        35.5004
 -17695199.65648 -13772972.81245
                  22226268.4844                                   22226263.7034
                                                                        48.7504
        34.0004
   7614970.00047   5954560.36744
                  23999467.5084                                   23999464.5744
                                                                        44.7504
        28.5004
 09 10 30  0 58  0.0000000  0 10G02G08G05G10G13G16G21G29G07G15
   5866737.66847   4596010.70745
                  23326269.9924                                   23326264.8134
                                                                        45.7504
        30.2504
  -3429099.01647  -2624344.07044
                  23163575.0634                                   23163572.3164
                                                                        44.0004
        29.2504
 -21257603.94548 -16500552.87947
                  20369484.8594                                   20369480.5824
                                                                        51.5004
        44.0004
 -16611668.56248 -12886920.21946
                  20363427.6414                                   20363423.1954
                                                                        50.7504
        41.5004
   4655893.16446   3657087.22743
                  23826757.7114                                   23826753.0434
                                                                        41.2504
        21.2504
 -10476675.78147  -8124503.25443
                  23719602.0634                                   23719596.2854
                                                                        43.5004
        22.7504
   1922340.59847   1544794.92644
                  23816956.7034                                   23816950.8014
                                                                        45.2504
        25.5004
  -8511569.85248  -6581682.34445
                  22637952.1644                                   22637948.4694
                                                                        48.2504
        35.7504
 -17801494.23848 -13855799.72745
                  22206041.1174                                   22206036.1254
                                                                        48.0004
        34.5004
   7406582.28947   5792180.39544
                  23959812.9774                                   23959809.3954
                                                                        43.5004
        27.2504
 09 10 30  0 58 30.0000000  0 10G02G08G05G10G13G16G21G29G07G15
   5884522.81647   4609869.02344
                  23329654.7894                                   23329649.4964
                                                                        44.7504
        28.5004
  -3611586.53547  -2766542.32444
                  23128848.8444                                   23128845.8794
                                                                        43.5004
        27.7504
 -21352826.37148 -16574752.10547
                  20351364.3914                                   20351360.1374
                                                                        52.5004
        44.0004
 -16678964.98848 -12939359.01246
                  20350621.2194                                   20350617.1564
                                                                        51.7504
        41.0004
   4671269.55946   3669068.89143
                  23829683.5634                                   23829678.4534
                                                                        41.2504
        20.0004
 -10528009.66847  -8164503.67644
                  23709833.4454                                   23709828.5864
                                                                        43.2504
        24.5004
   1730097.28147   1394994.93844
                  23780373.6174                                   23780368.1914
                                                                        45.5004
        26.7504
  -8539706.73847  -6603607.22745
                  22632598.0234                                   22632594.0784
                                                                        47.5004
        35.5004
 -17907144.36348 -13938124.51245
                  22185936.5704                                   22185931.7974
                                                                        49.0004
        34.5004
   7198364.52047   5629933.21144
                  23920190.1024                                   23920187.2194
                                                                        44.0004
        28.7504
 09 10 30  0 59  0.0000000  0 10G02G08G05G10G13G16G21G29G07G15
   5902531.88347   4623901.71144
                  23333081.7974                                   23333076.9654
                                                                        45.2504
        29.5004
  -3793675.85247  -2908430.29345
                  23094198.8674                                   23094195.3204
                                                                        45.0004
        30.2504
 -21447487.06648 -16648513.63347
                  20333351.3984                                   20333346.5864
                                                                        49.0004
        43.5004
 -16745697.52048 -12991358.41046
                  20337922.5784                                   20337918.2854
                                                                        49.0004
        41.2504
   4686874.18846   3681228.26643
                  23832652.5634                                   23832648.0474
                                                                        40.2504
        18.5004
 -10578778.16047  -8204063.53944
                  23700172.3754                                   23700167.5824
                                                                        42.5004
        24.0004
   1538084.42647   1245374.53544
                  23743835.1954                                   23743829.4304
                                                                        45.2504
        27.0004
  -8567355.55147  -6625151.75045
                  22627336.8204                                   22627331.9884
                                                                        47.5004
        35.0004
 -18012148.06648 -14019945.52045
                  22165954.7894                                   22165950.4024
                                                                        48.0004
        34.2504
   6990318.75847   5467819.66445
                  23880600.2114                                   23880596.8134
                                                                        45.2504
        30.5004
 09 10 30  0 59 30.0000000  0 10G02G08G05G10G13G16G21G29G07G15
   5920757.37947   4638102.28544
                  23336550.5394                                   23336545.7774
                                                                        44.5004
        29.2504
  -3975367.31247  -3050008.26244
                  23059624.4614                                   23059621.3134
                                                                        44.0004
        29.7504
 -21541589.50848 -16721840.18047
                  20315444.0394                                   20315439.8054
                                                                        49.5004
        44.5004
 -16811870.22348 -13042921.56646
                  20325330.2424                                   20325326.0904
                                                                        49.2504
        41.2504
   4702701.29346   3693560.98043
                  23835664.6094                                   23835660.0664
                                                                        40.2504
        19.5004
 -10628986.32447  -8243186.80144
                  23690618.5474                                   23690612.8364
                                                                        43.0004
        24.0004
   1346300.27347   1095932.31344
                  23707339.3444                                   23707334.4694
                                                                        43.0004
        26.0004
  -8594522.98447  -6646321.24245
                  22622166.9224                                   22622162.9104
                                                                        47.7504
        35.5004
 -18116508.37547 -14101265.23445
                  22146095.8914                                   22146090.6804
                                                                        47.5004
        34.0004
   6782445.27347   5305840.49245
                  23841043.1174                                   23841039.8554
                                                                        43.2504
        30.5004
 09 10 30  1  0  0.0000000  0 10G02G08G05G10G13G16G21G29G07G15
   7514623.18847   5880075.76244
                  23639853.5394                                   23639848.5354
                                                                        44.5004
        28.5004
  -2581229.72347  -1963667.37144
                  23324919.9144                                   23324916.2734
                                                                        44.5004
        28.7504
 -20059708.30548 -15567127.55547
                  20597436.7814                                   20597432.2854
                                                                        51.5004
        44.0004
 -15302059.49248 -11866445.63746
                  20612637.4454                                   20612633.2624
                                                                        52.0004
        41.2504
   6294170.05946   4933666.36343
                  24138511.4454                                   24138507.1764
                                                                        39.5004
        19.2504
  -9103211.87947  -7054271.67244
                  23980963.1334                                   23980958.8634
                                                                        43.5004
        25.7504
   2730176.49647   2174277.47744
                  23970682.3284                                   23970677.2664
                                                                        43.5004
        25.7504
  -7045787.19147  -5439514.15245
                  22916881.6334                                   22916877.8014
                                                                        47.5004
        35.7504
 -16644799.30148 -12954478.92645
                  22426152.8444                                   22426148.0124
                                                                        48.0004
        34.5004
   8150174.36347   6371603.24245
                  24101313.6334                                   24101310.0394
                                                                        44.2504
        31.0004
 09 10 30  1  0 30.0000000  0 10G02G08G05G10G13G16G21G29G07G15
   7533285.85947   5894618.50444
                  23643404.5164                                   23643399.5274
                                                                        44.5004
        28.2504
  -2762112.64847  -2104615.16044
                  23290498.8984                                   23290496.2274
                                                                        45.0004
        28.5004
 -20152689.55948 -15639580.44947
                  20579742.8594                                   20579738.4264
                                                                        50.7504
        44.0004
 -15367111.05948 -11917135.10246
                  20600258.4694                                   20600254.3594
                                                                        51.5004
        41.5004
   6310439.68446   4946344.19143
                  24141607.7034                                   24141602.8484
                                                                        40.7504
        19.2504
  -9152300.11347  -7092522.25444
                  23971622.2424                                   23971617.4414
                                                                        43.5004
        25.2504
   2538861.71147   2025201.01244
                  23934276.8914                                   23934271.1024
                                                                        44.5004
        27.0004
  -7071992.63347  -5459933.94145
                  22911894.7504                                   22911891.2154
                                                                        47.7504
        35.5004
 -16747867.24247 -13034791.57845
                  22406539.3984                                   22406534.6644
                                                                        47.5004
        35.0004
   7942654.28147   6209898.82045
                  24061823.7504                                   24061820.9494
                                                                        42.5004
        30.2504
 09 10 30  1  1  0.0000000  0 10G02G08G05G10G13G16G21G29G07G15
   7552154.44147   5909321.21144
                  23646994.8594                                   23646990.4384
                                                                        45.5004
        29.0004
  -2942593.16447  -2245249.14844
                  23256154.4144                                   23256151.4024
                                                                        42.7504
        28.5004
 -20245116.60948 -15711601.57047
                  20562154.6954                                   20562149.9224
                                                                        48.7504
        43.7504
 -15431610.19548 -11967394.21146
                  20587984.8984                                   20587980.6684
                                                                        49.0004
        41.5004
   6326919.57846   4959185.55943
                  24144743.8914                                   24144738.7544
                                                                        41.7504
        21.2504
  -9200837.27747  -7130343.45344
                  23962386.7194                                   23962381.1374
                                                                        44.0004
        24.0004
   2347778.51647   1876305.05144
                  23897914.6804                                   23897909.6254
                                                                        44.5004
        26.7504
  -7097727.24247  -5479986.89146
                  22906997.6804                                   22906994.3324
                                                                        47.2504
        36.0004
 -16850294.80948 -13114605.21545
                  22387048.2344                                   22387043.3914
                                                                        48.0004
        34.5004
   7735308.91447   6048330.64544
                  24022367.5084                                   24022363.9384
                                                                        42.0004
        29.2504
 09 10 30  1  1 30.0000000  0 10G02G08G05G10G13G16G21G29G07G15
   7571230.78547   5924185.72744
                  23650624.8054                                   23650620.9774
                                                                        44.7504
        28.0004
  -3122665.98847  -2385565.58645
                  23221887.4304                                   23221884.6374
                                                                        43.5004
        30.0004
 -20336986.16848 -15783188.23447
                  20544672.5864                                   20544667.8984
                                                                        50.5004
        43.7504
 -15495554.20748 -12017220.69146
                  20575816.5704                                   20575812.5274
                                                                        51.0004
        41.5004
   6343610.13347   4972191.03543
                  24147919.9064                                   24147915.0904
                                                                        42.5004
        22.0004
  -9248821.87547  -7167734.05544
                  23953255.4844                                   23953250.0704
                                                                        44.0004
        24.7504
   2156932.43047   1727593.80944
                  23861597.5864                                   23861592.9804
                                                                        45.5004
        28.0004
  -7122989.87547  -5499672.02045
                  22902190.1724                                   22902186.6214
                                                                        47.0004
        35.5004
 -16952078.36348 -13193917.08645
                  22367679.4224                                   22367674.3444
                                                                        48.0004
        35.0004
   7528143.69147   5886903.00444
                  23982945.2344                                   23982942.2034
                                                                        42.5004
        27.2504
 09 10 30  1  2  0.0000000  0 10G02G08G05G10G13G16G21G29G07G15
   7590513.15247   5939211.05544
                  23654294.8834                                   23654289.5474
                                                                        43.7504
        27.5004
  -3302327.65647  -2525561.72345
                  23187699.4384                                   23187696.0124
                                                                        44.5004
        30.5004
 -20428297.95748 -15854340.26647
                  20527296.4774                                   20527292.1914
                                                                        50.0004
        43.5004
 -15558943.72748 -12066615.08646
                  20563754.2664                                   20563749.9574
                                                                        50.0004
        41.2504
   6360509.98446   4985359.54343
                  24151135.3284                                   24151131.3524
                                                                        39.2504
        20.0004
  -9296255.10947  -7204695.01644
                  23944229.0234                                   23944223.8164
                                                                        45.0004
        25.2504
   1966326.14847   1579069.44944
                  23825326.5084                                   23825321.4774
                                                                        45.7504
        27.0004
  -7147782.62547  -5518991.06245
                  22897472.1414                                   22897468.6994
                                                                        46.2504
        34.7504
 -17053217.02747 -13272726.40645
                  22348433.5084                                   22348428.4224
                                                                        47.7504
        34.0004
   7321160.12147   5725616.35944
                  23943559.1094                                   23943554.4924
                                                                        43.5004
        27.5004
 09 10 30  1  2 30.0000000  0 10G02G08G05G10G13G16G21G29G07G15
   7609996.71147   5954392.94144
                  23658002.7194                                   23657997.1094
                                                                        44.5004
        29.0004
  -3481576.83247  -2665236.34045
                  23153589.5394                                   23153585.8164
                                                                        44.7504
        30.0004
 -20519053.70348 -15925059.00847
                  20510026.2424                                   20510021.9884
                                                                        50.0004
        44.0004
 -15621781.44148 -12115579.49646
                  20551796.2734                                   20551792.6294
                                                                        50.2504
        41.0004
   6377615.28546   4998688.11743
                  24154390.7814                                   24154386.3364
                                                                        37.5004
        19.0004
  -9343140.82847  -7241229.34844
                  23935306.7344                                   23935301.4574
                                                                        45.2504
        24.2504
   1775960.41847   1430732.52344
                  23789101.2814                                   23789096.1414
                                                                        45.5004
        27.5004
  -7172109.39147  -5537946.97745
                  22892843.5234                                   22892839.3914
                                                                        47.7504
        34.5004
 -17153712.38748 -13351034.47345
                  22329309.6724                                   22329304.8754
                                                                        49.0004
        34.7504
   7114361.89847   5564475.35945
                  23904205.9304                                   23904202.3134
                                                                        44.5004
        30.7504
 09 10 30  1  3  0.0000000  0 10G02G08G05G10G13G16G21G29G07G15
   7629679.43447   5969730.09044
                  23661747.7344                                   23661743.3134
                                                                        44.2504
        28.0004
  -3660411.10547  -2804587.52745
                  23119558.2424                                   23119554.8244
                                                                        44.2504
        30.5004
 -20609253.95348 -15995344.93747
                  20492861.7734                                   20492857.6024
                                                                        50.2504
        43.5004
 -15684068.57848 -12164114.89146
                  20539943.5554                                   20539939.3794
                                                                        50.0004
        41.0004
   6394920.84446   5012171.98842
                  24157684.6954                                   24157681.2274
                                                                        38.0004
        17.2504
  -9389480.55147  -7277338.21544
                  23926488.8594                                   23926483.2424
                                                                        45.5004
        24.5004
   1585837.37147   1282584.68844
                  23752921.8204                                   23752916.7464
                                                                        45.2504
        27.7504
  -7195972.29347  -5556541.37545
                  22888302.2344                                   22888298.0904
                                                                        46.7504
        34.7504
 -17253564.73048 -13428841.52745
                  22310308.5314                                   22310303.6804
                                                                        48.5004
        33.7504
   6907747.85947   5403477.19545
                  23864888.8524                                   23864886.0554
                                                                        44.0004
        31.5004
 09 10 30  1  3 30.0000000  0 10G02G08G05G10G13G16G21G29G07G15
   7649557.27047   5985218.73044
                  23665530.7814                                   23665525.6054
                                                                        43.0004
        27.2504
  -3838829.33247  -2943615.04345
                  23085606.5314                                   23085603.1844
                                                                        44.5004
        30.5004
 -20698899.43048 -16065198.56247
                  20475802.4844                                   20475798.1684
                                                                        49.7504
        43.7504
 -15745806.93048 -12212222.66446
                  20528195.3834                                   20528190.7774
                                                                        50.2504
        40.7504
   6412427.29346   5025813.13343
                  24161016.3364                                   24161012.8524
                                                                        40.7504
        18.2504
  -9435277.50447  -7313024.15244
                  23917773.8914                                   23917768.8244
                                                                        45.5004
        25.0004
   1395958.12147   1134626.83244
                  23716788.9924                                   23716783.8244
                                                                        45.0004
        27.0004
  -7219375.16447  -5574777.33645
                  22883848.6414                                   22883844.3404
                                                                        47.0004
        34.2504
 -17352773.91847 -13506147.41445
                  22291429.3984                                   22291424.7074
                                                                        47.7504
        34.2504
   6701320.28947   5242624.29345
                  23825607.2974                                   23825603.8554
                                                                        45.0004
        31.7504
 09 10 30  1  4  0.0000000  0 10G02G08G05G10G13G16G21G29G07G15
   7669628.71147   6000857.42244
                  23669350.9144                                   23669347.5314
                                                                        43.7504
        27.5004
  -4016826.60547  -3082314.69945
                  23051734.9844                                   23051732.3954
                                                                        45.0004
        31.0004
 -20787988.27048 -16134618.44147
                  20458849.6804                                   20458845.0594
                                                                        51.0004
        43.7504
 -15806995.61748 -12259902.14846
                  20516551.3204                                   20516546.8554
                                                                        51.2504
        41.0004
   6430132.18046   5039608.69543
                  24164385.7894                                   24164382.2974
                                                                        41.2504
        19.2504
  -9480531.38347  -7348286.91844
                  23909162.6094                                   23909157.1524
                                                                        44.5004
        24.0004
   1206327.44947    986862.69944
                  23680703.4224                                   23680697.6764
                                                                        44.5004
        25.7504
  -7242318.16847  -5592655.02345
                  22879482.8444                                   22879478.9414
                                                                        46.5004
        34.5004
 -17451338.46148 -13582951.02345
                  22272673.1804                                   22272668.3244
                                                                        48.2504
        34.5004
   6495083.12147   5081919.60245
                  23786361.6954                                   23786359.2854
                                                                        42.2504
        31.0004
 09 10 30  1  4 30.0000000  0 10G02G08G05G10G13G16G21G29G07G15
   7689898.73847   6016652.71544
                  23673208.7894                                   23673203.9414
                                                                        44.5004
        28.0004
  -4194397.49647  -3220682.22344
                  23017944.6804                                   23017942.3204
                                                                        44.5004
        29.7504
 -20876518.54348 -16203603.09847
                  20442002.7584                                   20441998.4734
                                                                        49.0004
        43.7504
 -15867633.28148 -12307152.31246
                  20505012.2504                                   20505007.9414
                                                                        49.5004
        40.5004
   6448033.02046   5053556.53143
                  24167793.3594                                   24167789.1804
                                                                        41.2504
        21.7504
  -9525242.13747  -7383126.44543
                  23900654.5314                                   23900648.8524
                                                                        44.5004
        23.7504
   1016948.95347    839295.05544
                  23644666.0474                                   23644660.5314
                                                                        45.2504
        27.5004
  -7264801.91447  -5610174.81245
                  22875204.3674                                   22875200.1294
                                                                        46.2504
        35.0004
 -17549255.30948 -13659249.77745
                  22254040.3134                                   22254035.3674
                                                                        48.2504
        34.5004
   6289041.77746   4921367.85245
                  23747152.7894                                   23747151.0824
                                                                        41.2504
        30.0004
 09 10 30  1  5  0.0000000  0 10G02G08G05G10G13G16G21G29G07G15
   7710355.89147   6032593.59844
                  23677101.5784                                   23677096.3094
                                                                        44.5004
        27.2504
  -4371542.59047  -3358716.94144
                  22984234.7584                                   22984232.0824
                                                                        45.0004
        29.5004
 -20964495.56648 -16272156.61347
                  20425261.4774                                   20425256.9534
                                                                        51.2504
        43.5004
 -15927726.28148 -12353978.05546
                  20493576.7344                                   20493572.5204
                                                                        51.5004
        41.0004
   6466122.76646   5067650.80943
                  24171236.6484                                   24171232.8714
                                                                        41.2504
        22.5004
  -9569416.04347  -7417547.68744
                  23892247.7344                                   23892243.1094
                                                                        44.0004
        24.0004
    827820.52747    691922.25844
                  23608676.0784                                   23608671.0084
                                                                        45.0004
        27.2504
  -7286833.33247  -5627342.18745
                  22871012.1174                                   22871008.1454
                                                                        47.0004
        35.5004
 -17646530.24648 -13735048.43745
                  22235529.6804                                   22235524.9574
                                                                        48.0004
        34.0004
   6083189.71547   4760961.80545
                  23707982.2814                                   23707979.9224
                                                                        44.0004
        30.5004
 09 10 30  1  5 30.0000000  0  9G02G08G05G10G16G21G29G07G15
   7730997.18047   6048677.07044
                  23681028.9224                                   23681025.1644
                                                                        44.0004
        27.7504
  -4548261.69947  -3496420.38345
                  22950606.6564                                   22950604.0164
                                                                        45.0004
        30.0004
 -21051918.84448 -16340278.62947
                  20408625.2814                                   20408620.9344
                                                                        48.7504
        43.7504
 -15987275.45348 -12400380.00846
                  20482245.1884                                   20482241.1024
                                                                        48.7504
        40.7504
  -9613055.23047  -7451552.25043
                  23883943.4534                                   23883938.4454
                                                                        43.5004
        22.5004
    638944.59047    544746.21944
                  23572734.5004                                   23572729.1294
                                                                        46.0004
        28.0004
  -7308414.60947  -5644158.77746
                  22866905.3284                                   22866900.9574
                                                                        45.7504
        36.2504
 -17743162.19948 -13810346.12545
                  22217141.2424                                   22217136.2624
                                                                        48.0004
        34.2504
   5877538.86747   4602851.91455
                  23668847.3524                                   23668844.2274
                                                                        43.7504
        30.5004
 09 10 30  1  6  0.0000000  0  9G02G08G05G10G16G21G29G07G15
   7751827.04347   6064908.86744
                  23684992.7344                                   23684988.3014
                                                                        44.5004
        28.0004
  -4724546.24647  -3633784.04745
                  22917060.4454                                   22917057.1174
                                                                        45.5004
        31.5004
 -21138786.41448 -16407967.64147
                  20392095.0314                                   20392090.7274
                                                                        49.7504
        43.7504
 -16046279.30948 -12446357.07046
                  20471017.6024                                   20471013.2274
                                                                        49.5004
        41.0004
  -9656158.94547  -7485139.58244
                  23875740.8594                                   23875736.3524
                                                                        42.7504
        24.0004
    450325.75447    397770.52344
                  23536841.5234                                   23536836.0274
                                                                        45.5004
        29.5004
  -7329545.87947  -5660624.68445
                  22862884.4224                                   22862880.3054
                                                                        46.2504
        34.5004
 -17839148.66447 -13885140.83245
                  22198875.5554                                   22198871.0234
                                                                        47.7504
        34.7504
   5672087.07047   4442760.61344
                  23629750.4694                                   23629746.8794
                                                                        44.5004
        29.2504
 09 10 30  1  6 30.0000000  0  9G02G08G05G10G16G21G29G07G15
   7772845.79347   6081287.64144
                  23688991.8914                                   23688987.5314
                                                                        43.7504
        27.5004
  -4900390.30947  -3770804.94945
                  22883597.7814                                   22883594.3794
                                                                        45.5004
        31.0004
 -21225091.97748 -16475218.71947
                  20375671.4454                                   20375666.9184
                                                                        51.5004
        44.0004
 -16104732.61748 -12491905.17246
                  20459893.9224                                   20459889.8364
                                                                        50.5004
        41.0004
  -9698722.79347  -7518306.23444
                  23867641.5634                                   23867636.8284
                                                                        42.5004
        24.5004
    261972.67647    251001.87544
                  23500999.0784                                   23500993.6414
                                                                        46.5004
        29.0004
  -7350222.91447  -5676736.65645
                  22858949.2504                                   22858945.3204
                                                                        46.0004
        35.5004
 -17934483.23047 -13959427.65245
                  22180734.3754                                   22180729.4494
                                                                        47.5004
        34.0004
   5466841.65647   4282829.12145
                  23590693.3134                                   23590690.3094
                                                                        45.5004
        31.0004
 09 10 30  1  7  0.0000000  0  9G02G08G05G10G16G21G29G07G15
   7794056.84047   6097816.13344
                  23693027.7584                                   23693023.1994
                                                                        43.0004
        24.7504
  -5075785.85547  -3907476.76245
                  22850220.8594                                   22850217.8324
                                                                        45.2504
        30.7504
 -21310830.65648 -16542028.09047
                  20359356.1174                                   20359351.7774
                                                                        51.0004
        43.5004
 -16162631.71548 -12537021.71146
                  20448876.1564                                   20448871.9534
                                                                        50.0004
        41.0004
  -9740743.60947  -7551049.74243
                  23859644.7814                                   23859640.2234
                                                                        42.0004
        22.7504
     73892.96947    104446.25044
                  23465207.7504                                   23465203.1174
                                                                        46.0004
        28.0004
  -7370443.20747  -5692492.71945
                  22855101.3444                                   22855097.6134
                                                                        46.5004
        34.7504
 -18029163.00847 -14033205.32445
                  22162717.8984                                   22162713.5864
                                                                        47.5004
        34.7504
   5261811.32047   4123064.85545
                  23551677.9224                                   23551675.0864
                                                                        45.0004
        31.5004
 09 10 30  1  7 30.0000000  0  9G02G08G05G10G16G21G29G07G15
   7815455.22747   6114490.48844
                  23697099.8204                                   23697094.7894
                                                                        44.0004
        26.5004
  -5250731.80547  -4043798.23445
                  22816930.0944                                   22816926.3594
                                                                        46.0004
        30.2504
 -21396004.90648 -16608397.60547
                  20343147.9534                                   20343143.7664
                                                                        48.5004
        43.5004
 -16219980.82048 -12581710.31246
                  20437963.7894                                   20437960.0984
                                                                        49.0004
        41.0004
  -9782225.50846  -7583373.34843
                  23851751.0394                                   23851746.3054
                                                                        41.2504
        22.2504
   -113913.37147    -41896.36344
                  23429469.5474                                   23429464.8874
                                                                        45.5004
        27.0004
  -7390211.41847  -5707896.52745
                  22851339.4454                                   22851336.2814
                                                                        47.0004
        34.7504
 -18123190.15248 -14105987.59856
                  22144827.5164                                   22144822.0664
                                                                        49.2504
        38.0004
   5056998.14847   3963470.58245
                  23512702.7894                                   23512700.1604
                                                                        43.5004
        31.5004
 09 10 30  1  8  0.0000000  0  9G02G08G05G10G16G21G29G07G15
   9412452.81347   7358904.51244
                  24000998.1024                                   24000993.0084
                                                                        45.0004
        28.5004
  -3849805.49247  -2930411.67255
                  23083517.8364                                   23083514.5234
                                                                        47.0004
        31.5004
 -19905197.28548 -15446729.37947
                  20626839.0864                                   20626834.7894
                                                                        51.7504
        43.5004
 -14701362.18448 -11398371.59846
                  20726947.8834                                   20726944.2464
                                                                        51.0004
        41.0004
  -8247754.29746  -6387681.50443
                  24143751.3204                                   24143747.0904
                                                                        41.7504
        22.2504
   1273976.92247   1039576.60244
                  23693576.7034                                   23693571.3284
                                                                        45.2504
        27.0004
  -5834114.28547  -4495353.39545
                  23147455.3834                                   23147451.6524
                                                                        46.2504
        34.0004
 -16641138.31648 -12950169.18455
                  22426851.7664                                   22426847.6254
                                                                        48.5004
        34.5004
   6427822.77047   5031645.23045
                  23773561.9534                                   23773559.6484
                                                                        44.2504
        31.5004
 09 10 30  1  8 30.0000000  0  9G02G08G05G10G16G21G29G07G15
   9434206.37147   7375855.06344
                  24005138.1484                                   24005133.3754
                                                                        44.5004
        28.5004
  -4023854.88347  -3066033.95345
                  23050396.3054                                   23050393.3954
                                                                        46.2504
        30.5004
 -19989255.77348 -15512229.77047
                  20610843.6254                                   20610839.2704
                                                                        51.5004
        43.5004
 -14757623.78548 -11442212.39546
                  20716242.0004                                   20716238.4654
                                                                        51.0004
        41.0004
  -8288176.44546  -6419179.29743
                  24136059.8284                                   24136054.5744
                                                                        41.7504
        22.5004
   1086712.22347    893656.04744
                  23657941.6884                                   23657936.1524
                                                                        45.7504
        28.0004
  -5852998.05547  -4510068.16045
                  23143861.5234                                   23143857.9304
                                                                        46.7504
        34.2504
 -16733860.86348 -13022419.58645
                  22409206.3984                                   22409201.8794
                                                                        49.2504
        34.0004
   6223436.11747   4872383.57045
                  23734668.3594                                   23734665.0234
                                                                        45.0004
        32.0004
 09 10 30  1  9  0.0000000  0  9G02G08G05G10G16G21G29G07G15
   9456128.70747   7392937.11744
                  24009309.8444                                   24009305.4184
                                                                        44.5004
        29.0004
  -4197459.04347  -3201309.69545
                  23017360.2584                                   23017357.0084
                                                                        44.0004
        31.2504
 -20072766.23048 -15576872.00057
                  20594953.6724                                   20594949.6914
                                                                        51.0004
        44.2504
 -14813346.37548 -11485631.90646
                  20705637.9384                                   20705634.5044
                                                                        49.5004
        41.0004
  -8328077.77347  -6450271.23443
                  24128466.7734                                   24128461.8484
                                                                        42.5004
        22.2504
    899715.94547    747944.66844
                  23622357.3754                                   23622351.5474
                                                                        46.0004
        28.7504
  -5871449.15647  -4524445.87545
                  23140350.9064                                   23140346.8874
                                                                        46.5004
        34.0004
 -16825941.59848 -13094170.30945
                  22391683.7034                                   22391678.9494
                                                                        49.5004
        34.2504
   6019258.55947   4713283.81645
                  23695814.9774                                   23695811.3984
                                                                        45.7504
        31.7504
 09 10 30  1  9 30.0000000  0  9G02G08G05G10G16G21G29G07G15
   9478218.06347   7410149.82444
                  24013512.9774                                   24013508.2894
                                                                        43.5004
        27.5004
  -4370615.44547  -3336236.77045
                  22984410.3134                                   22984406.8984
                                                                        44.5004
        31.7504
 -20155718.61348 -15641508.85947
                  20579167.4144                                   20579162.8524
                                                                        50.7504
        43.5004
 -14868534.06648 -11528634.55946
                  20695135.4924                                   20695131.3874
                                                                        50.5004
        41.2504
  -8367460.35946  -6480958.98043
                  24120972.5784                                   24120967.2464
                                                                        41.7504
        22.5004
    712990.37547    602444.21944
                  23586824.2344                                   23586819.0044
                                                                        46.5004
        29.2504
  -5889470.38347  -4538488.75445
                  23136922.3524                                   23136918.4264
                                                                        47.0004
        34.5004
 -16917379.63748 -13165420.33645
                  22374283.5084                                   22374278.8634
                                                                        49.0004
        33.7504
   5815293.71147   4554349.79345
                  23657002.0474                                   23656997.9884
                                                                        45.0004
        31.7504
 09 10 30  1 10  0.0000000  0  9G02G08G05G10G16G21G29G07G15
   9500469.71147   7427488.86344
                  24017747.0084                                   24017742.4384
                                                                        42.5004
        26.5004
  -4543322.23847  -3470813.55545
                  22951544.7894                                   22951542.2384
                                                                        45.7504
        32.0004
 -20238123.43748 -15705720.24247
                  20563486.1174                                   20563481.7544
                                                                        50.0004
        43.7504
 -14923191.37148 -11571224.84846
                  20684734.7194                                   20684730.6484
                                                                        50.0004
        41.2504
  -8406327.44547  -6511245.02043
                  24113576.5474                                   24113571.0864
                                                                        43.2504
        22.2504
    526536.25847    457155.27744
                  23551343.3834                                   23551338.2664
                                                                        46.2504
        28.5004
  -5907064.88347  -4552198.94545
                  23133573.7424                                   23133570.3094
                                                                        46.2504
        34.0004
 -17008177.87948 -13236172.67645
                  22357005.5634                                   22357000.9844
                                                                        49.5004
        33.5004
   5611545.21547   4395585.59845
                  23618229.2114                                   23618226.1804
                                                                        44.0004
        31.2504
 09 10 30  1 10 30.0000000  0  9G02G08G05G10G16G21G29G07G15
   9522882.05547   7444953.06644
                  24022011.9224                                   24022007.3014
                                                                        43.7504
        26.0004
  -4715575.52747  -3605036.59845
                  22918766.1804                                   22918763.0984
                                                                        46.5004
        31.7504
 -20319978.83248 -15769503.91447
                  20547909.8754                                   20547905.5314
                                                                        51.0004
        43.2504
 -14977317.16448 -11613401.07846
                  20674434.8594                                   20674430.9064
                                                                        51.2504
        41.0004
  -8444680.35947  -6541130.44143
                  24106277.9064                                   24106273.0634
                                                                        43.0004
        23.0004
    340356.84047    312080.40645
                  23515914.8594                                   23515910.0474
                                                                        46.7504
        30.5004
  -5924235.32447  -4565579.07445
                  23130306.9924                                   23130302.8954
                                                                        46.2504
        33.5004
 -17098332.68448 -13306422.78145
                  22339849.0864                                   22339844.4884
                                                                        49.0004
        34.2504
   5408011.98047   4236988.43845
                  23579498.3054                                   23579495.1094
                                                                        44.5004
        32.0004
 09 10 30  1 11  0.0000000  0  9G02G08G05G10G16G21G29G07G15
   9545452.51647   7462540.64544
                  24026306.8134                                   24026301.7814
                                                                        44.5004
        25.2504
  -4887373.91047  -3738905.42245
                  22886074.2034                                   22886070.9184
                                                                        45.2504
        32.2504
 -20401285.52748 -15832860.41847
                  20532438.0394                                   20532434.1214
                                                                        51.2504
        43.2504
 -15030912.26248 -11655163.37946
                  20664236.0314                                   20664231.7034
                                                                        50.5004
        40.5004
  -8482521.79347  -6570617.27744
                  24099076.4454                                   24099072.1094
                                                                        43.0004
        24.2504
    154453.54347    167220.69544
                  23480538.7664                                   23480533.4414
                                                                        46.5004
        29.7504
  -5940983.61347  -4578630.03145
                  23127120.0164                                   23127115.9734
                                                                        47.5004
        34.0004
 -17187846.55148 -13376173.83645
                  22322815.3524                                   22322810.5004
                                                                        48.0004
        34.7504
   5204696.52747   4078560.85245
                  23540808.3284                                   23540805.0904
                                                                        44.5004
        32.0004
 09 10 30  1 11 30.0000000  0  9G02G08G05G10G16G21G29G07G15
   9568177.38747   7480248.03544
                  24030631.5634                                   24030626.9344
                                                                        42.5004
        24.5004
  -5058714.11747  -3872417.01245
                  22853468.6564                                   22853465.1174
                                                                        45.7504
        32.2504
 -20482040.27048 -15895785.24247
                  20517070.2424                                   20517065.7974
                                                                        50.0004
        43.5004
 -15083978.87148 -11696514.13746
                  20654137.8984                                   20654134.1524
                                                                        50.5004
        40.7504
  -8519853.68047  -6599707.07843
                  24091973.2664                                   24091968.1054
                                                                        43.5004
        23.7504
    -31170.69147     22578.48844
                  23445215.5474                                   23445210.1644
                                                                        46.2504
        29.2504
  -5957312.19547  -4591353.63345
                  23124013.1954                                   23124009.2544
                                                                        46.5004
        34.0004
 -17276718.61348 -13445424.44945
                  22305903.0554                                   22305898.4654
                                                                        48.7504
        33.7504
   5001601.54347   3920304.69945
                  23502160.7814                                   23502157.8324
                                                                        45.0004
        31.7504
 09 10 30  1 12  0.0000000  0  9G02G08G05G10G16G21G29G07G15
   9591055.80147   7498075.20344
                  24034985.1254                                   24034980.5314
                                                                        42.7504
        26.0004
  -5229594.38747  -4005570.48045
                  22820951.8754                                   22820948.1644
                                                                        45.5004
        31.5004
 -20562248.36748 -15958285.09847
                  20501807.1564                                   20501803.2274
                                                                        48.7504
        43.5004
 -15136517.00848 -11737452.54346
                  20644139.9304                                   20644136.1604
                                                                        49.5004
        40.5004
  -8556678.50447  -6628401.78144
                  24084965.5394                                   24084960.5594
                                                                        43.5004
        25.7504
   -216514.22747   -121845.00444
                  23409945.3674                                   23409940.2234
                                                                        46.0004
        28.2504
  -5973224.05947  -4603752.20345
                  23120984.4924                                   23120980.9494
                                                                        46.7504
        34.2504
 -17364951.16048 -13514177.44945
                  22289113.2894                                   22289108.7384
                                                                        49.0004
        34.0004
   4798730.40247   3762223.57045
                  23463555.4774                                   23463552.5634
                                                                        43.7504
        31.0004
 09 10 30  1 12 30.0000000  0  9G02G08G05G10G16G21G29G07G15
   9614088.10547   7516022.47744
                  24039368.1564                                   24039363.6094
                                                                        43.5004
        28.5004
  -5400008.79747  -4138360.83245
                  22788522.4224                                   22788519.1524
                                                                        45.0004
        31.7504
 -20641906.05948 -16020356.48847
                  20486649.2194                                   20486645.2544
                                                                        50.5004
        43.2504
 -15188526.20748 -11777978.87146
                  20634243.0394                                   20634239.3714
                                                                        50.7504
        41.0004
  -8592995.37947  -6656700.64844
                  24078054.6564                                   24078049.7894
                                                                        43.0004
        24.5004
   -401571.71947   -266045.59444
                  23374729.9844                                   23374724.8054
                                                                        46.7504
        28.2504
  -5988719.54347  -4615826.56645
                  23118035.7114                                   23118032.5824
                                                                        46.5004
        33.5004
 -17452538.78548 -13582427.21145
                  22272445.6254                                   22272441.2114
                                                                        49.0004
        33.5004
   4596087.15247   3604319.89545
                  23424993.6564                                   23424990.2584
                                                                        44.5004
        31.7504
 09 10 30  1 13  0.0000000  0  9G02G08G05G10G16G21G29G07G15
   9637270.52047   7534086.62144
                  24043780.1094                                   24043775.4844
                                                                        43.7504
        29.5004
  -5569955.36347  -4270786.57045
                  22756182.6954                                   22756179.1054
                                                                        45.0004
        31.0004
 -20721011.87948 -16081996.71947
                  20471595.4534                                   20471591.1604
                                                                        51.0004
        43.2504
 -15240008.39848 -11818094.75446
                  20624446.1564                                   20624442.2774
                                                                        50.5004
        41.0004
  -8628807.25047  -6684606.03543
                  24071239.9774                                   24071234.4104
                                                                        42.0004
        22.5004
   -586341.76647   -410022.26644
                  23339569.3524                                   23339564.1214
                                                                        46.5004
        29.0004
  -6003802.85547  -4627580.23845
                  23115165.9144                                   23115162.6764
                                                                        45.7504
        33.0004
 -17539484.07448 -13650176.62145
                  22255900.6414                                   22255895.8984
                                                                        48.5004
        34.0004
   4393672.97347   3446594.52345
                  23386475.9304                                   23386472.4884
                                                                        45.2504
        33.5004
 09 10 30  1 13 30.0000000  0  8G08G05G10G16G21G29G07G15
  -5739430.57447  -4402845.07445
                  22723932.6644                                   22723928.9344
                                                                        44.5004
        31.2504
 -20799568.08648 -16143209.35247
                  20456646.7664                                   20456642.3014
                                                                        49.2504
        43.5004
 -15290963.57448 -11857799.97746
                  20614749.4774                                   20614745.7154
                                                                        49.0004
        41.0004
  -8664114.66846  -6712118.31643
                  24064520.8134                                   24064516.4414
                                                                        40.7504
        22.2504
   -770820.61747   -553772.02344
                  23304464.8914                                   23304459.2194
                                                                        46.5004
        29.5004
  -6018472.83647  -4639011.37545
                  23112374.2274                                   23112370.7584
                                                                        46.0004
        33.0004
 -17625787.00048 -13717426.19145
                  22239477.6564                                   22239473.4024
                                                                        48.2504
        33.7504
   4191492.46947   3289051.53945
                  23348001.5234                                   23347998.4614
                                                                        44.5004
        33.0004
 09 10 30  1 14  0.0000000  0  8G08G05G10G16G21G29G07G15
  -5908435.31247  -4534536.86745
                  22691771.8284                                   22691768.0124
                                                                        45.2504
        31.0004
 -20877577.50848 -16203995.88747
                  20441802.1254                                   20441797.5864
                                                                        50.2504
        43.5004
 -15341396.55148 -11897098.31246
                  20605152.3754                                   20605148.6254
                                                                        50.5004
        41.0004
  -8698923.93046  -6739242.49243
                  24057896.7584                                   24057892.8524
                                                                        41.2504
        22.5004
   -955009.69947   -697295.97745
                  23269414.7114                                   23269409.5514
                                                                        46.7504
        30.5004
  -6032737.27747  -4650126.74245
                  23109660.0004                                   23109656.7344
                                                                        46.0004
        33.7504
 -17711449.20348 -13784175.76645
                  22223176.6724                                   22223172.1644
                                                                        48.7504
        34.5004
   3989543.43447   3131688.84445
                  23309571.9384                                   23309568.7934
                                                                        45.7504
        33.7504
 09 10 30  1 14 30.0000000  0  8G08G05G10G16G21G29G07G15
  -6076961.41447  -4665855.84845
                  22659702.1564                                   22659698.8984
                                                                        45.2504
        30.7504
 -20955035.04748 -16264352.43047
                  20427062.2814                                   20427058.0594
                                                                        49.7504
        43.7504
 -15391303.50048 -11935987.11346
                  20595655.4694                                   20595651.8014
                                                                        49.7504
        40.7504
  -8733230.89146  -6765975.24643
                  24051368.2664                                   24051364.1454
                                                                        41.0004
        22.7504
  -1138899.91047   -840587.03944
                  23234421.4304                                   23234416.2704
                                                                        47.0004
        29.5004
  -6046592.12947  -4660922.79745
                  23107024.2664                                   23107020.9304
                                                                        46.5004
        34.0004
 -17796466.45347 -13850423.07845
                  22206998.9454                                   22206994.8914
                                                                        47.7504
        34.0004
   3787834.72347   2974513.59045
                  23271187.5944                                   23271183.8364
                                                                        44.7504
        32.5004
 09 10 30  1 15  0.0000000  0  8G08G05G10G16G21G29G07G15
  -6244999.16047  -4796794.27045
                  22627725.5084                                   22627722.2504
                                                                        44.7504
        31.5004
 -21031933.89148 -16324273.63747
                  20412429.0164                                   20412424.5664
                                                                        50.2504
        43.5004
 -15440677.61348 -11974460.27346
                  20586259.7734                                   20586256.0984
                                                                        50.2504
        40.2504
  -8767031.09047  -6792313.08643
                  24044937.0704                                   24044932.3674
                                                                        42.0004
        21.7504
  -1322483.38347   -983639.14145
                  23199487.2814                                   23199481.6724
                                                                        47.2504
        30.5004
  -6060033.88747  -4671397.18445
                  23104466.2664                                   23104462.5394
                                                                        47.5004
        33.7504
 -17880831.26648 -13916161.61345
                  22190944.1334                                   22190939.9064
                                                                        48.0004
        34.5004
   3586374.34847   2817531.64145
                  23232850.7274                                   23232847.4844
                                                                        44.5004
        32.2504
 09 10 30  1 15 30.0000000  0  8G08G05G10G16G21G29G07G15
  -6412546.80147  -4927350.71945
                  22595842.6954                                   22595838.8204
                                                                        45.7504
        32.0004
 -21108275.32448 -16383760.48447
                  20397901.5164                                   20397897.2894
                                                                        49.0004
        43.5004
 -15489521.44148 -12012520.35546
                  20576965.1724                                   20576961.1684
                                                                        50.0004
        40.5004
  -8800327.72747  -6818258.57043
                  24038600.7424                                   24038595.7194
                                                                        42.2504
        22.0004
  -1505757.76647  -1126450.41445
                  23164610.8134                                   23164606.3404
                                                                        47.0004
        30.5004
  -6073063.83247  -4681549.97345
                  23101986.5314                                   23101982.3754
                                                                        46.5004
        32.5004
 -17964545.30548 -13981393.11745
                  22175013.8204                                   22175009.4494
                                                                        48.5004
        34.7504
   3385164.40647   2660744.84845
                  23194562.1174                                   23194558.1954
                                                                        45.2504
        31.7504
 09 10 30  1 16  0.0000000  0  8G08G05G10G16G21G29G07G15
  -6579606.20747  -5057526.76245
                  22564052.0004                                   22564048.4024
                                                                        45.7504
        32.2504
 -21184064.09848 -16442816.62547
                  20383479.4454                                   20383475.3484
                                                                        50.0004
        43.7504
 -15537840.37548 -12050171.45746
                  20567770.0554                                   20567766.3204
                                                                        50.2504
        40.5004
  -8833127.31647  -6843816.71143
                  24032359.2584                                   24032354.3324
                                                                        42.2504
        22.5004
  -1688726.73047  -1269024.42644
                  23129793.3914                                   23129788.4264
                                                                        46.5004
        29.7504
  -6085691.20347  -4691389.25845
                  23099583.4614                                   23099579.7194
                                                                        45.2504
        32.5004
 -18047613.32847 -14046121.20345
                  22159206.3674                                   22159201.9064
                                                                        47.7504
        34.5004
   3184203.29347   2504152.08645
                  23156320.3134                                   23156316.5004
                                                                        45.5004
        34.0004
 09 10 30  1 16 30.0000000  0  8G08G05G10G16G21G29G07G15
  -5170744.89847  -3959712.69145
                  22832149.5474                                   22832146.0554
                                                                        46.7504
        33.5004
 -19683873.58648 -15273836.97347
                  20668956.1254                                   20668952.1604
                                                                        49.0004
        43.0004
 -14010210.36348 -10859810.50446
                  20858468.5784                                   20858464.5354
                                                                        49.5004
        41.0004
  -7290006.09847  -5641384.60943
                  24326005.6414                                   24326000.5044
                                                                        43.0004
        21.7504
   -295954.43047   -183747.28544
                  23394829.4774                                   23394824.0004
                                                                        46.2504
        29.0004
  -4522493.35947  -3473313.09445
                  23397049.6564                                   23397046.1914
                                                                        43.5004
        32.2504
 -16554608.65648 -12882740.72345
                  22443315.4614                                   22443310.6764
                                                                        48.0004
        33.7504
   4558923.37947   3575362.50845
                  23417921.0314                                   23417917.1054
                                                                        46.0004
        34.2504
 09 10 30  1 17  0.0000000  0  8G08G05G10G16G21G29G07G15
  -5336819.16447  -4089121.18045
                  22800546.6024                                   22800543.1294
                                                                        46.0004
        33.5004
 -19758557.38748 -15332032.24647
                  20654744.4304                                   20654740.2814
                                                                        48.5004
        43.0004
 -14057482.80148 -10896646.14546
                  20849472.8594                                   20849468.7504
                                                                        49.0004
        40.7504
  -7321816.24647  -5666171.75443
                  24319952.4144                                   24319947.0554
                                                                        42.5004
        21.5004
   -478302.46947   -325837.84444
                  23360130.5474                                   23360125.6954
                                                                        46.2504
        29.7504
  -4534320.75047  -3482529.14845
                  23394799.2274                                   23394795.5354
                                                                        44.2504
        32.0004
 -16636385.02347 -12946462.55145
                  22427754.1334                                   22427749.6564
                                                                        47.5004
        34.0004
   4358466.78547   3419162.80945
                  23379774.7194                                   23379770.9144
                                                                        45.7504
        34.0004
 09 10 30  1 17 30.0000000  0  8G08G05G10G16G21G29G07G15
  -5502404.46547  -4218148.67245
                  22769036.7424                                   22769032.9064
                                                                        45.5004
        32.5004
 -19832697.07048 -15389803.55547
                  20640635.9774                                   20640631.8204
                                                                        49.0004
        42.7504
 -14104241.39548 -10933081.39146
                  20840575.0634                                   20840571.0984
                                                                        49.7504
        40.5004
  -7353143.06247  -5690582.27743
                  24313991.0084                                   24313985.7304
                                                                        42.2504
        22.0004
   -660340.15647   -467685.10245
                  23325489.6024                                   23325484.8014
                                                                        46.5004
        30.5004
  -4545760.00847  -3491442.80945
                  23392622.1174                                   23392618.9384
                                                                        43.2504
        32.2504
 -16717523.91047 -13009687.87945
                  22412314.1804                                   22412309.6644
                                                                        47.7504
        34.0004
   4158258.35947   3263156.40245
                  23341676.2664                                   23341672.2584
                                                                        45.7504
        33.2504
 09 10 30  1 18  0.0000000  0  8G08G05G10G16G21G29G07G15
  -5667500.17247  -4346794.72745
                  22737619.8594                                   22737616.4224
                                                                        46.7504
        32.7504
 -19906293.86748 -15447151.53147
                  20626631.0084                                   20626626.7274
                                                                        48.7504
        43.5004
 -14150489.87148 -10969119.52746
                  20831774.7424                                   20831770.6094
                                                                        48.7504
        40.5004
  -7383989.85947  -5714618.77043
                  24308120.9144                                   24308115.5864
                                                                        43.0004
        22.0004
   -842069.98447   -609292.47345
                  23290907.2274                                   23290902.5904
                                                                        47.0004
        30.5004
  -4556814.78147  -3500057.08245
                  23390518.9304                                   23390515.2664
                                                                        45.0004
        32.7504
 -16798026.63747 -13072417.46945
                  22396994.6804                                   22396990.3054
                                                                        47.7504
        33.2504
   3958299.07447   3107344.00445
                  23303625.5234                                   23303621.5864
                                                                        46.2504
        33.2504
 09 10 30  1 18 30.0000000  0  8G08G05G10G16G21G29G07G15
  -5832101.94547  -4475055.81245
                  22706297.1094                                   22706293.2114
                                                                        44.7504
        32.2504
 -19979347.89548 -15504076.70347
                  20612729.2424                                   20612725.3094
                                                                        50.7504
        42.7504
 -14196225.83648 -11004757.65246
                  20823071.1254                                   20823067.1564
                                                                        51.0004
        40.2504
  -7414357.66047  -5738281.96543
                  24302341.8134                                   24302336.9344
                                                                        42.5004
        22.7504
  -1023490.00047   -750659.18445
                  23256384.8364                                   23256380.1214
                                                                        47.0004
        30.0004
  -4567486.53547  -3508372.96545
                  23388488.2194                                   23388484.9884
                                                                        45.5004
        33.5004
 -16877893.11348 -13134651.45745
                  22381797.4774                                   22381792.5314
                                                                        49.0004
        33.5004
   3758592.16847   2951728.26245
                  23265622.1724                                   23265618.4774
                                                                        47.7504
        33.2504
 09 10 30  1 19  0.0000000  0  8G08G05G10G16G21G29G07G15
  -5996209.60547  -4602931.89845
                  22675068.4224                                   22675064.6524
                                                                        45.2504
        31.7504
 -20051861.85248 -15560581.34447
                  20598930.4694                                   20598926.8054
                                                                        49.7504
        42.5004
 -14241454.74648 -11040000.87946
                  20814464.3204                                   20814460.4304
                                                                        50.0004
        40.5004
  -7444250.78147  -5761575.34843
                  24296654.4304                                   24296648.8244
                                                                        42.5004
        22.7504
  -1204595.95747   -891780.21544
                  23221920.8984                                   23221916.3874
                                                                        46.2504
        29.7504
  -4577780.28947  -3516394.55545
                  23386530.0084                                   23386526.6484
                                                                        45.2504
        34.0004
 -16957125.51248 -13196391.46145
                  22366719.9454                                   22366715.9694
                                                                        48.2504
        33.5004
   3559138.54747   2796309.99645
                  23227667.3984                                   23227663.5234
                                                                        47.7504
        33.0004
 09 10 30  1 19 30.0000000  0  8G08G05G10G16G21G29G07G15
  -6159819.21947  -4730420.03545
                  22643934.6884                                   22643930.9574
                                                                        44.5004
        32.5004
 -20123833.28948 -15616662.80547
                  20585234.7114                                   20585230.6294
                                                                        49.5004
        43.0004
 -14286175.41848 -11074848.11346
                  20805954.3054                                   20805950.4304
                                                                        49.7504
        40.5004
  -7473670.00446  -5784499.42643
                  24291055.5864                                   24291050.7154
                                                                        41.0004
        22.5004
  -1385386.75847  -1032655.97745
                  23187517.8204                                   23187513.0824
                                                                        45.7504
        30.2504
  -4587695.52747  -3524120.70345
                  23384643.4224                                   23384640.2734
                                                                        46.0004
        34.2504
 -17035722.02047 -13257635.74245
                  22351763.9224                                   22351759.4844
                                                                        47.5004
        33.7504
   3359942.18447   2641092.42645
                  23189761.2734                                   23189757.5474
                                                                        47.2504
        33.5004
 09 10 30  1 20  0.0000000  0  8G08G05G10G16G21G29G07G15
  -6322930.26647  -4857519.56645
                  22612895.6094                                   22612891.7704
                                                                        45.5004
        32.5004
 -20195266.10548 -15672324.62947
                  20571641.6024                                   20571636.8794
                                                                        49.5004
        43.0004
 -14330392.33648 -11109302.82046
                  20797539.9924                                   20797535.9104
                                                                        50.0004
        40.2504
  -7502619.61346  -5807057.59843
                  24285546.1724                                   24285541.5744
                                                                        41.0004
        22.5004
  -1565861.64547  -1173285.71945
                  23153174.1804                                   23153169.3134
                                                                        46.2504
        30.5004
  -4597238.78547  -3531557.36745
                  23382827.5944                                   23382824.3324
                                                                        44.0004
        33.5004
 -17113686.44147 -13318387.73845
                  22336928.0554                                   22336924.9884
                                                                        47.7504
        34.0004
   3161002.42647   2486074.61345
                  23151904.4614                                   23151900.0634
                                                                        47.5004
        34.2504
 09 10 30  1 20 30.0000000  0  8G08G05G10G16G21G29G07G15
  -6485546.66047  -4984233.60945
                  22581950.8524                                   22581947.0944
                                                                        45.7504
        33.2504
 -20266167.23848 -15727572.21547
                  20558149.4454                                   20558144.7274
                                                                        49.0004
        42.7504
 -14374112.63348 -11143370.60546
                  20789220.2114                                   20789216.3834
                                                                        50.0004
        39.7504
  -7531108.71146  -5829257.00443
                  24280124.4694                                   24280120.9024
                                                                        40.5004
        22.2504
  -1746025.51247  -1313673.29345
                  23118890.4694                                   23118885.3594
                                                                        46.0004
        30.5004
  -4606417.78147  -3538709.87145
                  23381080.6484                                   23381077.6454
                                                                        44.2504
        32.0004
 -17191022.00048 -13378647.87545
                  22322210.9144                                   22322206.3204
                                                                        48.0004
        34.2504
   2962316.03547   2331254.52045
                  23114094.9224                                   23114091.1294
                                                                        47.2504
        34.5004
