     2.11           OBSERVATION DATA    G (GPS)             RINEX VERSION / TYPE
teqc  2019Feb25                         20221121 12:28:51UTCPGM / RUN BY / DATE
OSX ker:10.11.6|Core i5|gcc 4.3 -m64|OSX ker:10.10+|=+      COMMENT
BIT 2 OF LLI FLAGS DATA COLLECTED UNDER A/S CONDITION       COMMENT
04713021                                                    MARKER NAME
3021                                                        MARKER NUMBER
-Unknown-           -Unknown-                               OBSERVER / AGENCY
0220400471          TRIMBLE R7          2.30                REC # / TYPE / VERS
-Unknown-           TRM39105.00     NONE                    ANT # / TYPE
  1449458.0983 -1709244.0820  5952441.0680                  APPROX POSITION XYZ
        0.0000        0.0000        0.0000                  ANTENNA: DELTA H/E/N
     1     1                                                WAVELENGTH FACT L1/2
    20    L1    L2    L5    L6    L7    L8    C1    P1    C2# / TYPES OF OBSERV
          P2    C5    C6    C7    C8    S1    S2    S5    S6# / TYPES OF OBSERV
          S7    S8                                          # / TYPES OF OBSERV
    30.0000                                                 INTERVAL
    15                                                      LEAP SECONDS
Forced Modulo Decimation to 30 seconds                      COMMENT
 SNR is mapped to RINEX snr flag value [0-9]                COMMENT
  L1 & L2: min(max(int(snr_dBHz/6), 0), 9)                  COMMENT
teqc edited: Beidou # 1 - 37 excluded                       COMMENT
  2009    10    29    23    11   30.0000000     GPS         TIME OF FIRST OBS
                                                            END OF HEADER
 09 10 29 23 11 30.0000000  0  7G02G04G05G10G13G23G29
   -112138.95758    -62849.85257
                  20389769.6954                                   20389763.2934
                                                                        53.2504
        43.0004
      1000.48457      -494.12156
                  22194327.0784                                   22194323.4304
                                                                        47.5004
        36.5004
   -289277.73058   -161599.14556
                  22560871.6414                                   22560867.4184
                                                                        48.7504
        37.0004
   -271871.98058   -154612.84856
                  21674033.9064                                   21674030.4964
                                                                        48.7504
        38.0004
   -131099.98058    -73037.44156
                  21117068.7734                                   21117063.6684
                                                                        50.0004
        37.0004
    -20319.97757    -12198.43755
                  22761939.1884                                   22761932.1724
                                                                        46.7504
        30.0004
   -227204.18457   -126334.96955
                  22415662.3984                                   22415658.8134
                                                                        47.7504
        34.7504
 09 10 29 23 12  0.0000000  0  7G02G04G05G10G13G23G29
   -188716.25048   -122520.40247
                  20375197.7194                                   20375191.0554
                                                                        53.5004
        43.0004
     -1779.32048     -2660.20746
                  22193798.2424                                   22193794.4804
                                                                        48.5004
        36.0004
   -482312.16448   -312015.50846
                  22524138.5234                                   22524133.9264
                                                                        48.0004
        36.7504
   -453354.01248   -296027.34046
                  21639498.8834                                   21639495.1484
                                                                        48.0004
        38.0004
   -219634.51648   -142025.40646
                  21100220.8834                                   21100216.3164
                                                                        49.2504
        36.7504
    -36869.48047    -25094.23445
                  22758789.7894                                   22758783.8324
                                                                        46.5004
        30.5004
   -379271.57447   -244829.04346
                  22386724.8524                                   22386721.2624
                                                                        46.0004
        36.0004
 09 10 29 23 12 30.0000000  0  7G02G04G05G10G13G23G29
   -265542.80948   -182385.19947
                  20360578.1334                                   20360571.9614
                                                                        52.7504
        42.7504
     -5066.43048     -5221.66845
                  22193172.8914                                   22193169.3634
                                                                        49.5004
        35.5004
   -675893.20348   -462857.82846
                  22487301.0084                                   22487296.7384
                                                                        48.2504
        36.7504
   -635269.94548   -437779.96146
                  21604881.6094                                   21604878.2074
                                                                        48.7504
        37.7504
   -308334.04748   -211141.92646
                  21083342.1174                                   21083337.1214
                                                                        50.5004
        37.2504
    -53813.89147    -38297.54344
                  22755565.2274                                   22755558.6994
                                                                        46.0004
        29.2504
   -531656.44148   -363570.60945
                  22357726.6804                                   22357723.7384
                                                                        48.0004
        35.5004
 09 10 29 23 13  0.0000000  0  7G02G04G05G10G13G23G29
   1233147.71948    985425.58647
                  20645769.2504                                   20645762.8954
                                                                        52.0004
        42.7504
   1566901.96148   1219688.71945
                  22492308.6804                                   22492304.9024
                                                                        48.0004
        35.2504
    705751.44548    613748.31646
                  22750219.3914                                   22750215.2074
                                                                        48.0004
        37.5004
    758152.77748    648004.00846
                  21870040.8754                                   21870037.3204
                                                                        49.0004
        38.5004
   1178568.33248    947483.26646
                  21366290.2734                                   21366285.3444
                                                                        50.5004
        36.5004
   1504608.52047   1176057.64144
                  23052123.0634                                   23052116.1684
                                                                        45.7504
        28.0004
    891412.69947    745314.48845
                  22628527.7974                                   22628524.1294
                                                                        47.5004
        35.5004
 09 10 29 23 13 30.0000000  0  7G02G04G05G10G13G23G29
   1156657.98048    925823.20347
                  20631213.9304                                   20631207.5664
                                                                        53.2504
        43.0004
   1563431.34048   1216984.20345
                  22491648.2814                                   22491644.6134
                                                                        48.0004
        34.5004
    511918.60547    462709.56346
                  22713334.2034                                   22713330.1294
                                                                        47.7504
        36.5004
    576212.30148    506232.28946
                  21835418.9924                                   21835415.0354
                                                                        49.5004
        38.0004
   1090374.58648    878760.87946
                  21349507.6484                                   21349502.7464
                                                                        50.5004
        36.5004
   1487702.04747   1162883.74644
                  23048905.5234                                   23048898.7304
                                                                        45.7504
        27.5004
    739235.56347    626734.93445
                  22599569.6954                                   22599566.1954
                                                                        47.0004
        35.7504
 09 10 29 23 14  0.0000000  0  7G02G04G05G10G13G23G29
   1080510.68448    866487.50447
                  20616723.5634                                   20616717.2074
                                                                        52.5004
        42.5004
   1560041.07047   1214342.50445
                  22491002.6564                                   22490999.1024
                                                                        47.2504
        34.2504
    318138.10547    311711.54346
                  22676459.0944                                   22676454.9304
                                                                        47.7504
        36.7504
    394437.53148    364589.74646
                  21800828.0554                                   21800823.8554
                                                                        49.7504
        38.0004
   1002607.79348    810371.15246
                  21332806.0864                                   21332801.3714
                                                                        51.0004
        36.7504
   1470985.74247   1149857.90644
                  23045725.3444                                   23045718.3134
                                                                        45.0004
        27.5004
    587340.43047    508375.23846
                  22570664.4224                                   22570660.7234
                                                                        47.5004
        36.0004
 09 10 29 23 14 30.0000000  0  7G02G04G05G10G13G23G29
   1004757.34048    807458.85547
                  20602308.1334                                   20602301.9304
                                                                        52.0004
        42.5004
   1556780.14847   1211801.57445
                  22490382.1024                                   22490378.8484
                                                                        47.7504
        34.5004
    124463.59447    160796.23446
                  22639604.2194                                   22639600.3714
                                                                        47.0004
        37.2504
    212881.72348    223117.82446
                  21766279.0474                                   21766274.8834
                                                                        49.7504
        38.0004
    915319.02748    742353.89546
                  21316195.2344                                   21316190.4384
                                                                        51.7504
        37.5004
   1454508.58247   1137018.34044
                  23042589.8204                                   23042582.9884
                                                                        45.0004
        28.5004
    435780.00447    390276.30946
                  22541823.6024                                   22541819.7114
                                                                        47.5004
        36.0004
 09 10 29 23 15  0.0000000  0  7G02G04G05G10G13G23G29
    929441.04348    748770.77747
                  20587976.0944                                   20587969.5204
                                                                        51.2504
        43.2504
   1553690.23447   1209393.90245
                  22489794.4224                                   22489790.5234
                                                                        47.0004
        34.5004
    -69059.58247      9998.94946
                  22602777.9534                                   22602773.6524
                                                                        46.2504
        37.2504
     31590.40648     81851.93446
                  21731780.6094                                   21731776.8484
                                                                        50.0004
        38.2504
    828551.67248    674742.94146
                  21299684.2034                                   21299679.6374
                                                                        51.7504
        36.5004
   1438312.18447   1124397.66044
                  23039507.6024                                   23039501.2274
                                                                        44.7504
        28.7504
    284599.89848    272473.61746
                  22513055.2664                                   22513051.4734
                                                                        48.0004
        36.5004
 09 10 29 23 15 30.0000000  0  7G02G04G05G10G13G23G29
    854588.48048    690444.05547
                  20573732.0234                                   20573725.8284
                                                                        52.0004
        43.2504
   1550796.02347   1207138.75445
                  22489243.8364                                   22489239.6764
                                                                        47.2504
        34.5004
   -262402.57848   -140657.87546
                  22565986.0704                                   22565982.0554
                                                                        49.0004
        38.0004
   -149407.78148    -59185.74246
                  21697337.7424                                   21697333.2034
                                                                        50.2504
        38.5004
    742331.41448    607558.32846
                  21283276.8594                                   21283272.4654
                                                                        51.5004
        36.7504
   1422420.19947   1112014.10244
                  23036483.7504                                   23036477.4734
                                                                        45.0004
        28.2504
    133828.86347    154989.76246
                  22484364.3054                                   22484360.7234
                                                                        47.5004
        36.5004
 09 10 29 23 16  0.0000000  0  7G02G04G05G10G13G23G29
    780225.95748    632499.28547
                  20559581.2034                                   20559575.0164
                                                                        52.7504
        43.2504
   1548121.90647   1205055.02745
                  22488734.6094                                   22488731.0984
                                                                        47.0004
        34.2504
   -455536.74648   -291151.94146
                  22529233.6024                                   22529229.9104
                                                                        49.2504
        38.0004
   -330083.90648   -199972.50446
                  21662956.0864                                   21662952.3134
                                                                        50.5004
        38.7504
    656684.37148    540820.32446
                  21266979.0314                                   21266974.1214
                                                                        51.7504
        36.7504
   1406857.35947   1099887.09844
                  23033522.8444                                   23033516.0234
                                                                        45.0004
        29.7504
    -16504.33647     37847.10246
                  22455756.7194                                   22455753.2664
                                                                        47.2504
        36.0004
 09 10 29 23 16 30.0000000  0  7G02G04G05G10G13G23G29
    706371.50048    574950.35947
                  20545527.1414                                   20545520.6994
                                                                        53.0004
        42.7504
   1545685.18447   1203156.30145
                  22488270.6804                                   22488267.4774
                                                                        46.7504
        34.5004
   -648441.45348   -441467.27746
                  22492525.1644                                   22492521.4184
                                                                        49.0004
        37.7504
   -510417.10948   -340492.06246
                  21628640.2194                                   21628636.2854
                                                                        49.7504
        38.7504
    571629.56348    474543.82046
                  21250793.7114                                   21250789.1884
                                                                        51.0004
        36.7504
   1391640.53547   1088029.87544
                  23030626.6954                                   23030620.3984
                                                                        44.2504
        28.5004
   -166379.25447    -78938.39846
                  22427236.1724                                   22427232.6294
                                                                        47.7504
        36.0004
 09 10 29 23 17  0.0000000  0  7G02G04G05G10G13G23G29
    633043.07848    517811.34847
                  20531573.4694                                   20531567.2504
                                                                        52.7504
        43.0004
   1543501.46147   1201454.67645
                  22487855.2584                                   22487852.0634
                                                                        47.7504
        34.5004
   -841096.22748   -591587.81646
                  22455863.8754                                   22455859.9384
                                                                        48.2504
        37.5004
   -690387.25448   -480728.68446
                  21594392.8834                                   21594388.9454
                                                                        49.7504
        38.2504
    487183.94948    408742.02346
                  21234724.2504                                   21234719.4694
                                                                        50.5004
        37.2504
   1376784.70747   1076453.97744
                  23027799.4694                                   23027793.1334
                                                                        43.5004
        28.5004
   -315775.89847   -195351.28546
                  22398806.7734                                   22398803.3204
                                                                        47.0004
        36.2504
 09 10 29 23 17 30.0000000  0  7G02G04G05G10G13G23G29
    560252.00448    461091.03147
                  20517721.5474                                   20517715.6294
                                                                        52.2504
        43.0004
   1541580.40248   1199957.70345
                  22487489.9774                                   22487485.9534
                                                                        48.0004
        34.7504
  -1033487.68048   -741503.19946
                  22419253.0164                                   22419249.1484
                                                                        50.0004
        36.7504
   -869980.71148   -620671.71146
                  21560217.8134                                   21560214.1054
                                                                        50.0004
        38.5004
    403358.69548    343423.60946
                  21218772.7034                                   21218768.0634
                                                                        50.7504
        37.2504
   1362298.87147   1065166.25044
                  23025042.7424                                   23025036.7074
                                                                        42.5004
        28.5004
   -464680.71947   -311381.06245
                  22370471.2894                                   22370467.9414
                                                                        47.5004
        35.5004
 09 10 29 23 18  0.0000000  0  7G02G04G05G10G13G23G29
    488012.63748    404800.80947
                  20503974.4614                                   20503968.2274
                                                                        52.5004
        42.5004
   1539934.87947   1198675.44145
                  22487176.9224                                   22487172.7814
                                                                        47.5004
        33.7504
  -1225599.35548   -891200.60246
                  22382696.0704                                   22382691.6414
                                                                        49.5004
        37.7504
  -1049180.21548   -760307.62546
                  21526116.9774                                   21526113.2344
                                                                        49.5004
        38.7504
    320167.97748    278599.64846
                  21202942.0084                                   21202937.2774
                                                                        51.0004
        37.0004
   1348195.75047   1054176.88344
                  23022358.8524                                   23022352.8714
                                                                        43.7504
        27.7504
   -613077.07047   -427014.58246
                  22342232.1884                                   22342228.9574
                                                                        47.5004
        36.5004
 09 10 29 23 18 30.0000000  0  7G02G04G05G10G13G23G29
    416341.77348    348953.50047
                  20490336.0864                                   20490330.0984
                                                                        53.0004
        42.5004
   1538580.80547   1197620.31645
                  22486919.2504                                   22486915.3914
                                                                        46.7504
        34.0004
  -1417411.32848  -1040664.43446
                  22346194.8594                                   22346190.6484
                                                                        49.0004
        37.5004
  -1227966.82848   -899621.80546
                  21492095.0704                                   21492090.9224
                                                                        49.7504
        38.5004
    237628.84048    214283.39846
                  21187235.4144                                   21187230.8834
                                                                        51.0004
        37.0004
   1334489.74647   1043496.72744
                  23019750.9454                                   23019744.6054
                                                                        43.5004
        26.5004
   -760945.70347   -542236.86346
                  22314094.0474                                   22314090.6414
                                                                        47.5004
        36.5004
 09 10 29 23 19  0.0000000  0  7G02G04G05G10G13G23G29
    345241.57848    293550.57047
                  20476806.1254                                   20476800.3794
                                                                        51.7504
        42.7504
   1537518.50047   1196792.51645
                  22486716.6804                                   22486713.4654
                                                                        46.7504
        33.5004
  -1608918.36748  -1189890.68446
                  22309752.3834                                   22309748.2034
                                                                        49.0004
        37.5004
  -1406335.27048  -1038610.12146
                  21458152.6094                                   21458148.8794
                                                                        49.2504
        39.0004
    155743.14548    150476.33646
                  21171652.9774                                   21171648.7734
                                                                        51.0004
        37.0004
   1321181.93447   1033127.01244
                  23017218.8364                                   23017211.9734
                                                                        43.0004
        27.5004
   -908281.01247   -657043.61346
                  22286056.7894                                   22286053.2344
                                                                        46.2504
        37.0004
 09 10 29 23 19 30.0000000  0  7G02G04G05G10G13G23G29
    274715.76648    238595.35947
                  20463385.6414                                   20463379.1254
                                                                        52.5004
        42.5004
   1536749.82047   1196193.55545
                  22486570.5314                                   22486566.7854
                                                                        47.5004
        33.0004
  -1800115.59848  -1338875.52046
                  22273368.6414                                   22273364.4774
                                                                        48.7504
        38.0004
  -1584280.24648  -1177268.52346
                  21424290.4694                                   21424286.5904
                                                                        50.5004
        38.0004
     74514.33648     87181.19146
                  21156195.7504                                   21156191.3324
                                                                        51.0004
        36.7504
   1308273.55147   1023068.60944
                  23014762.5704                                   23014756.1174
                                                                        43.5004
        27.5004
  -1055078.98848   -771431.65646
                  22258122.3524                                   22258118.9804
                                                                        48.5004
        36.7504
 09 10 29 23 20  0.0000000  0  7G02G04G05G10G13G23G29
    204768.97748    184091.29747
                  20450075.3754                                   20450069.0394
                                                                        52.0004
        42.7504
   1536277.94147   1195825.83245
                  22486481.0084                                   22486477.1374
                                                                        47.5004
        33.0004
  -1990995.25848  -1487612.96146
                  22237045.6254                                   22237041.3524
                                                                        48.5004
        38.0004
  -1761794.31248  -1315591.15646
                  21390510.7894                                   21390506.6914
                                                                        50.0004
        38.2504
     -6053.27348     24401.23846
                  21140864.2344                                   21140859.8714
                                                                        51.0004
        36.5004
   1295767.35547   1013323.63344
                  23012382.6484                                   23012376.0084
                                                                        43.5004
        28.0004
  -1201331.85248   -885394.92646
                  22230291.5784                                   22230287.5554
                                                                        48.5004
        37.2504
 09 10 29 23 20 30.0000000  0  7G02G04G05G10G13G23G29
    135408.06348    130043.77747
                  20436876.4844                                   20436870.3054
                                                                        51.2504
        42.7504
   1536108.16847   1195693.52345
                  22486448.6804                                   22486445.0664
                                                                        47.7504
        33.2504
  -2181547.46548  -1636095.17246
                  22200784.5864                                   22200780.4884
                                                                        48.0004
        37.7504
  -1938868.30548  -1453570.87946
                  21356814.8754                                   21356810.7854
                                                                        50.2504
        39.0004
    -85953.12148    -37858.35946
                  21125659.8444                                   21125655.1844
                                                                        51.0004
        36.7504
   1283667.71947   1003895.22344
                  23010079.7584                                   23010074.2814
                                                                        44.0004
        27.5004
  -1347030.09848   -998925.98046
                  22202565.6954                                   22202562.1844
                                                                        48.0004
        37.5004
 09 10 29 23 21  0.0000000  0  7G02G04G05G10G13G23G29
   1642061.01248   1304058.99647
                  20723583.0234                                   20723576.8674
                                                                        52.5004
        42.7504
   3111665.05548   2423400.19145
                  22786267.4384                                   22786263.3014
                                                                        48.0004
        33.0004
   -796338.48848   -556711.53146
                  22464381.2814                                   22464376.9414
                                                                        48.5004
        38.2504
   -540067.88348   -363596.50846
                  21622997.4534                                   21622993.6564
                                                                        50.0004
        39.0004
   1410243.06348   1128008.79746
                  21410376.3594                                   21410372.1804
                                                                        51.5004
        36.7504
   2847398.96547   2222387.02044
                  23307648.0314                                   23307642.0164
                                                                        44.2504
        28.0004
     83259.01248    115585.13346
                  22474740.5474                                   22474737.1024
                                                                        48.5004
        36.0004
 09 10 29 23 21 30.0000000  0  8G02G04G05G10G13G16G23G29
   1573888.31348   1250937.39847
                  20710610.1804                                   20710603.9064
                                                                        51.7504
        42.7504
   3112111.78147   2423748.28945
                  22786352.0944                                   22786348.7504
                                                                        47.7504
        34.0004
   -986213.35247   -704665.96146
                  22428249.0784                                   22428245.2424
                                                                        47.7504
        38.2504
   -716237.71548   -500871.75846
                  21589473.5164                                   21589470.1954
                                                                        50.0004
        38.5004
   1331694.65648   1066802.27046
                  21395429.0704                                   21395424.1644
                                                                        51.0004
        36.7504
   2939059.03556   2329313.94153
                  24473777.8364                                   24473773.1914
                                                                        38.5004
        18.5004
   2836123.68847   2213600.94944
                  23305502.2974                                   23305496.1724
                                                                        43.0004
        26.7504
    -61307.44948      2935.93446
                  22447230.6094                                   22447226.7304
                                                                        49.0004
        36.0004
 09 10 29 23 22  0.0000000  0  8G02G04G05G10G13G16G23G29
   1506307.82848   1198277.26647
                  20697750.0864                                   20697744.0944
                                                                        52.0004
        42.7504
   3112862.46948   2424333.17245
                  22786495.1804                                   22786491.3954
                                                                        48.0004
        34.0004
  -1175747.12148   -852354.59046
                  22392181.8134                                   22392177.6214
                                                                        48.7504
        38.0004
   -891953.64548   -637793.31646
                  21556036.0394                                   21556032.3834
                                                                        50.7504
        38.5004
   1253819.82448   1006120.62146
                  21380610.1024                                   21380605.3014
                                                                        51.0004
        36.7504
   2772417.43846   2199463.14143
                  24442067.3364                                   24442063.3754
                                                                        38.5004
        19.2504
   2825255.98847   2205132.56644
                  23303434.9064                                   23303428.4964
                                                                        44.5004
        27.5004
   -205306.64548   -109271.23046
                  22419828.3524                                   22419824.7504
                                                                        49.0004
        36.0004
 09 10 29 23 22 30.0000000  0  8G02G04G05G10G13G16G23G29
   1439312.77048   1146073.32847
                  20685001.2194                                   20684995.2074
                                                                        51.5004
        42.7504
   3113909.10548   2425148.64845
                  22786694.4534                                   22786690.3634
                                                                        48.0004
        33.0004
  -1364943.83648   -999780.52746
                  22356179.0394                                   22356174.9454
                                                                        49.0004
        38.2504
  -1067219.40648   -774364.02046
                  21522684.0394                                   21522680.3324
                                                                        50.7504
        38.7504
   1176611.27748    945958.12546
                  21365917.9454                                   21365913.1484
                                                                        50.2504
        36.0004
   2606250.40246   2069982.25443
                  24410447.2194                                   24410442.6804
                                                                        40.2504
        20.5004
   2814787.19147   2196975.09044
                  23301442.6484                                   23301436.0234
                                                                        45.0004
        28.0004
   -348742.68048   -221039.56646
                  22392533.3834                                   22392529.8524
                                                                        48.5004
        36.5004
 09 10 29 23 23  0.0000000  0  8G02G04G05G10G13G16G23G29
   1372906.96548   1094328.53947
                  20672364.7194                                   20672358.4384
                                                                        51.2504
        42.5004
   3115254.17247   2426196.71545
                  22786950.2504                                   22786946.2234
                                                                        47.7504
        33.0004
  -1553797.17248  -1146938.91446
                  22320241.3674                                   22320236.8714
                                                                        48.7504
        38.5004
  -1242028.43748   -910578.86746
                  21489419.1254                                   21489415.0084
                                                                        50.0004
        38.7504
   1100072.80548    886317.73846
                  21351352.7734                                   21351348.1484
                                                                        50.7504
        36.0004
   2440564.82046   1940876.65643
                  24378919.1804                                   24378914.1764
                                                                        41.5004
        22.5004
   2804719.06647   2189129.84444
                  23299526.9924                                   23299520.4024
                                                                        44.7504
        27.2504
   -491608.89847   -332363.78546
                  22365346.7424                                   22365343.2274
                                                                        47.5004
        36.0004
 09 10 29 23 23 30.0000000  0  8G02G04G05G10G13G16G23G29
   1307097.21148   1043048.25847
                  20659841.5314                                   20659835.3874
                                                                        52.2504
        42.5004
   3116902.75048   2427481.24245
                  22787263.5234                                   22787260.5354
                                                                        48.0004
        33.0004
  -1742298.74648  -1293823.34046
                  22284370.9454                                   22284366.1214
                                                                        49.2504
        38.5004
  -1416372.26648  -1046431.19146
                  21456242.2114                                   21456238.5354
                                                                        50.7504
        39.2504
   1024210.74648    827204.41046
                  21336916.6254                                   21336912.2234
                                                                        50.2504
        36.5004
   2275369.26247   1812152.68443
                  24347483.2424                                   24347478.4574
                                                                        42.5004
        22.5004
   2795056.06347   2181600.20344
                  23297687.8754                                   23297681.5784
                                                                        44.5004
        26.7504
   -633897.53548   -443238.04746
                  22338270.1174                                   22338266.5004
                                                                        49.2504
        36.7504
 09 10 29 23 24  0.0000000  0  8G02G04G05G10G13G16G23G29
   1241893.35948    992240.08247
                  20647433.4384                                   20647427.3794
                                                                        52.5004
        42.0004
   3118863.73448   2429009.29745
                  22787637.1254                                   22787633.4924
                                                                        48.0004
        33.0004
  -1930435.18048  -1440423.15246
                  22248569.1724                                   22248565.1134
                                                                        48.7504
        38.2504
  -1590237.96148  -1181910.91046
                  21423156.9614                                   21423152.9264
                                                                        50.0004
        39.2504
    949034.77048    768625.71146
                  21322611.3204                                   21322606.9224
                                                                        50.5004
        37.0004
   2110678.50047   1683822.52743
                  24316142.9224                                   24316138.6604
                                                                        42.5004
        22.2504
   2785806.39847   2174392.73044
                  23295927.5944                                   23295920.7624
                                                                        44.7504
        26.7504
   -775595.62548   -553652.06246
                  22311305.9924                                   22311302.5314
                                                                        48.0004
        36.0004
 09 10 29 23 24 30.0000000  0  8G02G04G05G10G13G16G23G29
   1177289.02348    941899.01647
                  20635139.6414                                   20635133.4614
                                                                        52.2504
        42.5004
   3121129.46548   2430774.84045
                  22788068.2504                                   22788064.8594
                                                                        48.7504
        33.0004
  -2118209.73048  -1586741.03546
                  22212837.0864                                   22212832.9844
                                                                        49.5004
        38.2504
  -1763629.07448  -1317020.81246
                  21390161.8364                                   21390157.8364
                                                                        50.7504
        39.0004
    874538.37148    710576.54746
                  21308435.2424                                   21308430.9734
                                                                        51.0004
        36.0004
   1946487.96947   1555881.93843
                  24284898.0164                                   24284894.1174
                                                                        42.0004
        22.5004
   2776962.82447   2167501.69944
                  23294244.9144                                   23294237.9184
                                                                        44.2504
        26.5004
   -916706.85947   -663608.79346
                  22284453.4454                                   22284449.6334
                                                                        47.7504
        36.7504
 09 10 29 23 25  0.0000000  0  8G02G04G05G10G13G16G23G29
   1113290.32848    892029.84847
                  20622961.4144                                   20622955.0314
                                                                        52.7504
        42.5004
   3123704.10548   2432781.02345
                  22788557.9924                                   22788554.7034
                                                                        48.2504
        33.2504
  -2305614.35948  -1732770.74246
                  22177175.1564                                   22177171.6334
                                                                        50.0004
        38.7504
  -1936537.41048  -1451754.57046
                  21357257.9694                                   21357254.4734
                                                                        50.7504
        39.5004
    800727.31348    653061.43446
                  21294389.6254                                   21294384.6294
                                                                        51.0004
        36.2504
   1782806.54346   1428337.90643
                  24253750.4224                                   24253747.0434
                                                                        41.5004
        22.0004
   2768528.86347   2160929.67644
                  23292639.7814                                   23292633.8674
                                                                        43.7504
        26.0004
  -1057223.34448   -773102.05146
                  22257713.6644                                   22257710.1724
                                                                        48.5004
        37.0004
 09 10 29 23 25 30.0000000  0  8G02G04G05G10G13G16G23G29
   1049902.92248    842637.00847
                  20610899.2034                                   20610893.2854
                                                                        52.5004
        42.5004
   3126592.18448   2435031.46945
                  22789108.0474                                   22789104.2974
                                                                        49.0004
        33.0004
  -2492640.11348  -1878505.00846
                  22141585.4534                                   22141581.6684
                                                                        50.5004
        39.5004
  -2108954.68048  -1586105.67246
                  21324448.2974                                   21324444.8794
                                                                        50.0004
        39.0004
    727606.98848    596084.45346
                  21280475.3204                                   21280470.5354
                                                                        51.0004
        36.2504
   1619643.75046   1301197.97343
                  24222701.6334                                   24222697.4884
                                                                        40.5004
        21.2504
   2760507.83647   2154679.46144
                  23291113.5944                                   23291107.1094
                                                                        44.5004
        25.5004
  -1197137.16448   -882125.73046
                  22231088.6884                                   22231085.7424
                                                                        48.0004
        37.2504
 09 10 29 23 26  0.0000000  0  8G02G04G05G10G13G16G23G29
    987125.67648    793719.68047
                  20598953.0084                                   20598946.7424
                                                                        52.0004
        42.0004
   3129791.50848   2437524.48445
                  22789716.6174                                   22789712.9494
                                                                        48.5004
        33.0004
  -2679286.24248  -2023943.48446
                  22106067.8754                                   22106063.8594
                                                                        49.7504
        39.2504
  -2280879.61348  -1720073.21146
                  21291732.0554                                   21291728.1454
                                                                        49.2504
        39.0004
    655176.24248    539644.87545
                  21266692.0704                                   21266687.4694
                                                                        51.0004
        35.5004
   1457001.29346   1174463.54743
                  24191751.6334                                   24191747.9804
                                                                        39.2504
        19.7504
   2752897.00847   2148748.78144
                  23289665.5944                                   23289659.1764
                                                                        45.0004
        28.0004
  -1336447.32047   -990678.97746
                  22204578.7894                                   22204575.2274
                                                                        46.5004
        36.5004
 09 10 29 23 26 30.0000000  0  8G02G04G05G10G13G16G23G29
    924958.40648    745277.59847
                  20587122.9614                                   20587116.9494
                                                                        52.5004
        42.2504
   3133300.08647   2440258.36345
                  22790383.9144                                   22790380.4024
                                                                        47.7504
        32.5004
  -2865549.81248  -2169083.82846
                  22070623.1024                                   22070619.0004
                                                                        50.7504
        39.5004
  -2452309.25848  -1853654.74246
                  21259110.2664                                   21259106.2854
                                                                        50.5004
        39.2504
    583434.27348    483742.03946
                  21253039.8524                                   21253035.6174
                                                                        50.2504
        36.2504
   1294881.96946   1048136.67243
                  24160901.6644                                   24160897.1954
                                                                        40.5004
        19.7504
   2745694.80547   2143136.62944
                  23288295.0704                                   23288289.0594
                                                                        45.2504
        28.5004
  -1475151.35547  -1098759.90246
                  22178184.3914                                   22178180.7934
                                                                        47.5004
        36.7504
 09 10 29 23 27  0.0000000  0  9G02G04G05G10G13G16G23G29G07
    863403.35548    697312.61347
                  20575409.5554                                   20575403.3984
                                                                        52.7504
        42.7504
   3137119.16047   2443234.24645
                  22791111.2034                                   22791107.4144
                                                                        47.7504
        31.7504
  -3051425.57848  -2313921.95746
                  22035251.9454                                   22035248.0394
                                                                        50.0004
        38.5004
  -2623238.65648  -1986846.41046
                  21226583.3134                                   21226579.4064
                                                                        51.2504
        39.2504
    512382.76648    428377.18846
                  21239519.3204                                   21239514.6454
                                                                        51.0004
        36.0004
   1133291.74246    922222.04343
                  24130152.8444                                   24130147.5864
                                                                        40.0004
        19.7504
   2738901.71147   2137843.18444
                  23287002.1884                                   23286996.1884
                                                                        45.5004
        26.0004
  -1613244.23848  -1206364.61346
                  22151906.0474                                   22151902.1994
                                                                        48.7504
        37.5004
   2903581.34456   2278021.16453
                  24347334.3054                                   24347330.5164
                                                                        39.5004
        22.5004
 09 10 29 23 27 30.0000000  0  9G02G04G05G10G13G16G23G29G07
    802455.30548    649820.75847
                  20563811.5474                                   20563805.3164
                                                                        53.5004
        42.5004
   3141242.27747   2446447.01645
                  22791895.4774                                   22791892.2624
                                                                        47.5004
        32.5004
  -3236916.37148  -2458460.09846
                  21999954.0634                                   21999949.7304
                                                                        50.5004
        39.0004
  -2793670.89548  -2119650.71546
                  21194151.1174                                   21194147.1724
                                                                        50.0004
        39.5004
    442016.69948    373546.49246
                  21226128.9224                                   21226124.7384
                                                                        50.7504
        36.2504
    972228.16046    796717.84843
                  24099503.6954                                   24099498.2424
                                                                        39.7504
        20.0004
   2732510.03147   2132862.42644
                  23285786.7344                                   23285780.2664
                                                                        44.2504
        27.0004
  -1750729.70348  -1313496.12546
                  22125743.5394                                   22125739.2854
                                                                        48.7504
        37.0004
   2706707.46146   2124613.12143
                  24309870.3914                                   24309866.3634
                                                                        40.0004
        21.7504
 09 10 29 23 28  0.0000000  0  9G02G04G05G10G13G16G23G29G07
    742101.48848    602791.93847
                  20552326.0164                                   20552320.3014
                                                                        52.2504
        42.2504
   3145655.30547   2449885.73845
                  22792735.3284                                   22792731.8634
                                                                        47.2504
        33.0004
  -3422032.72748  -2602706.54346
                  21964727.7034                                   21964723.5784
                                                                        50.5004
        39.2504
  -2963616.03548  -2252075.38746
                  21161811.5314                                   21161808.1884
                                                                        51.0004
        40.5004
    372322.86348    319239.62946
                  21212866.9694                                   21212862.7114
                                                                        50.2504
        36.2504
    811681.77746    671616.85543
                  24068952.3674                                   24068947.2464
                                                                        41.2504
        19.7504
   2726506.17647   2128184.07444
                  23284643.1174                                   23284637.4774
                                                                        44.0004
        24.5004
  -1887618.25448  -1420162.49246
                  22099694.2344                                   22099690.6094
                                                                        48.5004
        37.2504
   2510114.48046   1971423.68443
                  24272459.9844                                   24272456.2584
                                                                        39.7504
        22.7504
 09 10 29 23 28 30.0000000  0  9G02G04G05G10G13G16G23G29G07
    682341.76648    556226.06347
                  20540954.3204                                   20540948.3524
                                                                        53.0004
        42.7504
   3150357.26647   2453549.61745
                  22793629.9774                                   22793626.6134
                                                                        47.7504
        32.5004
  -3606771.46148  -2746658.84046
                  21929572.8134                                   21929568.9884
                                                                        50.0004
        39.5004
  -3133071.32848  -2384118.35946
                  21129565.2664                                   21129560.9884
                                                                        51.0004
        40.5004
    303300.83648    265456.24246
                  21199732.5634                                   21199728.3204
                                                                        50.5004
        36.0004
    651654.92247    546920.55943
                  24038500.4924                                   24038495.4534
                                                                        42.0004
        20.2504
   2720888.11747   2123806.39144
                  23283574.5474                                   23283568.2464
                                                                        42.7504
        25.7504
  -2023907.08648  -1526361.40646
                  22073759.2424                                   22073755.3524
                                                                        48.2504
        38.0004
   2313807.33446   1818457.08843
                  24235103.6484                                   24235100.6644
                                                                        39.5004
        22.5004
 09 10 29 23 29  0.0000000  0  9G02G04G05G10G13G16G23G29G07
   2198600.71948   1737726.45347
                  20829489.0394                                   20829482.4844
                                                                        52.7504
        42.0004
   4730769.38747   3685039.55945
                  23094372.9384                                   23094369.0944
                                                                        47.5004
        31.5004
  -2215700.20348  -1662707.24646
                  22194285.1564                                   22194281.0044
                                                                        49.5004
        39.5004
  -1726605.70748  -1288171.03546
                  21397206.7814                                   21397203.1764
                                                                        50.5004
        39.5004
   1810375.50448   1439800.15246
                  21486519.1724                                   21486514.4804
                                                                        50.5004
        36.0004
   2067579.82447   1650238.78543
                  24307942.1564                                   24307937.4694
                                                                        42.0004
        22.0004
   4291077.04747   3347330.25444
                  23582371.8754                                   23582365.0124
                                                                        42.5004
        25.5004
   -584166.42248   -404485.43046
                  22347732.9614                                   22347728.9924
                                                                        48.0004
        37.5004
   3693219.21547   2893323.44544
                  24497597.7344                                   24497594.1254
                                                                        42.2504
        26.7504
 09 10 29 23 29 30.0000000  0  9G02G04G05G10G13G16G23G29G07
   2140038.84048   1692093.71947
                  20818344.8594                                   20818338.6804
                                                                        52.7504
        42.2504
   4736054.51247   3689157.72345
                  23095378.2974                                   23095374.8634
                                                                        47.5004
        32.2504
  -2399665.23048  -1806056.59446
                  22159277.4064                                   22159273.5704
                                                                        50.0004
        39.2504
  -1895063.89148  -1419437.11746
                  21365149.8984                                   21365146.4224
                                                                        49.7504
        40.2504
   1742705.71548   1387070.48045
                  21473641.9304                                   21473637.7504
                                                                        49.5004
        35.5004
   1908612.29347   1526368.06643
                  24277691.2814                                   24277687.0234
                                                                        42.2504
        23.5004
   4286234.87147   3343557.19944
                  23581450.0314                                   23581443.7344
                                                                        44.7504
        25.7504
   -719239.26248   -509736.76246
                  22322029.1334                                   22322025.2734
                                                                        49.5004
        37.2504
   3497504.73446   2740818.81644
                  24460354.4224                                   24460350.7034
                                                                        41.2504
        29.0004
 09 10 29 23 30  0.0000000  0  9G02G04G05G10G13G16G23G29G07
   2082081.16448   1646931.66047
                  20807316.3364                                   20807310.1604
                                                                        52.0004
        42.5004
   4741635.23447   3693506.25445
                  23096440.5084                                   23096436.6724
                                                                        45.0004
        31.5004
  -2583234.14848  -1949097.31246
                  22124345.7584                                   22124341.2584
                                                                        49.7504
        39.0004
  -2063014.21148  -1550307.52746
                  21333190.2734                                   21333186.3634
                                                                        50.5004
        40.0004
   1675717.05948   1334871.54346
                  21460894.3364                                   21460890.2384
                                                                        49.0004
        36.0004
   1750184.18846   1402917.46143
                  24247543.3674                                   24247539.0314
                                                                        41.5004
        22.2504
   4281783.59047   3340088.74644
                  23580603.0394                                   23580597.0514
                                                                        45.0004
        27.2504
   -853695.80148   -614508.09446
                  22296442.9924                                   22296439.0434
                                                                        48.7504
        37.5004
   3302097.98047   2588553.91444
                  24423169.8984                                   24423165.8634
                                                                        42.5004
        26.7504
 09 10 29 23 30 30.0000000  0  9G02G04G05G10G13G16G23G29G07
   2024727.61348   1602240.62947
                  20796401.9614                                   20796396.0004
                                                                        52.5004
        42.2504
   4747509.45747   3698083.50045
                  23097557.9614                                   23097554.8364
                                                                        46.5004
        31.5004
  -2766404.61348  -2091827.57846
                  22089489.7034                                   22089485.4884
                                                                        49.5004
        39.5004
  -2230454.42248  -1680780.45346
                  21301327.4454                                   21301323.2854
                                                                        50.7504
        39.5004
   1609408.55548   1283202.60246
                  21448276.3834                                   21448271.9414
                                                                        48.7504
        36.2504
   1592298.00846   1279889.20343
                  24217498.7344                                   24217494.3244
                                                                        40.7504
        21.7504
   4277720.45347   3336922.61744
                  23579830.4224                                   23579823.6334
                                                                        42.5004
        28.2504
   -987533.71548   -718797.28946
                  22270974.5234                                   22270970.7934
                                                                        48.7504
        37.5004
   3107001.77346   2436530.92644
                  24386043.8754                                   24386039.8954
                                                                        40.0004
        26.7504
 09 10 29 23 31  0.0000000  0  9G02G04G05G10G13G16G23G29G07
   1967978.19548   1558020.35547
                  20785602.8524                                   20785596.8444
                                                                        51.7504
        42.0004
   4753676.60247   3702889.01245
                  23098732.1414                                   23098728.7584
                                                                        45.2504
        31.0004
  -2949173.24648  -2234244.74646
                  22054710.0784                                   22054706.1724
                                                                        50.0004
        39.5004
  -2397381.00848  -1810853.14146
                  21269562.1644                                   21269558.4924
                                                                        50.7504
        40.7504
   1543780.43848   1232063.80945
                  21435787.7274                                   21435783.3674
                                                                        49.5004
        35.5004
   1434958.34046   1157287.03143
                  24187557.7734                                   24187553.4344
                                                                        39.7504
        20.2504
   4274044.06647   3334057.75044
                  23579129.9304                                   23579124.6134
                                                                        42.7504
        25.5004
  -1120750.76648   -822602.76646
                  22245624.0004                                   22245619.8834
                                                                        48.7504
        37.0004
   2912220.37546   2284753.17244
                  24348977.7424                                   24348974.4694
                                                                        39.5004
        25.7504
 09 10 29 23 31 30.0000000  0  9G02G04G05G10G13G16G23G29G07
   1911830.54348   1514268.98847
                  20774918.3594                                   20774912.4654
                                                                        52.5004
        42.0004
   4760132.90647   3707919.85245
                  23099960.2114                                   23099956.8164
                                                                        46.0004
        31.7504
  -3131539.98048  -2376348.73046
                  22020006.6254                                   22020002.7734
                                                                        50.5004
        39.2504
  -2563794.58248  -1940526.02046
                  21237895.0084                                   21237890.9614
                                                                        52.0004
        40.5004
   1478829.42248   1181452.59445
                  21423427.8674                                   21423423.5274
                                                                        49.0004
        35.5004
   1278165.16046   1035110.78143
                  24157721.2114                                   24157716.5474
                                                                        39.2504
        21.2504
   4270750.75447   3331491.42244
                  23578503.7814                                   23578497.4264
                                                                        42.5004
        25.5004
  -1253347.18448   -925924.67246
                  22220391.9224                                   22220388.2584
                                                                        49.0004
        37.2504
   2717755.66046   2133222.14143
                  24311972.2194                                   24311969.2734
                                                                        39.5004
        22.7504
 09 10 29 23 32  0.0000000  0  9G02G04G05G10G13G16G23G29G07
   1856283.72348   1470985.82847
                  20764348.0164                                   20764341.9804
                                                                        52.0004
        42.0004
   4766876.83647   3713174.75845
                  23101243.9064                                   23101240.6174
                                                                        45.5004
        32.0004
  -3313502.21148  -2518137.53146
                  21985380.7034                                   21985376.5824
                                                                        50.0004
        39.2504
  -2729692.70348  -2069797.31246
                  21206325.6484                                   21206321.6024
                                                                        51.2504
        40.0004
   1414555.04748   1131368.69945
                  21411197.0394                                   21411192.1174
                                                                        48.7504
        35.2504
   1121920.32046    913361.68843
                  24127988.8914                                   24127983.8714
                                                                        39.7504
        22.5004
   4267838.68046   3329222.24243
                  23577949.1884                                   23577943.4384
                                                                        41.7504
        23.5004
  -1385320.78148  -1028761.30546
                  22195277.9304                                   22195274.0634
                                                                        49.0004
        37.0004
   2523610.99646   1981940.39143
                  24275029.0084                                   24275024.7544
                                                                        41.2504
        23.0004
 09 10 29 23 32 30.0000000  0  9G02G04G05G10G13G16G23G29G07
   1801337.80948   1428170.79747
                  20753892.3054                                   20753886.0664
                                                                        52.5004
        42.5004
   4773906.75047   3718652.61745
                  23102582.0864                                   23102578.2424
                                                                        47.0004
        30.5004
  -3495057.32448  -2659609.03146
                  21950831.5784                                   21950827.6454
                                                                        50.5004
        39.7504
  -2895072.85548  -2198665.00846
                  21174854.8524                                   21174850.9494
                                                                        51.0004
        39.2504
   1350956.17248   1081811.19545
                  21399094.5784                                   21399089.8134
                                                                        50.2504
        35.2504
    966227.25446    792042.35243
                  24098360.3284                                   24098356.5904
                                                                        39.5004
        22.5004
   4265305.13747   3327248.03543
                  23577467.2114                                   23577460.9264
                                                                        42.0004
        22.7504
  -1516669.81248  -1131111.29346
                  22170283.1564                                   22170279.5004
                                                                        48.7504
        37.2504
   2329790.43446   1830911.55943
                  24238145.7734                                   24238141.4144
                                                                        40.5004
        22.7504
 09 10 29 23 33  0.0000000  0  9G02G04G05G10G13G16G23G29G07
   1746996.19548   1385826.68447
                  20743551.2344                                   20743545.1884
                                                                        52.0004
        42.2504
   4781225.34447   3724355.49645
                  23103974.3444                                   23103970.2814
                                                                        45.2504
        30.5004
  -3676199.27748  -2800758.52746
                  21916361.3204                                   21916356.8754
                                                                        50.0004
        39.0004
  -3059928.87948  -2327124.27346
                  21143483.5234                                   21143479.6604
                                                                        50.5004
        40.5004
   1288035.77048   1032782.34046
                  21387121.2344                                   21387116.3834
                                                                        49.5004
        36.0004
    811092.47346    671158.07043
                  24068839.6254                                   24068835.8404
                                                                        39.2504
        21.5004
   4263152.30147   3325570.42644
                  23577057.8524                                   23577051.5554
                                                                        43.0004
        24.7504
  -1647388.60948  -1232970.20346
                  22145408.2114                                   22145404.5634
                                                                        48.5004
        37.5004
   2136301.25847   1680141.03544
                  24201325.1884                                   24201321.1884
                                                                        42.7504
        25.0004
 09 10 29 23 33 30.0000000  0  9G02G04G05G10G13G16G23G29G07
   1693250.38748   1343946.81646
                  20733323.8754                                   20733317.6604
                                                                        53.5004
        41.5004
   4788822.62147   3730275.41045
                  23105419.6884                                   23105416.3054
                                                                        45.2504
        30.2504
  -3856933.75448  -2941590.60946
                  21881968.6884                                   21881964.5394
                                                                        50.0004
        40.0004
  -3224267.10548  -2455180.14146
                  21112211.3054                                   21112207.8954
                                                                        50.7504
        40.7504
   1225785.67648    984275.80945
                  21375275.6564                                   21375271.0004
                                                                        50.2504
        35.7504
    656510.76246    550704.66043
                  24039423.6804                                   24039419.1604
                                                                        38.2504
        21.5004
   4261370.30947   3324181.83643
                  23576719.0634                                   23576713.0864
                                                                        43.5004
        23.7504
  -1777483.53148  -1334343.04746
                  22120651.9694                                   22120648.6374
                                                                        48.5004
        37.5004
   1943138.40647   1529624.64544
                  24164567.6484                                   24164564.2774
                                                                        42.5004
        26.5004
 09 10 29 23 34  0.0000000  0  9G02G04G05G10G13G16G23G29G07
   1640101.38348   1302532.10247
                  20723210.1024                                   20723204.0124
                                                                        52.5004
        42.0004
   4796698.59047   3736412.49245
                  23106918.8524                                   23106915.2664
                                                                        46.2504
        30.5004
  -4037257.14848  -3082102.37946
                  21847654.5554                                   21847649.9654
                                                                        50.7504
        40.0004
  -3388083.09048  -2582828.91846
                  21081038.1954                                   21081034.6684
                                                                        51.7504
        40.7504
   1164206.00848    936291.68845
                  21363557.5784                                   21363552.5864
                                                                        49.5004
        35.7504
    502486.10946    430685.43043
                  24010114.1804                                   24010109.5234
                                                                        39.7504
        21.2504
   4259958.18847   3323081.46144
                  23576450.2504                                   23576443.3324
                                                                        44.0004
        25.0004
  -1906950.93748  -1435226.80146
                  22096015.3284                                   22096011.8444
                                                                        48.2504
        37.0004
   1750306.85247   1379366.39844
                  24127872.9614                                   24127869.6294
                                                                        43.5004
        28.2504
 09 10 29 23 34 30.0000000  0  9G02G04G05G10G13G16G23G29G07
   1587545.89148   1261579.84047
                  20713208.8914                                   20713202.4884
                                                                        53.0004
        42.0004
   4804849.28147   3742763.62145
                  23108469.9304                                   23108466.4494
                                                                        46.5004
        31.0004
  -4217169.33648  -3222293.82446
                  21813418.5234                                   21813414.4694
                                                                        50.2504
        40.0004
  -3551377.10248  -2710070.99246
                  21049964.4144                                   21049960.7464
                                                                        52.0004
        40.5004
   1103293.75848    888827.66045
                  21351965.8674                                   21351961.0744
                                                                        50.7504
        35.7504
    349018.83246    311100.48843
                  23980910.3594                                   23980906.2664
                                                                        39.7504
        22.5004
   4258911.22347   3322265.65244
                  23576251.0314                                   23576244.5634
                                                                        43.0004
        24.7504
  -2035791.95748  -1535622.52046
                  22071497.9064                                   22071494.1214
                                                                        49.7504
        37.5004
   1557808.09447   1229367.43844
                  24091241.3054                                   24091237.6454
                                                                        43.0004
        27.5004
 09 10 29 23 35  0.0000000  0  9G02G04G05G10G13G16G23G29G07
   1535580.66448   1221087.46147
                  20703320.2584                                   20703314.1994
                                                                        53.0004
        42.2504
   4813270.13747   3749325.25045
                  23110072.3364                                   23110069.0944
                                                                        47.5004
        31.2504
  -4396670.44548  -3362164.92646
                  21779260.3984                                   21779256.5944
                                                                        50.5004
        40.0004
  -3714150.28548  -2836907.24246
                  21018989.3524                                   21018985.3954
                                                                        51.7504
        40.2504
   1043044.73848    841880.42645
                  21340500.7034                                   21340496.2584
                                                                        50.0004
        35.2504
    196108.51246    191949.48043
                  23951812.8364                                   23951807.9774
                                                                        40.0004
        22.0004
   4258224.77347   3321730.76244
                  23576119.9144                                   23576114.1294
                                                                        42.5004
        26.2504
  -2164007.32848  -1635530.69546
                  22047099.4774                                   22047096.1804
                                                                        49.2504
        37.5004
   1365642.27746   1079627.95744
                  24054673.5394                                   24054669.9024
                                                                        41.7504
        26.7504
 09 10 29 23 35 30.0000000  0  9G02G04G05G10G13G16G23G29G07
   1484207.38348   1181056.34846
                  20693544.3134                                   20693538.3134
                                                                        52.0004
        41.5004
   4821962.61747   3756098.56645
                  23111726.6024                                   23111723.2384
                                                                        46.7504
        30.7504
  -4575755.89148  -3501712.11746
                  21745181.9534                                   21745177.7934
                                                                        51.0004
        40.2504
  -3876397.85948  -2963333.92246
                  20988114.8444                                   20988111.2624
                                                                        51.5004
        40.7504
    983460.55548    795451.25445
                  21329162.1414                                   21329157.4884
                                                                        50.7504
        34.7504
     43760.39846     73236.57643
                  23922822.2424                                   23922816.9024
                                                                        41.5004
        22.5004
   4257899.50446   3321477.36344
                  23576058.6414                                   23576052.5864
                                                                        41.2504
        24.7504
  -2291593.18048  -1734948.39846
                  22022820.8054                                   22022817.1374
                                                                        49.5004
        38.2504
   1173816.13747    930153.14844
                  24018169.5784                                   24018166.6804
                                                                        42.2504
        26.0004
 09 10 29 23 36  0.0000000  0  9G02G04G05G10G13G16G23G29G07
   1433425.27348   1141485.89847
                  20683880.6094                                   20683874.4804
                                                                        52.2504
        42.0004
   4830924.26247   3763081.60545
                  23113431.7344                                   23113429.0084
                                                                        47.5004
        30.0004
  -4754423.62948  -3640933.81646
                  21711182.6254                                   21711178.8094
                                                                        50.5004
        39.7504
  -4038118.04348  -3089349.79346
                  20957340.6334                                   20957336.8634
                                                                        51.7504
        40.0004
    924540.05148    749539.21545
                  21317949.9614                                   21317945.5904
                                                                        49.5004
        34.7504
   -108023.34046    -45036.51243
                  23893938.1024                                   23893933.2114
                                                                        40.5004
        21.5004
   4257932.76646   3321503.31344
                  23576064.0314                                   23576059.0204
                                                                        41.5004
        24.0004
  -2418547.81248  -1833874.18746
                  21998661.9304                                   21998658.4534
                                                                        49.7504
        37.5004
    982332.35247    780945.08644
                  23981731.8204                                   23981728.1214
                                                                        43.0004
        25.7504
 09 10 29 23 36 30.0000000  0  9G02G04G05G10G13G16G23G29G07
   1383231.41448   1102373.81346
                  20674329.0784                                   20674322.8834
                                                                        52.2504
        41.7504
   4840151.10947   3770271.33245
                  23115188.0944                                   23115184.5984
                                                                        46.0004
        31.0004
  -4932673.59848  -3779829.94146
                  21677262.6414                                   21677258.6914
                                                                        51.5004
        40.2504
  -4199311.16848  -3214954.89546
                  20926667.1724                                   20926663.2704
                                                                        52.2504
        40.7504
    866279.53148    704141.41845
                  21306863.4304                                   21306859.3714
                                                                        48.5004
        35.2504
   -259243.07446   -162870.27343
                  23865162.3674                                   23865157.6214
                                                                        40.0004
        22.0004
   4258319.68047   3321804.85544
                  23576138.2274                                   23576132.3954
                                                                        42.0004
        24.0004
  -2544872.01648  -1932308.75446
                  21974623.9224                                   21974620.0044
                                                                        49.5004
        37.5004
    791191.76247    632004.39144
                  23945359.4454                                   23945355.4304
                                                                        44.0004
        25.0004
 09 10 29 23 37  0.0000000  0  9G02G04G05G10G13G16G23G29G07
   1333626.34048   1063720.55946
                  20664889.3364                                   20664883.2664
                                                                        52.2504
        41.7504
   4849642.59847   3777667.25844
                  23116993.2504                                   23116990.1334
                                                                        45.7504
        29.5004
  -5110502.48448  -3918397.86746
                  21643422.9454                                   21643418.9494
                                                                        51.0004
        40.0004
  -4359974.31648  -3340147.07046
                  20896093.9304                                   20896090.0354
                                                                        52.0004
        39.7504
    808678.85248    659257.75445
                  21295902.2734                                   21295897.6484
                                                                        49.7504
        34.5004
   -409895.05146   -280261.57443
                  23836494.9924                                   23836489.6214
                                                                        40.7504
        22.0004
   4259059.28547   3322381.29743
                  23576278.8364                                   23576272.5434
                                                                        42.2504
        22.7504
  -2670563.75048  -2030250.46946
                  21950705.3754                                   21950701.9574
                                                                        49.5004
        37.7504
    600398.98447    483334.64144
                  23909053.1804                                   23909048.0434
                                                                        44.7504
        25.5004
 09 10 29 23 37 30.0000000  0  9G02G04G05G10G13G16G23G29G07
   2860022.50448   2253120.08646
                  20955353.0394                                   20955346.9264
                                                                        52.2504
        41.5004
   6434809.00047   5012861.84844
                  23418641.1174                                   23418637.8134
                                                                        45.0004
        29.7504
  -3712490.30948  -2829037.74246
                  21909456.0004                                   21909451.7704
                                                                        51.0004
        40.2504
  -2944687.84848  -2237326.48846
                  21165413.5554                                   21165410.2344
                                                                        51.0004
        40.2504
   2327151.05548   1842482.81645
                  21584857.7814                                   21584853.4884
                                                                        49.5004
        34.7504
   1015440.58246    830389.48443
                  24107726.8204                                   24107722.4344
                                                                        40.7504
        22.7504
   5835561.15647   4550824.38743
                  23876277.0784                                   23876271.0314
                                                                        42.5004
        22.7504
  -1220204.41848   -900100.36746
                  22226699.4844                                   22226696.1214
                                                                        49.2504
        38.0004
   1985375.88747   1562537.49244
                  24172605.1954                                   24172600.8404
                                                                        44.5004
        26.0004
 09 10 29 23 38  0.0000000  0  9G02G04G05G10G13G16G23G29G07
   2811580.90248   2215373.25446
                  20946135.2734                                   20946128.8364
                                                                        52.0004
        41.5004
   6444814.04747   5020657.94144
                  23420544.9144                                   23420541.4224
                                                                        45.5004
        29.5004
  -3889481.24248  -2966952.67646
                  21875775.5004                                   21875771.2854
                                                                        50.5004
        40.0004
  -3104294.67648  -2361695.49646
                  21135041.4384                                   21135037.9024
                                                                        51.7504
        40.7504
   2270856.06648   1798616.58645
                  21574145.5314                                   21574140.6884
                                                                        49.0004
        35.5004
    865921.61746    713881.40243
                  24079273.8054                                   24079269.3594
                                                                        40.2504
        22.2504
   5836988.39547   4551936.50043
                  23876549.0004                                   23876542.0314
                                                                        42.5004
        22.5004
  -1344636.14148   -997060.24646
                  22203021.0474                                   22203017.4774
                                                                        50.0004
        38.2504
   1795277.92247   1414409.11744
                  24136430.8754                                   24136426.1724
                                                                        44.7504
        26.0004
 09 10 29 23 38 30.0000000  0  9G02G04G05G10G13G16G23G29G07
   2763720.27748   2178079.21146
                  20937027.9304                                   20937021.7544
                                                                        52.0004
        41.5004
   6455073.51247   5028652.28945
                  23422497.0314                                   23422494.1684
                                                                        45.5004
        30.0004
  -4066050.12548  -3104538.80546
                  21842175.5864                                   21842171.1884
                                                                        51.0004
        39.7504
  -3263370.18048  -2485650.44146
                  21104770.5474                                   21104766.8554
                                                                        51.7504
        40.2504
   2215212.24648   1755257.69545
                  21563556.4694                                   21563552.1254
                                                                        49.7504
        35.5004
    716972.88346    597817.88343
                  24050929.8834                                   24050925.3134
                                                                        38.7504
        21.0004
   5838756.37147   4553314.21943
                  23876884.9384                                   23876878.0664
                                                                        43.5004
        22.7504
  -1468435.90648  -1093527.68746
                  22179462.7034                                   22179459.2624
                                                                        50.5004
        38.2504
   1605533.11347   1266556.09444
                  24100323.4774                                   24100319.0394
                                                                        44.0004
        25.5004
 09 10 29 23 39  0.0000000  0  9G02G04G05G10G13G16G23G29G07
   2716437.18448   2141235.36347
                  20928029.5784                                   20928023.5784
                                                                        51.5004
        42.0004
   6465582.51247   5036841.07445
                  23424497.2344                                   23424494.1374
                                                                        46.5004
        30.0004
  -4242197.14548  -3241796.19146
                  21808655.8984                                   21808651.5434
                                                                        50.7504
        40.2504
  -3421915.75048  -2609192.41846
                  21074600.1954                                   21074596.7774
                                                                        51.7504
        40.5004
   2160215.42248   1712402.92245
                  21553091.3134                                   21553086.5204
                                                                        49.5004
        35.2504
    568592.67646    482197.12543
                  24022693.0234                                   24022689.6524
                                                                        39.0004
        22.7504
   5840859.69146   4554953.13343
                  23877285.0554                                   23877279.6174
                                                                        40.0004
        22.7504
  -1591604.97748  -1189503.59846
                  22156024.1484                                   22156021.1254
                                                                        49.2504
        38.2504
   1416141.26647   1118977.98044
                  24064283.0234                                   24064279.2544
                                                                        42.5004
        27.7504
 09 10 29 23 39 30.0000000  0  9G02G04G05G10G13G16G23G29G07
   2669730.97748   2104841.15246
                  20919141.7894                                   20919135.5354
                                                                        52.0004
        41.7504
   6476339.57447   5045223.10244
                  23426544.2344                                   23426540.5864
                                                                        45.5004
        29.5004
  -4417920.00048  -3378722.98846
                  21775216.8524                                   21775212.7504
                                                                        50.7504
        40.5004
  -3579929.07448  -2732319.64846
                  21044531.2664                                   21044527.7774
                                                                        51.5004
        40.5004
   2105864.66448   1670051.56645
                  21542748.8984                                   21542744.1334
                                                                        49.0004
        35.0004
    420783.85946    367021.43044
                  23994566.5234                                   23994562.1724
                                                                        40.0004
        24.0004
   5843297.19546   4556852.52743
                  23877748.4774                                   23877743.3404
                                                                        40.0004
        22.7504
  -1714141.57848  -1284986.68046
                  22132706.5634                                   22132703.3634
                                                                        50.0004
        38.0004
   1227106.47346    971678.23444
                  24028310.3594                                   24028307.5434
                                                                        41.7504
        27.0004
 09 10 29 23 40  0.0000000  0  9G02G04G05G10G13G16G23G29G07
   2623599.90648   2068894.67247
                  20910363.4224                                   20910357.4804
                                                                        52.0004
        42.0004
   6487344.00847   5053798.00845
                  23428638.1254                                   23428634.9734
                                                                        46.0004
        30.2504
  -4593216.62948  -3515317.73846
                  21741859.2504                                   21741854.9844
                                                                        50.5004
        41.5004
  -3737407.83648  -2855030.27346
                  21014564.1254                                   21014560.4774
                                                                        51.5004
        41.2504
   2052159.19948   1628203.12545
                  21532529.0394                                   21532524.6724
                                                                        48.5004
        34.7504
    273548.85546    252292.60944
                  23966548.9304                                   23966544.9614
                                                                        41.0004
        24.5004
   5846066.21546   4559010.26243
                  23878275.9924                                   23878269.9694
                                                                        40.7504
        22.7504
  -1836044.58248  -1379976.05546
                  22109509.1174                                   22109505.5864
                                                                        50.0004
        37.2504
   1038431.77246    824659.11644
                  23992407.3134                                   23992403.8164
                                                                        41.7504
        26.0004
 09 10 29 23 40 30.0000000  0  9G02G04G05G10G13G16G23G29G07
   2578041.25448   2033394.29346
                  20901694.5004                                   20901688.5044
                                                                        52.5004
        41.0004
   6498590.63347   5062561.62544
                  23430778.6804                                   23430774.9574
                                                                        45.0004
        29.0004
  -4768087.38348  -3651580.62146
                  21708582.2034                                   21708578.2234
                                                                        49.7504
        40.5004
  -3894352.95348  -2977325.09446
                  20984698.4224                                   20984695.0124
                                                                        51.2504
        40.5004
   1999094.61348   1586854.07845
                  21522431.2894                                   21522426.8984
                                                                        48.5004
        34.5004
    126888.04746    138011.46944
                  23938640.7734                                   23938636.6764
                                                                        41.5004
        24.0004
   5849161.63347   4561422.37944
                  23878865.3674                                   23878858.8204
                                                                        42.0004
        24.2504
  -1957315.17648  -1474472.62546
                  22086432.1174                                   22086428.3444
                                                                        50.0004
        38.0004
    850117.88347    677921.08244
                  23956572.6484                                   23956568.2464
                                                                        43.0004
        27.5004
 09 10 29 23 41  0.0000000  0  9G02G04G05G10G13G16G23G29G07
   2533053.97748   1998339.35246
                  20893133.0784                                   20893126.8634
                                                                        52.0004
        41.5004
   6510077.35547   5071512.29344
                  23432964.5234                                   23432961.1724
                                                                        44.7504
        27.7504
  -4942531.02748  -3787510.78546
                  21675386.4924                                   21675382.5744
                                                                        49.7504
        40.7504
  -4050763.55548  -3099203.41846
                  20954934.1804                                   20954930.6954
                                                                        51.7504
        41.0004
   1946669.31648   1546003.22345
                  21512455.5004                                   21512450.7194
                                                                        49.5004
        35.0004
    -19197.23846     24178.82444
                  23910841.2114                                   23910837.0004
                                                                        41.2504
        24.2504
   5852580.78547   4564086.68844
                  23879515.7114                                   23879509.5314
                                                                        42.5004
        24.0004
  -2077952.46948  -1568475.77346
                  22063475.6644                                   22063472.0984
                                                                        50.0004
        38.0004
    662167.44547    531466.14544
                  23920806.9384                                   23920802.6254
                                                                        43.7504
        28.0004
 09 10 29 23 41 30.0000000  0  9G02G04G05G10G13G16G23G29G07
   2488636.63348   1963728.42246
                  20884680.6414                                   20884674.5704
                                                                        52.7504
        41.5004
   6521802.24247   5080648.53144
                  23435195.5554                                   23435192.1844
                                                                        45.5004
        28.7504
  -5116544.89148  -3923106.03146
                  21642272.9774                                   21642268.6914
                                                                        49.5004
        40.5004
  -4206637.57448  -3220663.71946
                  20925272.6954                                   20925268.9024
                                                                        51.5004
        41.2504
   1894881.67248   1505649.23845
                  21502600.3444                                   21502596.0164
                                                                        48.5004
        35.0004
   -164705.19146    -89203.98444
                  23883152.2814                                   23883147.4774
                                                                        41.7504
        25.5004
   5856321.57047   4567001.71544
                  23880228.0084                                   23880221.6914
                                                                        42.7504
        24.0004
  -2197955.22348  -1661984.43046
                  22040639.6884                                   22040636.4064
                                                                        50.0004
        37.7504
    474584.25447    385297.57844
                  23885110.3834                                   23885106.4224
                                                                        43.5004
        28.5004
 09 10 29 23 42  0.0000000  0  9G02G04G05G10G13G16G23G29G07
   2444789.42648   1929561.74246
                  20876336.9384                                   20876330.9924
                                                                        52.0004
        41.2504
   6533764.91047   5089970.08644
                  23437472.4224                                   23437468.7974
                                                                        46.0004
        28.5004
  -5290125.69548  -4058363.77346
                  21609241.5164                                   21609237.4884
                                                                        51.0004
        40.5004
  -4361971.43748  -3341703.02346
                  20895713.4534                                   20895709.8404
                                                                        51.0004
        40.5004
   1843731.56648   1465792.01645
                  21492866.6024                                   21492861.7584
                                                                        48.5004
        35.0004
   -309631.55546   -202133.42644
                  23855573.0474                                   23855568.3404
                                                                        41.5004
        25.0004
   5860382.32847   4570165.96543
                  23880999.7504                                   23880993.8634
                                                                        42.5004
        22.5004
  -2317320.59048  -1754996.37946
                  22017925.3914                                   22017922.1054
                                                                        49.5004
        38.5004
    287372.48447    239418.44944
                  23849485.7274                                   23849481.2344
                                                                        43.7504
        28.0004
 09 10 29 23 42 30.0000000  0  9G02G04G05G10G13G16G23G29G07
   2401509.07848   1895836.72346
                  20868101.1094                                   20868094.7114
                                                                        53.0004
        41.5004
   6545961.61347   5099474.02044
                  23439793.5394                                   23439789.6884
                                                                        45.0004
        29.5004
  -5463273.85948  -4193284.46546
                  21576292.8674                                   21576288.8714
                                                                        50.0004
        40.5004
  -4516766.13748  -3462322.26246
                  20866256.9144                                   20866252.8134
                                                                        50.7504
        40.5004
   1793215.46148   1426428.78945
                  21483253.6254                                   21483249.0744
                                                                        48.7504
        34.5004
   -453976.45347   -314609.70343
                  23828105.2274                                   23828100.2774
                                                                        42.2504
        22.5004
   5864759.08246   4573576.42243
                  23881832.6564                                   23881826.1844
                                                                        40.5004
        19.5004
  -2436050.08648  -1847512.85946
                  21995331.8754                                   21995328.5824
                                                                        49.7504
        38.5004
    100533.03147     93829.38744
                  23813931.3834                                   23813926.1374
                                                                        44.0004
        27.2504
 09 10 29 23 43  0.0000000  0  9G02G04G05G10G13G16G23G29G07
   2358791.26648   1862550.03946
                  20859972.1334                                   20859965.9734
                                                                        53.0004
        41.2504
   6558386.55547   5109155.71944
                  23442157.6484                                   23442154.3954
                                                                        45.5004
        28.7504
  -5635990.37548  -4327868.70746
                  21543426.1954                                   21543421.7034
                                                                        50.5004
        40.7504
  -4671023.27348  -3582522.73046
                  20836902.6644                                   20836899.0594
                                                                        51.5004
        41.0004
   1743328.21148   1387555.57045
                  21473760.4384                                   21473755.8874
                                                                        48.2504
        34.0004
   -597742.14147   -426634.67643
                  23800747.8134                                   23800742.2384
                                                                        42.2504
        22.0004
   5869445.69546   4577228.26643
                  23882724.2664                                   23882717.7704
                                                                        38.5004
        18.5004
  -2554145.90648  -1939535.57046
                  21972859.0314                                   21972855.2034
                                                                        49.5004
        38.0004
    -85934.22747    -51469.55544
                  23778447.1644                                   23778443.0784
                                                                        43.0004
        26.2504
 09 10 29 23 43 30.0000000  0  9G02G04G05G10G13G16G23G29G07
   2316633.32048   1829699.74247
                  20851949.7974                                   20851944.0474
                                                                        52.7504
        42.0004
   6571036.77747   5119013.00444
                  23444564.6174                                   23444561.6564
                                                                        44.5004
        28.0004
  -5808274.54748  -4462116.03546
                  21510641.2114                                   21510636.8634
                                                                        50.2504
        41.0004
  -4824742.15648  -3702303.68746
                  20807651.0944                                   20807647.3874
                                                                        51.7504
        41.0004
   1694066.93847   1349170.30945
                  21464386.3984                                   21464381.7074
                                                                        47.2504
        34.5004
   -740927.77047   -538207.59443
                  23773499.6484                                   23773495.0314
                                                                        42.2504
        21.5004
   5874438.62946   4581118.81343
                  23883674.9384                                   23883669.1294
                                                                        39.2504
        21.7504
  -2671608.30548  -2031064.53946
                  21950506.3444                                   21950503.0664
                                                                        49.5004
        38.0004
   -272027.99247   -196477.59844
                  23743034.5634                                   23743030.3444
                                                                        42.0004
        26.2504
 09 10 29 23 44  0.0000000  0  9G02G04G05G10G13G16G23G29G07
   2275033.37948   1797284.20346
                  20844033.6484                                   20844027.1804
                                                                        53.5004
        41.2504
   6583909.87547   5129043.92244
                  23447014.2424                                   23447011.1914
                                                                        44.7504
        27.5004
  -5980126.04748  -4596026.14846
                  21477938.9614                                   21477934.8874
                                                                        50.7504
        40.7504
  -4977922.31648  -3821664.80946
                  20778502.0314                                   20778497.7894
                                                                        51.5004
        41.5004
   1645429.40648   1311271.14545
                  21455130.6254                                   21455126.2464
                                                                        48.5004
        34.5004
   -883532.23846   -649327.74243
                  23746362.0944                                   23746357.4344
                                                                        41.5004
        21.5004
   5879734.55946   4585245.42644
                  23884682.9614                                   23884676.7384
                                                                        41.2504
        25.2504
  -2788437.23048  -2122100.02346
                  21928274.3134                                   21928270.8134
                                                                        50.0004
        37.5004
   -457745.28546   -341192.23444
                  23707693.5084                                   23707689.5044
                                                                        40.2504
        25.5004
 09 10 29 23 44 30.0000000  0  9G02G04G05G10G13G16G23G29G07
   2233995.88348   1765306.97746
                  20836224.2194                                   20836218.5864
                                                                        52.5004
        41.5004
   6597009.05147   5139251.05144
                  23449506.7344                                   23449503.9654
                                                                        45.5004
        28.0004
  -6151537.03948  -4729593.13346
                  21445320.2504                                   21445316.4184
                                                                        51.0004
        40.0004
  -5130556.19148  -3940600.25846
                  20749456.5234                                   20749452.8834
                                                                        51.7504
        40.7504
   1597419.35548   1273860.98845
                  21445994.5084                                   21445990.0594
                                                                        48.5004
        34.2504
  -1025548.06646   -759989.23043
                  23719337.6414                                   23719332.1254
                                                                        41.2504
        19.7504
   5885336.64846   4589610.68444
                  23885749.2734                                   23885743.4144
                                                                        41.7504
        26.2504
  -2904625.83648  -2212636.59046
                  21906164.7664                                   21906161.0824
                                                                        49.7504
        38.0004
   -643078.22747   -485607.46944
                  23672425.1334                                   23672421.7544
                                                                        42.0004
        27.0004
 09 10 29 23 45  0.0000000  0  9G02G04G05G10G13G16G23G29G07
   2193509.64148   1733759.10946
                  20828520.2034                                   20828514.2934
                                                                        52.5004
        41.7504
   6610323.49647   5149625.90244
                  23452040.5784                                   23452037.4304
                                                                        45.0004
        28.5004
  -6322515.07048  -4862822.87546
                  21412784.1414                                   21412779.8754
                                                                        51.0004
        40.7504
  -5282651.77048  -4059116.32446
                  20720513.7974                                   20720510.4534
                                                                        52.2504
        41.0004
   1550026.19548   1236931.62145
                  21436975.4454                                   21436970.5984
                                                                        49.2504
        33.7504
  -1166982.48046   -870197.57843
                  23692423.4144                                   23692418.1804
                                                                        40.5004
        19.7504
   5891233.25847   4594205.44944
                  23886871.1804                                   23886865.4614
                                                                        42.2504
        25.2504
  -3020183.16848  -2302681.47746
                  21884175.2344                                   21884171.5634
                                                                        50.0004
        39.0004
   -828032.39547   -629727.53544
                  23637230.4694                                   23637225.9304
                                                                        43.5004
        28.5004
 09 10 29 23 45 30.0000000  0  9G02G04G05G10G13G16G23G29G07
   3728994.84448   2930241.00446
                  21120713.4454                                   21120707.4614
                                                                        52.2504
        41.0004
   8199269.92247   6387765.96944
                  23754406.9694                                   23754404.0354
                                                                        46.0004
        28.7504
  -4917632.94148  -3768109.64846
                  21680124.7344                                   21680120.7974
                                                                        51.2504
        41.5004
  -3858782.91448  -2949608.06246
                  20991466.9064                                   20991463.1134
                                                                        51.5004
        41.0004
   3078668.17248   2428081.28145
                  21727866.3594                                   21727861.5084
                                                                        49.2504
        34.2504
    267590.57846    247651.73843
                  23965413.3834                                   23965408.0904
                                                                        40.7504
        20.7504
   7472841.16846   5826627.14143
                  24187841.2504                                   24187835.3204
                                                                        41.7504
        23.0004
  -1559683.99248  -1164630.34046
                  22162099.0314                                   22162095.6524
                                                                        50.0004
        38.0004
    562820.69547    454054.16044
                  23901900.9144                                   23901896.3444
                                                                        44.5004
        28.0004
 09 10 29 23 46  0.0000000  0  9G02G04G05G10G13G16G23G29G07
   3689603.93448   2899546.85546
                  21113217.4844                                   21113211.4224
                                                                        52.7504
        41.2504
   8213003.28147   6398467.21944
                  23757020.6334                                   23757017.4614
                                                                        45.0004
        28.5004
  -5087743.95748  -3900663.76646
                  21647753.4924                                   21647749.6454
                                                                        50.7504
        40.7504
  -4009802.18048  -3067285.37146
                  20962728.6804                                   20962724.8674
                                                                        52.0004
        41.5004
   3032496.87548   2392103.65245
                  21719080.1564                                   21719075.2154
                                                                        50.0004
        34.2504
    127319.06646    138349.48843
                  23938720.5634                                   23938715.5474
                                                                        40.2504
        22.5004
   7479314.07046   5831670.91443
                  24189072.4694                                   24189066.6484
                                                                        40.2504
        22.2504
  -1673979.94548  -1253692.21146
                  22140349.1414                                   22140345.8714
                                                                        49.7504
        38.0004
    378627.73047    310527.19944
                  23866850.5704                                   23866845.2894
                                                                        44.5004
        28.5004
 09 10 29 23 46 30.0000000  0  9G02G04G05G10G13G16G23G29G07
   3650756.93448   2869276.43046
                  21105825.2584                                   21105818.9654
                                                                        52.2504
        41.2504
   8226942.00847   6409328.48044
                  23759673.5004                                   23759670.1094
                                                                        45.0004
        27.5004
  -5257420.07448  -4032878.96546
                  21615465.3754                                   21615461.5664
                                                                        51.7504
        40.5004
  -4160282.07048  -3184542.32846
                  20934093.3914                                   20934089.8634
                                                                        52.2504
        41.2504
   2986933.16048   2356599.53145
                  21710409.9384                                   21710405.0944
                                                                        49.2504
        34.2504
    -12369.51247     29501.42643
                  23912138.3984                                   23912133.8594
                                                                        42.0004
        22.7504
   7486070.17646   5836935.41043
                  24190357.8204                                   24190352.2704
                                                                        39.0004
        18.5004
  -1787644.51248  -1342261.86746
                  22118719.5554                                   22118716.0274
                                                                        50.0004
        38.0004
    194818.37147    167299.14144
                  23831872.1804                                   23831868.1214
                                                                        43.0004
        29.5004
 09 10 29 23 47  0.0000000  0  9G02G04G05G10G13G16G23G29G07
   3612456.10248   2839431.62546
                  21098537.0084                                   21098530.6414
                                                                        52.7504
        41.5004
   8241087.63347   6420350.99244
                  23762365.1174                                   23762362.2974
                                                                        43.7504
        27.7504
  -5426655.82848  -4164751.03546
                  21583260.8054                                   21583256.7704
                                                                        50.5004
        41.0004
  -4310218.82848  -3301376.46146
                  20905561.9144                                   20905557.7384
                                                                        51.5004
        41.2504
   2941978.32448   2321569.82445
                  21701855.3284                                   21701850.6764
                                                                        49.7504
        34.2504
   -151470.21146    -78888.63344
                  23885668.3444                                   23885664.1844
                                                                        41.5004
        24.5004
   7493109.96946   5842420.95343
                  24191697.6724                                   24191690.9804
                                                                        40.7504
        19.0004
  -1900674.49248  -1430337.09446
                  22097210.3754                                   22097206.9654
                                                                        50.0004
        38.2504
     11399.16047     24375.09044
                  23796968.7894                                   23796964.5824
                                                                        43.7504
        28.5004
 09 10 29 23 47 30.0000000  0  9G02G04G05G10G13G16G23G29G07
   3574699.12148   2810010.51646
                  21091351.9454                                   21091346.2234
                                                                        52.5004
        41.2504
   8255437.41847   6431532.53944
                  23765095.8284                                   23765092.8984
                                                                        42.0004
        29.2504
  -5595450.51248  -4296279.40246
                  21551140.2814                                   21551136.3404
                                                                        51.2504
        41.0004
  -4459610.65248  -3417785.66046
                  20877133.1884                                   20877129.3634
                                                                        52.2504
        41.0004
   2897629.78948   2287012.53545
                  21693415.6334                                   21693411.3714
                                                                        49.5004
        34.2504
   -289981.55946   -186819.38344
                  23859310.6024                                   23859306.1454
                                                                        41.7504
        26.0004
   7500430.76647   5848125.49643
                  24193091.6644                                   24193085.1414
                                                                        42.5004
        21.0004
  -2013069.59048  -1517917.63346
                  22075822.5164                                   22075818.7274
                                                                        49.0004
        38.0004
   -171627.81647   -118243.39544
                  23762140.0004                                   23762135.7814
                                                                        43.0004
        28.0004
 09 10 29 23 48  0.0000000  0  9G02G04G05G10G13G16G23G29G07
   3537486.03548   2781013.27047
                  21084270.5234                                   21084264.7114
                                                                        52.0004
        42.0004
   8269990.25047   6442872.30544
                  23767865.1254                                   23767862.2234
                                                                        43.7504
        28.7504
  -5763801.11348  -4427461.70346
                  21519104.1024                                   21519100.4304
                                                                        50.5004
        41.0004
  -4608455.18748  -3533768.50446
                  20848809.2814                                   20848805.6254
                                                                        52.2504
        40.7504
   2853886.95348   2252927.27045
                  21685091.9384                                   21685086.9924
                                                                        49.5004
        33.5004
   -427901.51346   -294289.39344
                  23833065.1024                                   23833060.5664
                                                                        41.0004
        25.7504
   7508030.75047   5854047.55144
                  24194537.5164                                   24194531.3754
                                                                        43.0004
        26.0004
  -2124828.15648  -1605002.21946
                  22054555.7114                                   22054552.1484
                                                                        49.2504
        38.5004
   -354258.28147   -260552.90644
                  23727386.4694                                   23727382.5084
                                                                        43.0004
        27.5004
 09 10 29 23 48 30.0000000  0  9G02G04G05G10G13G16G23G29G07
   3500815.73848   2752439.09046
                  21077292.1334                                   21077286.2344
                                                                        52.2504
        41.0004
   8284744.65647   6454369.07844
                  23770673.1724                                   23770669.8984
                                                                        43.7504
        28.2504
  -5931705.20348  -4558295.96946
                  21487153.0554                                   21487149.2034
                                                                        50.5004
        41.0004
  -4756750.47748  -3649323.33646
                  20820589.7034                                   20820585.9574
                                                                        51.7504
        40.5004
   2810748.09848   2219312.53945
                  21676882.6094                                   21676877.7194
                                                                        49.7504
        34.2504
   -565227.64546   -401296.73444
                  23806932.7814                                   23806928.4304
                                                                        41.5004
        26.2504
   7515907.88747   5860185.52044
                  24196036.6254                                   24196030.5704
                                                                        44.5004
        25.5004
  -2235948.97348  -1691589.87546
                  22033409.9534                                   22033406.4104
                                                                        48.5004
        38.2504
   -536488.84447   -402550.78944
                  23692709.0004                                   23692704.8444
                                                                        43.0004
        26.5004
 09 10 29 23 49  0.0000000  0  8G02G04G05G10G13G16G29G07
   3464682.46948   2724283.27746
                  21070416.5314                                   21070410.4414
                                                                        52.0004
        41.2504
   8299694.46947   6466018.03944
                  23773518.2274                                   23773514.3554
                                                                        44.0004
        28.0004
  -6099165.45348  -4688784.37946
                  21455286.4304                                   21455282.4104
                                                                        50.5004
        40.7504
  -4904499.50048  -3764452.46946
                  20792473.8594                                   20792470.1454
                                                                        51.7504
        41.2504
   2768207.58648   2186164.09445
                  21668787.6954                                   21668782.6294
                                                                        49.5004
        33.2504
   -701962.38346   -507843.32044
                  23780912.9694                                   23780908.7114
                                                                        41.2504
        25.0004
  -2346435.24248  -1777683.09846
                  22012385.1334                                   22012381.3444
                                                                        49.5004
        38.0004
   -718321.05947   -544238.15244
                  23658107.6484                                   23658103.0164
                                                                        43.2504
        27.5004
 09 10 29 23 49 30.0000000  0  8G02G04G05G10G13G16G29G07
   3429089.55948   2696548.53946
                  21063643.2274                                   21063637.4804
                                                                        52.0004
        41.7504
   8314842.72347   6477821.74244
                  23776400.8524                                   23776397.6484
                                                                        43.7504
        26.5004
  -6266175.46548  -4818921.95746
                  21423505.4614                                   21423501.3324
                                                                        50.0004
        41.0004
  -5051696.23048  -3879151.29346
                  20764463.2734                                   20764459.8714
                                                                        52.7504
        40.7504
   2726267.62548   2153483.53145
                  21660806.5864                                   21660802.0704
                                                                        48.5004
        33.7504
   -838099.71946   -613924.51244
                  23755007.7814                                   23755002.8594
                                                                        41.5004
        25.5004
  -2456282.19548  -1863278.21146
                  21991482.1174                                   21991478.5784
                                                                        48.5004
        38.5004
   -899746.88347   -685608.99644
                  23623583.5474                                   23623578.9694
                                                                        43.5004
        28.5004
 09 10 29 23 50  0.0000000  0  8G02G04G05G10G13G16G29G07
   3394039.69548   2669236.82446
                  21056973.3984                                   21056967.4694
                                                                        52.5004
        41.7504
   8330191.53147   6489781.85544
                  23779321.1564                                   23779318.4104
                                                                        42.2504
        25.2504
  -6432729.61348  -4948704.45746
                  21391811.2814                                   21391807.0634
                                                                        51.2504
        41.2504
  -5198334.53948  -3993414.87146
                  20736559.0554                                   20736555.4884
                                                                        53.0004
        41.7504
   2684930.25848   2121272.41445
                  21652940.6334                                   21652935.7114
                                                                        49.2504
        34.0004
   -973634.09047   -719536.10544
                  23729216.7504                                   23729211.8954
                                                                        42.5004
        26.0004
  -2565484.23848  -1948370.66046
                  21970701.3674                                   21970697.7154
                                                                        48.5004
        38.5004
  -1080759.46147   -826657.77344
                  23589138.6254                                   23589133.9414
                                                                        44.2504
        27.2504
 09 10 29 23 50 30.0000000  0  8G02G04G05G10G13G16G29G07
   3359538.00448   2642352.38346
                  21050408.2194                                   21050402.4654
                                                                        51.7504
        40.7504
   8345745.15646   6501901.48044
                  23782281.1804                                   23782278.3054
                                                                        41.7504
        26.5004
  -6598819.30948  -5078125.14546
                  21360205.6024                                   21360201.5124
                                                                        51.0004
        41.5004
  -5344406.85548  -4107237.26646
                  20708762.2664                                   20708758.5354
                                                                        52.5004
        41.5004
   2644200.89148   2089535.16445
                  21645190.3754                                   21645185.5864
                                                                        49.5004
        33.7504
  -1108556.58646   -824670.66044
                  23703541.4144                                   23703536.7074
                                                                        41.7504
        25.5004
  -2674034.92248  -2032955.59846
                  21950044.8284                                   21950041.3164
                                                                        49.5004
        38.2504
  -1261349.34847   -967377.12944
                  23554773.2034                                   23554768.5634
                                                                        45.5004
        29.5004
 09 10 29 23 51  0.0000000  0  8G02G04G05G10G13G16G29G07
   3325582.37948   2615893.34446
                  21043946.7034                                   21043940.8134
                                                                        51.7504
        40.7504
   8361501.26247   6514178.88744
                  23785279.2504                                   23785276.8204
                                                                        43.7504
        26.7504
  -6764442.62548  -5207182.20347
                  21328688.4384                                   21328684.2234
                                                                        50.7504
        42.0004
  -5489912.39848  -4220618.02046
                  20681073.3054                                   20681069.3954
                                                                        52.5004
        41.7504
   2604077.14148   2058269.92245
                  21637555.0004                                   21637550.5784
                                                                        49.0004
        33.7504
  -1242866.09847   -929327.42644
                  23677983.5474                                   23677978.5514
                                                                        43.0004
        25.7504
  -2781933.43748  -2117032.37146
                  21929512.6884                                   21929509.2854
                                                                        49.5004
        39.0004
  -1441513.98047  -1107765.09445
                  23520488.9454                                   23520483.9844
                                                                        45.0004
        30.0004
 09 10 29 23 51 30.0000000  0  8G02G04G05G10G13G16G29G07
   3292164.66048   2589853.48846
                  21037587.5394                                   21037581.5004
                                                                        51.5004
        41.0004
   8377451.05947   6526607.23444
                  23788315.5554                                   23788312.4104
                                                                        43.5004
        28.0004
  -6929605.11748  -5335880.19946
                  21297258.9614                                   21297254.9734
                                                                        50.2504
        41.0004
  -5634857.58248  -4333562.56646
                  20653490.8134                                   20653487.4184
                                                                        52.7504
        41.2504
   2564549.89548   2027469.49245
                  21630033.0554                                   21630028.5204
                                                                        49.5004
        33.2504
  -1376567.97347  -1033510.70343
                  23652540.6644                                   23652535.8244
                                                                        42.5004
        23.7504
  -2889186.39148  -2200606.14546
                  21909103.2034                                   21909099.3324
                                                                        48.5004
        38.2504
  -1621257.54747  -1247825.11745
                  23486285.1334                                   23486280.4534
                                                                        45.0004
        30.7504
 09 10 29 23 52  0.0000000  0  8G02G04G05G10G13G16G29G07
   3259281.04748   2564230.03146
                  21031329.8524                                   21031323.6174
                                                                        51.7504
        41.0004
   8393589.66447   6539182.75444
                  23791386.2424                                   23791383.5744
                                                                        44.7504
        28.7504
  -7094308.38348  -5464220.32046
                  21265916.8444                                   21265912.6684
                                                                        50.5004
        41.5004
  -5779242.54748  -4446070.32046
                  20626015.7734                                   20626012.1914
                                                                        51.7504
        41.2504
   2525614.23848   1997130.12145
                  21622623.7584                                   21622618.5864
                                                                        50.0004
        33.5004
  -1509664.08247  -1137221.98843
                  23627213.0944                                   23627207.8324
                                                                        42.2504
        23.7504
  -2995795.91848  -2283678.46946
                  21888815.7974                                   21888812.5594
                                                                        48.5004
        38.5004
  -1800579.69147  -1387556.72344
                  23452160.6724                                   23452156.5234
                                                                        43.5004
        28.7504
 09 10 29 23 52 30.0000000  0  8G02G04G05G10G13G16G29G07
   3226925.12148   2539017.94546
                  21025172.7194                                   21025166.2854
                                                                        51.5004
        41.2504
   8409910.35247   6551899.98444
                  23794491.5314                                   23794489.0394
                                                                        43.7504
        25.5004
  -7258555.03948  -5592204.65646
                  21234661.9064                                   21234658.0594
                                                                        50.7504
        41.5004
  -5923070.77048  -4558144.28146
                  20598646.1954                                   20598643.2814
                                                                        51.7504
        41.7504
   2487262.77048   1967245.73045
                  21615325.7814                                   21615321.2304
                                                                        49.5004
        33.5004
  -1642157.16046  -1240463.19543
                  23602000.3754                                   23601995.2234
                                                                        40.5004
        22.7504
  -3101766.81247  -2366253.24246
                  21868650.3524                                   21868646.8914
                                                                        47.2504
        38.2504
  -1979482.69147  -1526961.83244
                  23418116.9534                                   23418112.7074
                                                                        42.7504
        28.5004
 09 10 29 23 53  0.0000000  0  8G02G04G05G10G13G16G29G07
   3195092.28548   2514213.22746
                  21019115.0474                                   21019108.8524
                                                                        51.5004
        41.0004
   8426408.74247   6564755.77344
                  23797630.9694                                   23797628.4414
                                                                        43.2504
        24.0004
  -7422345.71148  -5719833.77046
                  21203493.1644                                   21203489.6684
                                                                        51.0004
        41.7504
  -6066343.44948  -4669785.29746
                  20571382.1414                                   20571378.5164
                                                                        52.2504
        40.7504
   2449491.73448   1937813.52345
                  21608138.5314                                   21608133.8914
                                                                        49.0004
        32.7504
  -1774047.99246  -1343235.23043
                  23576902.4844                                   23576896.8284
                                                                        40.5004
        21.7504
  -3207099.93748  -2448331.01646
                  21848606.1334                                   21848602.3364
                                                                        48.7504
        38.7504
  -2157965.72747  -1666039.55944
                  23384152.0864                                   23384148.2384
                                                                        43.0004
        28.0004
 09 10 29 23 53 30.0000000  0  8G02G04G05G10G13G16G29G07
   4739200.64148   3717414.62546
                  21312948.9924                                   21312942.8794
                                                                        51.5004
        40.7504
  10018501.61747   7805347.72344
                  24100596.3914                                   24100593.1454
                                                                        43.0004
        26.0004
  -6010255.00448  -4619503.43446
                  21472205.2114                                   21472201.4414
                                                                        50.5004
        41.0004
  -4633636.02748  -3553389.76646
                  20844017.0164                                   20844013.6954
                                                                        52.5004
        41.5004
   3987718.68448   3136431.68045
                  21900853.3914                                   21900848.9774
                                                                        49.7504
        33.5004
   -329912.84446   -217935.04343
                  23851711.6174                                   23851706.2664
                                                                        40.7504
        22.2504
  -1736373.33248  -1302310.29746
                  22128476.0394                                   22128472.3284
                                                                        48.5004
        38.0004
   -760601.43047   -577184.27044
                  23650061.8834                                   23650058.3444
                                                                        44.0004
        28.0004
 09 10 29 23 54  0.0000000  0  8G02G04G05G10G13G16G29G07
   4708408.49648   3693421.04746
                  21307089.3054                                   21307082.6214
                                                                        51.2504
        41.0004
  10035348.64847   7818475.39544
                  24103802.3984                                   24103799.1374
                                                                        45.0004
        26.5004
  -6173130.57848  -4746419.35946
                  21441211.1804                                   21441206.9884
                                                                        51.5004
        41.2504
  -4775796.14148  -3664163.79346
                  20816965.0944                                   20816961.2154
                                                                        52.0004
        41.7504
   3951100.96948   3107898.35545
                  21893885.0704                                   21893880.8324
                                                                        49.5004
        32.7504
   -460598.01646   -319767.69943
                  23826843.5314                                   23826837.4654
                                                                        40.0004
        22.0004
  -1840432.29348  -1383395.24246
                  22108674.3204                                   22108670.5864
                                                                        50.2504
        39.0004
   -938237.37947   -715601.73844
                  23616259.1884                                   23616254.6374
                                                                        44.5004
        28.5004
 09 10 29 23 54 30.0000000  0  8G02G04G05G10G13G16G29G07
   4678132.66448   3669829.50846
                  21301327.8204                                   21301321.4774
                                                                        51.2504
        41.2504
  10052365.28147   7831735.02344
                  24107040.7584                                   24107037.8134
                                                                        44.5004
        26.5004
  -6335547.15248  -4872977.66446
                  21410304.3204                                   21410300.3794
                                                                        51.2504
        41.2504
  -4917399.11348  -3774503.74646
                  20790019.0314                                   20790015.1294
                                                                        52.2504
        41.5004
   3915055.72748   3079811.12145
                  21887025.8594                                   21887021.4264
                                                                        49.0004
        33.2504
   -590678.77046   -421129.40643
                  23802089.7664                                   23802084.3794
                                                                        40.7504
        22.7504
  -1943854.59048  -1463984.07046
                  22088993.5704                                   22088990.0124
                                                                        49.5004
        38.7504
  -1115446.87147   -853687.07444
                  23582537.2194                                   23582532.5274
                                                                        44.2504
        28.0004
 09 10 29 23 55  0.0000000  0  8G02G04G05G10G13G16G29G07
   4648373.72748   3646640.64146
                  21295664.8674                                   21295658.7114
                                                                        51.7504
        40.7504
  10069552.10947   7845127.32444
                  24110311.0634                                   24110308.6374
                                                                        43.0004
        27.0004
  -6497500.98848  -4999175.42246
                  21379485.3594                                   21379481.3324
                                                                        51.5004
        41.2504
  -5058441.62148  -3884407.11346
                  20763179.4224                                   20763176.1024
                                                                        51.7504
        41.0004
   3879583.04748   3052170.03945
                  21880276.3204                                   21880271.2074
                                                                        49.2504
        33.5004
   -720151.66847   -522017.49243
                  23777452.8754                                   23777446.9654
                                                                        42.0004
        22.7504
  -2046637.39548  -1544074.47746
                  22069434.4064                                   22069430.9534
                                                                        50.0004
        38.5004
  -1292224.98447   -991436.28544
                  23548897.5394                                   23548892.9344
                                                                        44.5004
        29.2504
 09 10 29 23 55 30.0000000  0  8G02G04G05G10G13G16G29G07
   4619130.41848   3623853.60246
                  21290100.1884                                   21290094.1054
                                                                        51.2504
        40.7504
  10086906.81647   7858650.39844
                  24113613.7814                                   24113610.8984
                                                                        43.0004
        28.7504
  -6658990.26648  -5125011.16046
                  21348754.9924                                   21348750.9184
                                                                        52.2504
        41.7504
  -5198922.45748  -3993872.73846
                  20736446.5944                                   20736443.1134
                                                                        52.2504
        41.2504
   3844680.55548   3024973.31345
                  21873634.2274                                   21873629.6214
                                                                        49.5004
        33.2504
   -849015.71947   -622431.25843
                  23752930.4304                                   23752925.3094
                                                                        42.0004
        23.5004
  -2148781.14148  -1623667.04346
                  22049997.3444                                   22049994.3164
                                                                        50.2504
        38.0004
  -1468569.10247  -1128847.40644
                  23515340.3284                                   23515335.9534
                                                                        44.2504
        28.0004
 09 10 29 23 56  0.0000000  0  8G02G04G05G10G13G16G29G07
   4590399.41448   3601465.88746
                  21284632.8204                                   21284626.7624
                                                                        51.2504
        40.7504
  10104425.67647   7872301.24644
                  24116947.6024                                   24116944.8404
                                                                        43.2504
        28.0004
  -6820015.13348  -5250485.01646
                  21318112.9304                                   21318108.9344
                                                                        51.2504
        41.7504
  -5338842.23448  -4102901.09446
                  20709821.0164                                   20709817.5594
                                                                        52.2504
        41.5004
   3810344.07048   2998217.52345
                  21867100.0234                                   21867095.6604
                                                                        49.0004
        33.0004
   -977271.38347   -722370.91443
                  23728524.8594                                   23728519.0164
                                                                        42.2504
        22.5004
  -2250286.42248  -1702762.06246
                  22030681.9224                                   22030677.5984
                                                                        49.7504
        38.2504
  -1644477.79746  -1265919.25044
                  23481865.9694                                   23481861.7664
                                                                        41.7504
        29.2504
 09 10 29 23 56 30.0000000  0  8G02G04G05G10G13G16G29G07
   4562180.70348   3579477.33246
                  21279262.8914                                   21279256.6954
                                                                        52.2504
        40.7504
  10122108.51247   7886079.97744
                  24120312.4064                                   24120309.9144
                                                                        42.2504
        26.0004
  -6980572.98048  -5375595.08646
                  21287559.8674                                   21287556.1484
                                                                        51.0004
        41.5004
  -5478197.78948  -4211489.72346
                  20683302.3204                                   20683298.3634
                                                                        52.2504
        41.2504
   3776573.33648   2971902.55145
                  21860674.1804                                   21860669.4064
                                                                        49.0004
        33.0004
  -1104915.21546   -821833.59044
                  23704234.9224                                   23704229.8914
                                                                        41.5004
        24.0004
  -2351151.43448  -1781358.08246
                  22011487.7664                                   22011484.0664
                                                                        50.0004
        39.2504
  -1819946.37947  -1402647.84044
                  23448475.7734                                   23448471.5474
                                                                        44.7504
        29.0004
 09 10 29 23 57  0.0000000  0  8G02G04G05G10G13G16G29G07
   4534471.28548   3557885.58646
                  21273990.2114                                   21273983.8984
                                                                        51.0004
        40.2504
  10139951.94146   7899983.60544
                  24123707.6094                                   24123705.4184
                                                                        40.0004
        24.2504
  -7140663.16048  -5500340.87146
                  21257095.7814                                   21257091.8874
                                                                        52.0004
        41.2504
  -5616989.68748  -4319639.23846
                  20656891.3284                                   20656887.3014
                                                                        52.5004
        41.5004
   3743364.83247   2946025.66045
                  21854354.2814                                   21854350.4494
                                                                        47.5004
        32.5004
  -1231946.91847   -920819.09843
                  23680061.6024                                   23680056.0634
                                                                        42.0004
        23.0004
  -2451377.41448  -1859456.19146
                  21992415.3054                                   21992412.0124
                                                                        50.5004
        39.5004
  -1994974.48447  -1539033.50444
                  23415169.0474                                   23415165.0824
                                                                        43.5004
        29.5004
 09 10 29 23 57 30.0000000  0  8G02G04G05G10G13G16G29G07
   4507267.56348   3536687.94146
                  21268813.0864                                   21268806.8634
                                                                        51.5004
        41.0004
  10157952.04746   7914009.43043
                  24127133.5554                                   24127130.2894
                                                                        40.7504
        22.2504
  -7300285.15248  -5624721.65247
                  21226720.6174                                   21226716.8524
                                                                        52.5004
        42.0004
  -5755218.56248  -4427350.00046
                  20630587.0554                                   20630583.2854
                                                                        52.2504
        41.7504
   3710714.68048   2920583.90245
                  21848141.6884                                   21848137.3754
                                                                        48.5004
        32.5004
  -1358367.89147  -1019328.76243
                  23656004.0474                                   23655998.9694
                                                                        42.2504
        22.5004
  -2550965.65248  -1937057.42246
                  21973464.2344                                   21973460.0204
                                                                        50.2504
        38.7504
  -2169560.32847  -1675074.44544
                  23381945.8134                                   23381942.0274
                                                                        44.0004
        28.5004
 09 10 29 23 58  0.0000000  0  8G02G04G05G10G13G16G29G07
   4480568.95748   3515883.86746
                  21263732.6724                                   21263726.4614
                                                                        51.5004
        39.7504
  10176105.14146   7928152.81343
                  24130589.5554                                   24130587.2074
                                                                        41.0004
        22.5004
  -7459437.02048  -5748736.06647
                  21196434.9534                                   21196430.9264
                                                                        51.0004
        42.0004
  -5892882.59048  -4534620.75846
                  20604390.3204                                   20604387.0354
                                                                        51.2504
        41.7504
   3678621.62547   2895576.28545
                  21842034.3834                                   21842030.1724
                                                                        47.7504
        32.5004
  -1484175.80146  -1117360.82044
                  23632063.2424                                   23632058.9024
                                                                        41.7504
        24.5004
  -2649915.52348  -2014161.30546
                  21954635.0004                                   21954631.2504
                                                                        49.7504
        39.0004
  -2343700.09447  -1810767.82844
                  23348808.1804                                   23348804.5634
                                                                        43.7504
        29.5004
 09 10 29 23 58 30.0000000  0  8G02G04G05G10G13G16G29G07
   4454372.78548   3495471.25446
                  21258747.7424                                   21258741.6294
                                                                        51.0004
        40.7504
  10194412.52347   7942227.19154
                  24134074.4534                                   24134071.9304
                                                                        42.5004
        28.2504
  -7618117.98448  -5872383.53946
                  21166239.2344                                   21166235.1174
                                                                        51.2504
        41.7504
  -6029981.06248  -4641450.91046
                  20578301.6094                                   20578298.2974
                                                                        52.5004
        41.7504
   3647082.45748   2871000.09845
                  21836033.0394                                   21836028.9304
                                                                        48.7504
        32.0004
  -1609370.25846  -1214914.82444
                  23608239.3054                                   23608235.1604
                                                                        41.7504
        25.0004
  -2748226.75848  -2090767.43446
                  21935926.9064                                   21935923.3014
                                                                        50.0004
        38.5004
  -2517391.89847  -1946112.19545
                  23315756.6414                                   23315752.6024
                                                                        43.0004
        30.0004
 09 10 29 23 59  0.0000000  0  8G02G04G05G10G13G16G29G07
   4428678.09048   3475449.44146
                  21253857.7734                                   21253851.8984
                                                                        52.0004
        40.5004
  10212876.72747   7956041.18054
                  24137587.5394                                   24137584.9734
                                                                        44.7504
        28.2504
  -7776325.69548  -5995662.29746
                  21136133.0634                                   21136129.1684
                                                                        51.2504
        41.7504
  -6166511.73848  -4747838.42246
                  20552320.8524                                   20552317.2344
                                                                        52.5004
        41.7504
   3616096.60248   2846855.35545
                  21830136.7114                                   21830132.2854
                                                                        48.0004
        32.2504
  -1733949.60246  -1311989.62144
                  23584533.6024                                   23584528.4414
                                                                        41.5004
        25.2504
  -2845898.71948  -2166875.38346
                  21917340.0864                                   21917336.6524
                                                                        49.2504
        38.5004
  -2690631.95347  -2081104.34044
                  23282789.7814                                   23282785.6454
                                                                        45.0004
        29.5004
 09 10 29 23 59 30.0000000  0  8G02G04G05G10G13G16G29G07
   4403484.03148   3455817.66846
                  21249064.1024                                   21249057.9654
                                                                        50.7504
        40.2504
  10231490.43847   7970545.84444
                  24141128.6564                                   24141126.7584
                                                                        44.5004
        26.7504
  -7934057.27048  -6118569.96947
                  21106117.9144                                   21106113.7814
                                                                        51.5004
        42.2504
  -6302473.39548  -4853782.58647
                  20526448.2664                                   20526444.5984
                                                                        53.0004
        42.0004
   3585661.85248   2823140.02745
                  21824345.0944                                   21824340.0904
                                                                        48.7504
        32.2504
  -1857911.07447  -1408583.00444
                  23560943.5704                                   23560939.4384
                                                                        42.0004
        25.2504
  -2942930.22348  -2242484.18046
                  21898875.5554                                   21898872.2274
                                                                        49.0004
        38.5004
  -2863416.89847  -2215741.88344
                  23249909.8914                                   23249905.4734
                                                                        43.2504
        29.7504
