     2.11           OBSERVATION DATA    G (GPS)             RINEX VERSION / TYPE
teqc  2019Feb25                         20221121 12:28:44UTCPGM / RUN BY / DATE
OSX ker:10.11.6|Core i5|gcc 4.3 -m64|OSX ker:10.10+|=+      COMMENT
BIT 2 OF LLI FLAGS DATA COLLECTED UNDER A/S CONDITION       COMMENT
04712981                                                    MARKER NAME
2981                                                        MARKER NUMBER
-Unknown-           -Unknown-                               OBSERVER / AGENCY
0220400471          TRIMBLE R7          2.30                REC # / TYPE / VERS
-Unknown-           TRM39105.00     NONE                    ANT # / TYPE
  1449458.9683 -1709242.3341  5952441.9010                  APPROX POSITION XYZ
        0.0000        0.0000        0.0000                  ANTENNA: DELTA H/E/N
     1     1                                                WAVELENGTH FACT L1/2
    20    L1    L2    L5    L6    L7    L8    C1    P1    C2# / TYPES OF OBSERV
          P2    C5    C6    C7    C8    S1    S2    S5    S6# / TYPES OF OBSERV
          S7    S8                                          # / TYPES OF OBSERV
    30.0000                                                 INTERVAL
    15                                                      LEAP SECONDS
Forced Modulo Decimation to 30 seconds                      COMMENT
 SNR is mapped to RINEX snr flag value [0-9]                COMMENT
  L1 & L2: min(max(int(snr_dBHz/6), 0), 9)                  COMMENT
teqc edited: Beidou # 1 - 37 excluded                       COMMENT
  2009    10    25    23    11    0.0000000     GPS         TIME OF FIRST OBS
                                                            END OF HEADER
 09 10 25 23 11  0.0000000  0  9G02G04G05G10G13G23G25G29G30
   -123045.32858    -70653.94557
                  20432732.2274                                   20432726.4454
                                                                        52.0004
        43.2504
    -22065.45358    -12584.27356
                  21722924.8594                                   21722922.0744
                                                                        51.0004
        38.7504
   -255738.56657   -139236.05955
                  23331555.4534                                   23331551.7734
                                                                        45.5004
        32.7504
   -246803.22358   -134366.79355
                  22409208.3204                                   22409204.5744
                                                                        48.2504
        34.7504
   -142134.00458    -78623.23856
                  21245965.4614                                   21245961.2464
                                                                        49.5004
        37.0004
    -43409.25057    -24289.53955
                  22414988.0554                                   22414981.9344
                                                                        47.0004
        31.7504
   -224971.18057   -124639.30153
                  23953520.3284                                   23953517.1524
                                                                        42.5004
        22.5004
   -213257.37157   -116917.89855
                  22943532.6254                                   22943529.0004
                                                                        43.2504
        33.0004
    -10007.48857     -6132.52054
                  23863713.9384                                   23863711.2854
                                                                        43.0004
        25.5004
 09 10 25 23 11 30.0000000  0  9G02G04G05G10G13G23G25G29G30
   -223861.30548   -149211.85247
                  20413547.5634                                   20413541.8164
                                                                        53.0004
        43.0004
    -42132.08248    -28220.62146
                  21719106.1644                                   21719103.2234
                                                                        50.7504
        38.0004
   -462143.42647   -300071.03545
                  23292277.7114                                   23292274.0864
                                                                        46.0004
        33.5004
   -445965.03547   -289557.80145
                  22371308.6484                                   22371305.6684
                                                                        47.7504
        34.5004
   -258141.52748   -169018.71946
                  21223889.8054                                   21223885.6644
                                                                        50.2504
        36.7504
    -80510.76647    -53199.81245
                  22407927.6724                                   22407921.5554
                                                                        47.2504
        30.7504
   -409627.19547   -268526.96543
                  23918381.5314                                   23918378.4804
                                                                        42.5004
        23.7504
   -386483.42247   -251899.21945
                  22910568.3834                                   22910565.0554
                                                                        44.5004
        33.2504
    -20617.02047    -14399.69943
                  23861693.8444                                   23861692.0314
                                                                        42.5004
        23.7504
 09 10 25 23 12  0.0000000  0  9G02G04G05G10G13G23G25G29G30
   -324455.89848   -227597.25847
                  20394405.1884                                   20394399.7704
                                                                        52.5004
        43.0004
    -62165.24248    -43830.88746
                  21715294.0164                                   21715290.7234
                                                                        50.5004
        38.0004
   -668692.74247   -461018.56245
                  23252972.6024                                   23252969.1294
                                                                        44.7504
        32.2504
   -645165.57048   -444779.02345
                  22333402.2734                                   22333399.1994
                                                                        48.2504
        34.7504
   -373843.80148   -259176.34046
                  21201872.1254                                   21201867.9774
                                                                        50.2504
        37.0004
   -117460.24647    -81991.62145
                  22400896.4534                                   22400890.3914
                                                                        47.0004
        31.7504
   -594317.48047   -412441.36744
                  23883236.3444                                   23883232.7704
                                                                        42.0004
        24.5004
   -559629.19147   -386817.98845
                  22877620.2034                                   22877616.9964
                                                                        45.5004
        34.0004
    -31197.86347    -22644.52743
                  23859680.6484                                   23859678.3164
                                                                        43.0004
        22.7504
 09 10 25 23 12 30.0000000  0  9G02G04G05G10G13G23G25G29G30
   -424466.10248   -305527.28947
                  20375373.7734                                   20375368.2734
                                                                        52.2504
        43.5004
    -81804.32848    -59134.07846
                  21711557.0394                                   21711553.7664
                                                                        50.7504
        37.5004
   -875021.52347   -621794.21145
                  23213709.5704                                   23213705.9844
                                                                        45.0004
        32.2504
   -844039.85947   -599746.00445
                  22295557.8524                                   22295554.7234
                                                                        47.5004
        34.7504
   -488877.85248   -348813.28146
                  21179982.0634                                   21179977.6414
                                                                        50.2504
        37.0004
   -153897.23447   -110384.08645
                  22393962.5704                                   22393956.4774
                                                                        47.0004
        31.7504
   -778676.79746   -556097.87144
                  23848153.6724                                   23848150.2384
                                                                        41.7504
        24.5004
   -732329.53547   -521389.65245
                  22844756.1804                                   22844752.8134
                                                                        45.0004
        34.0004
    -41390.49247    -30586.90244
                  23857740.8914                                   23857738.8594
                                                                        43.0004
        25.2504
 09 10 25 23 13  0.0000000  0  9G02G04G05G10G13G23G25G29G30
   -523761.73048   -382900.52047
                  20356478.4774                                   20356473.0084
                                                                        52.7504
        43.5004
   -100921.37948    -74030.49246
                  21707918.9384                                   21707915.8554
                                                                        49.5004
        37.5004
  -1080998.65247   -782295.87945
                  23174513.9064                                   23174510.2814
                                                                        46.0004
        33.7504
  -1042455.66848   -754355.71945
                  22257800.7344                                   22257797.5434
                                                                        48.5004
        34.7504
   -603113.34448   -437827.95746
                  21158243.9064                                   21158239.8794
                                                                        49.7504
        37.0004
   -189693.84047   -138277.55545
                  22387150.3054                                   22387144.5784
                                                                        46.0004
        31.2504
   -962572.46546   -699393.11344
                  23813159.1724                                   23813155.9574
                                                                        40.7504
        24.7504
   -904452.51247   -655511.43745
                  22812002.2734                                   22811999.1684
                                                                        45.0004
        34.0004
    -51067.99247    -38127.87544
                  23855900.3984                                   23855897.4774
                                                                        43.0004
        25.2504
 09 10 25 23 13 30.0000000  0  9G02G04G05G10G13G23G25G29G30
   -622278.89848   -459667.15247
                  20337731.2344                                   20337725.6024
                                                                        52.5004
        43.5004
   -119454.80548    -88472.13346
                  21704392.3134                                   21704389.0234
                                                                        50.2504
        37.2504
  -1286558.20747   -942472.14845
                  23135396.8364                                   23135393.2854
                                                                        45.5004
        34.5004
  -1240347.53947   -908557.18045
                  22220142.7974                                   22220139.6524
                                                                        47.7504
        34.7504
   -716486.43448   -526170.63346
                  21136669.8444                                   21136665.2854
                                                                        49.7504
        37.0004
   -224788.73048   -165624.23445
                  22380473.0084                                   22380466.4574
                                                                        48.0004
        31.7504
  -1145938.00046   -842275.23443
                  23778265.2664                                   23778262.1134
                                                                        41.5004
        22.5004
  -1075932.21947   -789131.98045
                  22779371.0474                                   22779367.2734
                                                                        44.0004
        32.5004
    -60170.23447    -45220.57444
                  23854167.8984                                   23854164.8244
                                                                        44.5004
        27.0004
 09 10 25 23 14  0.0000000  0  9G02G04G05G10G13G23G25G29G30
   -719980.62548   -535798.37547
                  20319139.1954                                   20319133.6844
                                                                        52.5004
        43.5004
   -137369.60248   -102431.73046
                  21700983.3284                                   21700980.2154
                                                                        50.2504
        38.0004
  -1491661.01647  -1102292.46545
                  23096367.4384                                   23096364.0084
                                                                        47.2504
        34.2504
  -1437676.05948  -1062319.65245
                  22182592.9304                                   22182589.0664
                                                                        48.5004
        34.7504
   -828959.84048   -613812.26246
                  21115266.3984                                   21115262.4804
                                                                        50.5004
        37.5004
   -259147.27347   -192397.12545
                  22373934.5704                                   22373928.1954
                                                                        47.7504
        32.0004
  -1328734.21546   -984713.79343
                  23743480.5234                                   23743477.4694
                                                                        41.2504
        23.2504
  -1246729.24247   -922220.54345
                  22746869.2274                                   22746865.5554
                                                                        45.0004
        33.5004
    -68663.07047    -51838.38343
                  23852551.9844                                   23852548.2304
                                                                        43.0004
        22.7504
 09 10 25 23 14 30.0000000  0  9G02G04G05G10G13G23G25G29G30
   -816851.96948   -611282.54747
                  20300705.3524                                   20300699.7974
                                                                        52.2504
        43.7504
   -154653.27048   -115899.54346
                  21697694.1414                                   21697690.9534
                                                                        50.0004
        37.5004
  -1696290.80947  -1261744.20345
                  23057427.3754                                   23057423.9654
                                                                        46.5004
        33.5004
  -1634424.73448  -1215630.30945
                  22145152.5554                                   22145149.4104
                                                                        48.5004
        34.7504
   -940518.27748   -700740.91046
                  21094037.8524                                   21094033.6484
                                                                        50.5004
        37.5004
   -292756.81247   -218586.37945
                  22367538.6414                                   22367532.3444
                                                                        47.0004
        32.2504
  -1510943.41046  -1126694.94543
                  23708807.4924                                   23708803.7704
                                                                        41.2504
        22.5004
  -1416826.93747  -1054764.18745
                  22714500.2344                                   22714497.1294
                                                                        45.2504
        33.0004
    -76535.11747    -57972.43443
                  23851053.8444                                   23851050.1914
                                                                        43.2504
        22.5004
 09 10 25 23 15  0.0000000  0  9G02G04G05G10G13G23G25G29G30
    662536.55148    541487.71947
                  20582223.4144                                   20582217.6254
                                                                        52.2504
        43.5004
   1404118.96948   1098728.13746
                  21994318.5234                                   21994315.5554
                                                                        50.2504
        38.5004
   -325012.61347   -193215.70745
                  23318373.1414                                   23318369.5164
                                                                        47.0004
        33.5004
   -255158.87148   -140877.64845
                  22407618.0784                                   22407614.7504
                                                                        48.0004
        35.5004
    524268.24248    440651.18046
                  21372777.1024                                   21372772.7384
                                                                        49.0004
        37.2504
   1249807.88747    983412.06645
                  22661078.6174                                   22661072.8444
                                                                        46.7504
        32.0004
   -117130.97346    -40607.25443
                  23974040.4694                                   23974036.9964
                                                                        41.7504
        22.5004
    -10791.45347     40847.89145
                  22982059.8594                                   22982056.9064
                                                                        44.5004
        33.5004
   1491636.57046   1163979.55143
                  24149466.4924                                   24149463.9264
                                                                        41.5004
        23.5004
 09 10 25 23 15 30.0000000  0  9G02G04G05G10G13G23G25G29G30
    567345.00048    467312.48047
                  20564109.4534                                   20564103.8094
                                                                        52.5004
        43.5004
   1388110.23448   1086253.79346
                  21991272.1954                                   21991269.4344
                                                                        50.2504
        38.0004
   -528671.93447   -351911.26245
                  23279617.7344                                   23279614.0394
                                                                        46.5004
        33.7504
   -450723.13348   -293265.38345
                  22370403.2274                                   22370400.0084
                                                                        48.0004
        35.2504
    414558.73448    355163.25046
                  21351900.3364                                   21351896.5904
                                                                        50.0004
        37.5004
   1217708.25047    958399.35945
                  22654970.7974                                   22654964.5984
                                                                        46.5004
        31.0004
   -298140.18447   -181653.43444
                  23939596.3444                                   23939591.8984
                                                                        43.2504
        24.5004
   -179465.25047    -90586.22745
                  22949962.2344                                   22949959.0204
                                                                        44.0004
        33.5004
   1485014.25846   1158819.25043
                  24148206.8444                                   24148203.8554
                                                                        41.0004
        22.7504
 09 10 25 23 16  0.0000000  0  9G02G04G05G10G13G23G25G29G30
    472995.12548    393793.09847
                  20546154.9454                                   20546149.3714
                                                                        51.5004
        43.2504
   1372737.66448   1074275.14146
                  21988347.2584                                   21988344.4184
                                                                        49.2504
        37.2504
   -731841.63747   -510225.35545
                  23240956.1484                                   23240952.0514
                                                                        47.7504
        33.5004
   -645690.13347   -445187.71145
                  22333302.3914                                   22333299.3874
                                                                        47.2504
        35.5004
    305775.53948    270397.13346
                  21331199.6484                                   21331195.6254
                                                                        49.0004
        37.5004
   1186361.35947    933973.21145
                  22649005.1724                                   22648999.6094
                                                                        45.0004
        31.5004
   -478543.56247   -322227.49643
                  23905266.7974                                   23905262.6414
                                                                        42.5004
        22.7504
   -347422.31247   -221461.85245
                  22918001.2664                                   22917998.1094
                                                                        44.5004
        33.5004
   1479013.99246   1154143.60544
                  24147064.3594                                   24147062.6524
                                                                        41.0004
        26.0004
 09 10 25 23 16 30.0000000  0  9G02G04G05G10G13G23G25G29G30
    379481.94148    320925.67647
                  20528360.0004                                   20528354.6334
                                                                        51.5004
        43.2504
   1357993.93848   1062786.50446
                  21985541.5784                                   21985538.4144
                                                                        48.0004
        36.7504
   -934524.63347   -668160.15645
                  23202386.5704                                   23202383.0044
                                                                        47.2504
        34.0004
   -840063.00448   -596647.09045
                  22296314.4774                                   22296311.5314
                                                                        48.2504
        35.7504
    197913.33648    186348.66046
                  21310673.8364                                   21310670.0394
                                                                        48.5004
        37.0004
   1155759.98847    910127.97345
                  22643182.1094                                   22643176.8554
                                                                        45.7504
        31.0004
   -658344.06646   -462331.73444
                  23871051.0944                                   23871047.9884
                                                                        39.5004
        24.0004
   -514665.61347   -351781.32845
                  22886175.8984                                   22886172.7624
                                                                        44.0004
        34.2504
   1473627.35946   1149946.17243
                  24146039.2114                                   24146037.7974
                                                                        39.7504
        22.5004
 09 10 25 23 17  0.0000000  0  9G02G04G05G10G13G23G25G29G30
    286797.46948    248704.00047
                  20510722.3594                                   20510717.2544
                                                                        51.5004
        43.2504
   1343869.12948   1051780.15246
                  21982853.7894                                   21982850.2464
                                                                        49.2504
        37.0004
  -1136727.07447   -825720.49245
                  23163908.6024                                   23163905.0514
                                                                        47.2504
        34.5004
  -1033848.24647   -747648.57845
                  22259438.0164                                   22259435.2544
                                                                        47.2504
        35.7504
     90965.30148    103012.52046
                  21290322.6484                                   21290318.7424
                                                                        48.5004
        37.2504
   1125894.18447    886855.91045
                  22637498.9774                                   22637492.8914
                                                                        46.5004
        30.5004
   -837546.69546   -601970.10543
                  23836950.1334                                   23836947.4694
                                                                        39.7504
        23.2504
   -681200.95347   -481549.11745
                  22854485.1644                                   22854482.7424
                                                                        44.5004
        34.0004
   1468842.81346   1146217.93043
                  24145128.8054                                   24145127.1954
                                                                        40.5004
        22.7504
 09 10 25 23 17 30.0000000  0  9G02G04G05G10G13G23G25G29G30
    194939.54348    177126.39847
                  20493242.8524                                   20493237.2544
                                                                        52.0004
        43.0004
   1330359.01648   1041252.76646
                  21980282.7584                                   21980279.2544
                                                                        49.2504
        37.0004
  -1338448.98447   -982906.37545
                  23125522.2114                                   23125519.1414
                                                                        47.2504
        35.0004
  -1227045.21147   -898191.64545
                  22222673.8754                                   22222670.9924
                                                                        47.7504
        35.2504
    -15071.16448     20386.70346
                  21270144.3524                                   21270140.4264
                                                                        49.7504
        36.7504
   1096759.04347    864153.19545
                  22631954.7274                                   22631948.4064
                                                                        47.5004
        30.7504
  -1016151.13746   -741142.35243
                  23802963.1724                                   23802960.0044
                                                                        40.0004
        22.7504
   -847028.04747   -610765.00445
                  22822929.4694                                   22822926.3364
                                                                        44.7504
        34.5004
   1464654.99247   1142954.59844
                  24144332.5944                                   24144330.4654
                                                                        42.7504
        24.7504
 09 10 25 23 18  0.0000000  0  9G02G04G05G10G13G23G25G29G30
    103903.65648    106189.33647
                  20475919.2734                                   20475913.6564
                                                                        51.7504
        43.0004
   1317456.83248   1031199.10246
                  21977827.6414                                   21977824.2854
                                                                        49.2504
        37.5004
  -1539693.43447  -1139720.18445
                  23087226.9694                                   23087222.8244
                                                                        47.0004
        34.0004
  -1419656.80147  -1048278.56645
                  22186021.4534                                   22186018.0084
                                                                        47.0004
        35.7504
   -120200.50448    -61532.27346
                  21250139.2504                                   21250135.0004
                                                                        48.7504
        37.2504
   1068348.00047    842014.70745
                  22626548.3754                                   22626541.9574
                                                                        45.2504
        30.7504
  -1194159.55146   -879850.13744
                  23769088.9534                                   23769085.5594
                                                                        40.0004
        26.0004
  -1012149.32847   -739430.91045
                  22791507.7584                                   22791504.6024
                                                                        44.5004
        34.0004
   1461056.32447   1140150.36743
                  24143647.9614                                   24143645.7504
                                                                        42.0004
        22.2504
 09 10 25 23 18 30.0000000  0  9G02G04G05G10G13G23G25G29G30
     13682.59848     35887.20747
                  20458750.9304                                   20458745.5234
                                                                        52.0004
        43.5004
   1305153.37548   1021611.97346
                  21975486.3834                                   21975483.0864
                                                                        49.5004
        37.0004
  -1740465.37548  -1296165.87545
                  23049020.8284                                   23049017.5044
                                                                        48.0004
        34.7504
  -1611688.08648  -1197913.33645
                  22149479.3674                                   22149475.6134
                                                                        48.0004
        35.2504
   -224429.72748   -142749.85246
                  21230304.6174                                   21230300.9654
                                                                        49.2504
        37.5004
   1040651.34847    820432.89545
                  22621277.9304                                   22621271.4304
                                                                        45.7504
        30.7504
  -1371576.47746  -1018097.05544
                  23735327.9774                                   23735324.7304
                                                                        41.5004
        26.0004
  -1176570.31247   -867551.13345
                  22760219.6484                                   22760216.5354
                                                                        45.0004
        34.5004
   1458036.22347   1137796.90244
                  24143073.3594                                   24143071.1254
                                                                        43.0004
        24.0004
 09 10 25 23 19  0.0000000  0  9G02G04G05G10G13G23G25G29G30
    -75728.38748    -33783.69147
                  20441736.5944                                   20441730.6804
                                                                        52.0004
        43.2504
   1293442.03948   1012486.25446
                  21973257.4924                                   21973254.8134
                                                                        49.5004
        37.2504
  -1940767.83647  -1452245.69145
                  23010904.7814                                   23010901.1294
                                                                        47.7504
        34.5004
  -1803141.53548  -1347097.84845
                  22113046.6564                                   22113043.4844
                                                                        48.0004
        35.7504
   -327763.39848   -223269.60246
                  21210641.0164                                   21210637.7034
                                                                        49.2504
        37.2504
   1013662.10247    799402.30944
                  22616141.6954                                   22616135.4144
                                                                        45.5004
        29.5004
  -1548403.94147  -1155884.69544
                  23701678.8914                                   23701675.5554
                                                                        42.2504
        26.2504
  -1340293.56747   -995127.67145
                  22729064.0004                                   22729060.7854
                                                                        45.2504
        34.0004
   1455586.73847   1135888.15243
                  24142607.0784                                   24142604.5664
                                                                        43.2504
        22.5004
 09 10 25 23 19 30.0000000  0  9G02G04G05G10G13G23G25G29G30
   -164338.87548   -102830.82847
                  20424874.3444                                   20424868.9804
                                                                        51.5004
        43.2504
   1282310.75848   1003812.50846
                  21971139.4384                                   21971136.5434
                                                                        49.2504
        36.7504
  -2140608.46547  -1607965.66845
                  22972876.0864                                   22972872.8954
                                                                        47.5004
        35.0004
  -1994025.06248  -1495838.24646
                  22076722.6804                                   22076719.2344
                                                                        48.5004
        36.2504
   -430211.50848   -303099.31646
                  21191145.9384                                   21191141.9064
                                                                        49.7504
        37.2504
    987368.18047    778913.55544
                  22611137.6094                                   22611131.9384
                                                                        45.7504
        29.7504
  -1724649.18447  -1293218.60544
                  23668140.5164                                   23668136.5004
                                                                        42.2504
        25.5004
  -1503326.39847  -1122166.23445
                  22698039.7734                                   22698036.8714
                                                                        45.5004
        34.5004
   1453694.80546   1134413.87143
                  24142247.0084                                   24142244.6174
                                                                        41.7504
        22.5004
 09 10 25 23 20  0.0000000  0  9G02G04G05G10G13G23G25G29G30
   -252152.16848   -171256.77747
                  20408163.8754                                   20408158.2544
                                                                        51.5004
        43.2504
   1271754.70748    995586.98046
                  21969130.7424                                   21969127.4304
                                                                        49.0004
        36.5004
  -2339988.20747  -1763326.50845
                  22934935.5944                                   22934931.7814
                                                                        47.0004
        34.0004
  -2184339.86747  -1644135.46546
                  22040506.8754                                   22040503.9574
                                                                        47.7504
        36.0004
   -531777.06248   -382241.32046
                  21171818.5314                                   21171814.6644
                                                                        49.2504
        37.5004
    961763.81347    758962.09845
                  22606265.7974                                   22606260.0984
                                                                        47.0004
        30.5004
  -1900312.88347  -1430099.33244
                  23634712.4924                                   23634708.7384
                                                                        42.0004
        26.5004
  -1665670.14847  -1248667.85945
                  22667146.9384                                   22667143.7304
                                                                        45.0004
        33.7504
   1452353.52346   1133368.66043
                  24141991.8054                                   24141989.2234
                                                                        41.2504
        22.2504
 09 10 25 23 20 30.0000000  0  8G02G04G05G10G13G23G25G29
   -339173.97348   -239065.98047
                  20391604.2504                                   20391598.7344
                                                                        51.5004
        43.2504
   1261766.02748    987803.55146
                  21967229.8524                                   21967227.0204
                                                                        49.5004
        36.7504
  -2538911.04347  -1918331.30545
                  22897081.7034                                   22897078.5314
                                                                        47.5004
        34.7504
  -2374088.80548  -1791991.77346
                  22004398.9144                                   22004395.9304
                                                                        49.0004
        36.0004
   -632465.59048   -460699.93446
                  21152658.1174                                   21152653.8714
                                                                        50.2504
        37.0004
    936841.41447    739542.03545
                  22601523.4064                                   22601517.6604
                                                                        46.7504
        31.0004
  -2075398.02746  -1566529.32043
                  23601394.9614                                   23601391.1414
                                                                        40.0004
        22.7504
  -1827328.04747  -1374635.04745
                  22636384.0704                                   22636380.8754
                                                                        46.0004
        34.2504
 09 10 25 23 21  0.0000000  0  8G02G04G05G10G13G23G25G29
   -425407.83248   -306261.19947
                  20375194.4384                                   20375188.8204
                                                                        52.0004
        43.5004
   1252338.96548    980457.75446
                  21965435.9614                                   21965432.9884
                                                                        50.0004
        37.0004
  -2737378.66848  -2072981.39845
                  22859314.2664                                   22859311.1684
                                                                        48.0004
        35.2504
  -2563273.95748  -1939408.79346
                  21968398.4534                                   21968395.1884
                                                                        48.5004
        36.2504
   -732280.69148   -538477.94546
                  21133664.0314                                   21133660.4344
                                                                        50.0004
        37.7504
    912594.82847    720648.58245
                  22596909.4384                                   22596903.5514
                                                                        46.0004
        30.5004
  -2249905.72346  -1702509.33243
                  23568187.0394                                   23568183.3094
                                                                        41.5004
        23.0004
  -1988301.51647  -1500068.91445
                  22605751.8524                                   22605748.6294
                                                                        44.7504
        33.0004
 09 10 25 23 21 30.0000000  0  8G02G04G05G10G13G23G25G29
   -510853.67248   -372842.37147
                  20358934.8524                                   20358929.1644
                                                                        52.7504
        43.5004
   1243471.85248    973548.30546
                  21963748.7114                                   21963745.9494
                                                                        50.0004
        37.5004
  -2935389.05947  -2227275.18445
                  22821634.5474                                   22821631.3444
                                                                        47.7504
        35.2504
  -2751893.02048  -2086384.69546
                  21932505.2504                                   21932502.3554
                                                                        49.0004
        36.2504
   -831222.31648   -615575.30946
                  21114835.9534                                   21114832.3984
                                                                        50.5004
        37.0004
    889021.73047    702279.91845
                  22592423.3594                                   22592417.7464
                                                                        45.7504
        31.0004
  -2423833.32047  -1838037.39843
                  23535089.2584                                   23535085.8874
                                                                        42.2504
        22.5004
  -2148588.88747  -1624968.16445
                  22575250.5084                                   22575246.8244
                                                                        46.0004
        33.7504
 09 10 25 23 22  0.0000000  0  8G02G04G05G10G13G23G25G29
   -595512.56648   -438810.34447
                  20342824.7344                                   20342819.2074
                                                                        52.0004
        43.0004
   1235161.09048    967072.35946
                  21962167.6334                                   21962164.6454
                                                                        49.5004
        36.7504
  -3132941.17248  -2381211.89545
                  22784041.5004                                   22784038.4884
                                                                        48.2504
        34.7504
  -2939945.48848  -2232919.09046
                  21896720.2344                                   21896716.6684
                                                                        48.7504
        36.5004
   -929291.89848   -691993.16046
                  21096174.0084                                   21096169.9804
                                                                        50.0004
        37.5004
    866118.83247    684433.49645
                  22588065.1644                                   22588059.2774
                                                                        45.7504
        31.0004
  -2597179.31246  -1973112.26644
                  23502103.5394                                   23502099.2194
                                                                        41.7504
        25.5004
  -2308188.97747  -1749331.86745
                  22544879.8594                                   22544876.5084
                                                                        45.5004
        34.5004
 09 10 25 23 22 30.0000000  0  8G02G04G05G10G13G23G25G29
   -679392.26648   -504171.15647
                  20326862.9844                                   20326857.0354
                                                                        51.2504
        43.0004
   1227397.27348    961022.58646
                  21960690.0474                                   21960686.9144
                                                                        49.5004
        36.5004
  -3330040.74248  -2534795.96945
                  22746534.6174                                   22746530.9184
                                                                        49.0004
        35.7504
  -3127436.23048  -2379015.77046
                  21861041.4614                                   21861038.6844
                                                                        48.7504
        36.2504
  -1026496.78148   -767737.22746
                  21077676.2974                                   21077672.3794
                                                                        50.5004
        36.5004
    843876.00047    667101.41845
                  22583832.4384                                   22583826.2974
                                                                        43.7504
        30.0004
  -2769948.52746  -2107737.57844
                  23469225.6484                                   23469223.2894
                                                                        41.2504
        26.5004
  -2467106.72747  -1873163.87145
                  22514638.5164                                   22514634.9614
                                                                        45.7504
        35.2504
 09 10 25 23 23  0.0000000  0  8G02G04G05G10G13G23G25G29
    812920.24648    658669.76647
                  20610840.5164                                   20610834.9104
                                                                        52.7504
        43.2504
   2795589.43448   2182990.47345
                  22259107.2424                                   22259104.1724
                                                                        48.0004
        35.7504
  -1951268.59848  -1460428.08245
                  23008906.5784                                   23008902.6764
                                                                        49.0004
        35.5004
  -1738946.45748  -1297075.68746
                  22125262.2344                                   22125259.3984
                                                                        48.7504
        36.5004
    452576.74648    384787.57846
                  21359134.6094                                   21359131.0124
                                                                        50.2504
        36.5004
   2397702.32447   1877875.17644
                  22879515.8984                                   22879510.0664
                                                                        46.2504
        29.0004
  -1366722.15247  -1014314.38344
                  23736251.6884                                   23736247.8014
                                                                        43.0004
        26.0004
  -1049924.62547   -768866.12945
                  22784319.7424                                   22784316.1094
                                                                        46.5004
        35.0004
 09 10 25 23 23 30.0000000  0  8G02G04G05G10G13G23G25G29
    730568.57448    594499.62947
                  20595169.6254                                   20595163.7344
                                                                        52.5004
        43.0004
   2788884.18848   2177765.57846
                  22257831.1094                                   22257828.0864
                                                                        49.0004
        36.5004
  -2147486.75848  -1613325.35945
                  22971567.6644                                   22971563.7934
                                                                        48.5004
        35.2504
  -1925337.45347  -1442315.40646
                  22089793.2274                                   22089790.2154
                                                                        47.7504
        36.7504
    357071.26648    310367.73446
                  21340960.6804                                   21340956.7384
                                                                        50.0004
        37.0004
   2376743.17247   1861543.37145
                  22875527.5554                                   22875521.1054
                                                                        46.5004
        30.5004
  -1538359.95347  -1148058.05144
                  23703589.7034                                   23703586.3444
                                                                        43.2504
        27.0004
  -1207501.86747   -891653.59045
                  22754333.5004                                   22754330.1764
                                                                        46.0004
        35.5004
 09 10 25 23 24  0.0000000  0  8G02G04G05G10G13G23G25G29
    648969.00448    530915.54747
                  20579641.4304                                   20579636.0904
                                                                        52.5004
        43.0004
   2782692.88348   2172941.17646
                  22256653.0164                                   22256649.8834
                                                                        48.5004
        36.5004
  -2343272.98048  -1765886.05145
                  22934310.3284                                   22934307.1254
                                                                        48.5004
        35.0004
  -2111187.49248  -1587133.60546
                  22054427.4384                                   22054424.1334
                                                                        48.2504
        36.2504
    262403.29348    236600.48046
                  21322946.1564                                   21322942.0514
                                                                        48.7504
        37.5004
   2356409.72747   1845699.11345
                  22871658.2114                                   22871652.4264
                                                                        45.7504
        30.5004
  -1709440.51247  -1281367.52744
                  23671033.5164                                   23671030.4534
                                                                        43.2504
        27.2504
  -1364417.97747  -1013925.88345
                  22724473.2194                                   22724470.2664
                                                                        45.7504
        34.7504
 09 10 25 23 24 30.0000000  0  8G02G04G05G10G13G23G25G29
    568113.41848    467911.19147
                  20564255.3364                                   20564249.8984
                                                                        52.5004
        42.5004
   2777005.98048   2168509.80546
                  22255570.9844                                   22255567.8134
                                                                        49.7504
        36.2504
  -2538633.32448  -1918114.89145
                  22897134.5394                                   22897130.8754
                                                                        49.0004
        35.7504
  -2296502.46948  -1731534.85946
                  22019163.3754                                   22019160.5594
                                                                        49.7504
        37.0004
    168564.66048    163479.45346
                  21305088.8364                                   21305085.1954
                                                                        49.7504
        37.0004
   2336692.59447   1830335.11744
                  22867906.0944                                   22867900.1724
                                                                        46.0004
        29.2504
  -1879968.82047  -1414246.68044
                  23638583.2894                                   23638580.6134
                                                                        43.5004
        28.0004
  -1520678.22347  -1135687.10945
                  22694738.1334                                   22694735.0514
                                                                        46.5004
        34.7504
 09 10 25 23 25  0.0000000  0  8G02G04G05G10G13G23G25G29
    487996.82848    405482.67647
                  20549009.7424                                   20549004.0664
                                                                        52.7504
        43.0004
   2771816.27048   2164465.85245
                  22254583.3914                                   22254580.3674
                                                                        48.5004
        35.5004
  -2733570.87148  -2070014.27345
                  22860039.1884                                   22860036.0314
                                                                        48.0004
        35.5004
  -2481285.23048  -1875521.42246
                  21984000.2734                                   21983996.5434
                                                                        49.2504
        37.0004
     75550.48848     91000.89146
                  21287389.0234                                   21287385.2504
                                                                        49.0004
        37.5004
   2317584.27047   1815445.52044
                  22864269.8204                                   22864264.0044
                                                                        45.7504
        29.2504
  -2049947.23847  -1546697.37544
                  23606237.6414                                   23606234.6724
                                                                        44.0004
        27.2504
  -1676285.61347  -1256939.61745
                  22665126.8054                                   22665123.9774
                                                                        45.2504
        35.0004
 09 10 25 23 25 30.0000000  0  8G02G04G05G10G13G23G25G29
    408612.21548    343624.52747
                  20533903.2194                                   20533897.5354
                                                                        53.0004
        43.0004
   2767114.99248   2160802.44545
                  22253688.4384                                   22253685.7384
                                                                        48.5004
        35.5004
  -2928090.29748  -2221587.82846
                  22823023.5394                                   22823020.2234
                                                                        49.5004
        36.5004
  -2665539.91848  -2019096.50846
                  21948937.4384                                   21948934.4454
                                                                        48.7504
        36.7504
    -16646.59448     19158.99246
                  21269844.6254                                   21269840.6414
                                                                        49.5004
        37.2504
   2299075.36347   1801022.97344
                  22860747.4064                                   22860742.0274
                                                                        45.5004
        29.5004
  -2219380.27347  -1678723.07844
                  23573995.3284                                   23573992.6334
                                                                        43.5004
        26.0004
  -1831245.11347  -1377687.27045
                  22635639.2664                                   22635635.7074
                                                                        47.5004
        35.5004
 09 10 25 23 26  0.0000000  0  8G02G04G05G10G13G23G25G29
    329957.85948    282335.42247
                  20518935.6724                                   20518929.8404
                                                                        52.2504
        43.0004
   2762898.62948   2157516.91446
                  22252886.2664                                   22252883.1804
                                                                        48.5004
        36.0004
  -3122190.94548  -2372835.05546
                  22786087.3524                                   22786083.9224
                                                                        48.5004
        36.2504
  -2849266.71148  -2162260.23046
                  21913975.5164                                   21913972.3204
                                                                        48.7504
        36.5004
   -108028.21948    -52047.46946
                  21252455.2814                                   21252451.0984
                                                                        49.5004
        37.5004
   2281161.85547   1787064.38744
                  22857339.0784                                   22857332.7464
                                                                        46.0004
        29.5004
  -2388267.37547  -1810323.68044
                  23541857.9304                                   23541854.3594
                                                                        43.5004
        25.7504
  -1985556.37147  -1497929.80145
                  22606274.8364                                   22606271.6764
                                                                        46.7504
        35.0004
 09 10 25 23 26 30.0000000  0  8G02G04G05G10G13G23G25G29
    252028.70348    221611.39147
                  20504106.3594                                   20504100.6294
                                                                        52.2504
        42.7504
   2759160.22748   2154603.81345
                  22252175.1334                                   22252172.1564
                                                                        48.2504
        35.0004
  -3315875.85948  -2523758.33245
                  22749230.1484                                   22749226.8364
                                                                        48.0004
        35.7504
  -3032468.34447  -2305014.73446
                  21879113.3834                                   21879109.7344
                                                                        47.7504
        36.2504
   -198599.07448   -122622.17246
                  21235220.3364                                   21235216.2424
                                                                        49.0004
        37.0004
   2263836.75047   1773564.30144
                  22854042.5004                                   22854036.5864
                                                                        46.2504
        29.5004
  -2556610.00847  -1941499.85544
                  23509822.8914                                   23509819.5394
                                                                        43.5004
        25.5004
  -2139222.02347  -1617669.26645
                  22577033.0084                                   22577029.7074
                                                                        46.7504
        35.5004
 09 10 25 23 27  0.0000000  0  8G02G04G05G10G13G23G25G29
    174821.48048    161449.91047
                  20489414.3594                                   20489408.8364
                                                                        52.5004
        42.7504
   2755894.72748   2152059.13745
                  22251553.6414                                   22251550.5634
                                                                        49.7504
        35.7504
  -3509146.04747  -2674358.45746
                  22712452.0944                                   22712448.8754
                                                                        47.7504
        36.2504
  -3215145.23448  -2447360.35946
                  21844351.2274                                   21844347.9574
                                                                        48.5004
        37.2504
   -288362.84848   -192567.96146
                  21218138.8284                                   21218134.6524
                                                                        49.5004
        36.7504
   2247094.47747   1760518.37144
                  22850856.3914                                   22850850.9344
                                                                        46.2504
        29.7504
  -2724408.93046  -2072252.28544
                  23477892.5234                                   23477888.3404
                                                                        41.5004
        24.0004
  -2292242.97747  -1736906.37145
                  22547914.1024                                   22547910.3054
                                                                        46.5004
        34.7504
 09 10 25 23 27 30.0000000  0  8G02G04G05G10G13G23G25G29
     98329.74648    101845.94147
                  20474858.5314                                   20474852.7774
                                                                        53.0004
        43.0004
   2753094.06648   2149876.74645
                  22251020.7664                                   22251017.6844
                                                                        48.2504
        35.2504
  -3702005.82448  -2824638.78946
                  22675752.3134                                   22675748.4304
                                                                        48.2504
        36.0004
  -3397301.84448  -2589300.58646
                  21809688.0634                                   21809684.6294
                                                                        48.2504
        37.2504
   -377325.85248   -261889.77346
                  21201209.7894                                   21201205.6054
                                                                        49.7504
        36.5004
   2230926.77747   1747920.14544
                  22847780.0314                                   22847773.9734
                                                                        47.0004
        29.7504
  -2891667.58247  -2202583.62944
                  23446063.3914                                   23446060.1414
                                                                        42.2504
        25.5004
  -2444623.26647  -1855644.27345
                  22518917.1884                                   22518913.6174
                                                                        46.7504
        35.2504
 09 10 25 23 28  0.0000000  0  8G02G04G05G10G13G23G25G29
     22549.50448     42796.39847
                  20460438.2734                                   20460432.5634
                                                                        51.7504
        43.0004
   2750752.06348   2148051.68045
                  22250575.2894                                   22250572.8164
                                                                        49.0004
        35.5004
  -3894456.87547  -2974600.62146
                  22639129.9454                                   22639126.5594
                                                                        46.2504
        36.5004
  -3578940.01648  -2730836.82046
                  21775123.9774                                   21775120.5314
                                                                        49.0004
        37.5004
   -465492.59048   -330591.10546
                  21184431.9614                                   21184427.8954
                                                                        50.2504
        36.5004
   2215326.52747   1735764.09444
                  22844811.2814                                   22844805.0394
                                                                        46.2504
        28.7504
  -3058387.92647  -2332495.52744
                  23414337.7424                                   23414334.0204
                                                                        42.5004
        26.0004
  -2596364.90247  -1973884.51245
                  22490040.5474                                   22490037.8404
                                                                        47.5004
        35.5004
 09 10 25 23 28 30.0000000  0  8G02G04G05G10G13G23G25G29
    -52523.57448    -15702.10947
                  20446151.9844                                   20446146.5474
                                                                        52.7504
        43.2504
   2748862.66848   2146579.05945
                  22250215.8674                                   22250213.2424
                                                                        49.0004
        35.5004
  -4086501.23447  -3124245.57046
                  22602585.2974                                   22602581.6914
                                                                        47.7504
        37.0004
  -3760061.43448  -2871970.38746
                  21740657.1174                                   21740654.1564
                                                                        48.5004
        37.5004
   -552867.18048   -398675.23446
                  21167805.1484                                   21167800.9574
                                                                        50.0004
        36.7504
   2200287.84047   1724045.62944
                  22841949.7424                                   22841942.9964
                                                                        46.5004
        29.5004
  -3224571.01247  -2461988.79344
                  23382714.6414                                   23382710.7664
                                                                        43.5004
        27.5004
  -2747470.19947  -2091628.89845
                  22461287.3914                                   22461284.0164
                                                                        47.2504
        35.0004
 09 10 25 23 29  0.0000000  0  8G02G04G05G10G13G23G25G29
   -126891.94548    -73651.49647
                  20432000.0394                                   20431994.8404
                                                                        51.5004
        43.0004
   2747422.05948   2145456.28545
                  22249941.8204                                   22249939.2624
                                                                        49.5004
        35.2504
  -4278138.77047  -3273573.50046
                  22566117.9694                                   22566113.9844
                                                                        46.0004
        36.5004
  -3940666.38748  -3012701.52746
                  21706288.9534                                   21706285.3054
                                                                        49.0004
        37.5004
   -639452.08248   -466143.98046
                  21151328.5314                                   21151324.7304
                                                                        50.7504
        37.7504
   2185806.24647   1712761.28544
                  22839193.3364                                   22839187.1374
                                                                        45.2504
        27.5004
  -3390216.73447  -2591063.35544
                  23351193.1484                                   23351189.3674
                                                                        43.0004
        27.7504
  -2897938.88747  -2208877.21545
                  22432654.3984                                   22432650.9344
                                                                        47.7504
        35.0004
 09 10 25 23 29 30.0000000  0  8G02G04G05G10G13G23G25G29
   -200555.33248   -131051.55147
                  20417982.7034                                   20417976.9264
                                                                        51.5004
        42.7504
   2746428.22348   2144681.41045
                  22249753.1334                                   22249750.2194
                                                                        49.5004
        34.5004
  -4469367.25447  -3422582.69946
                  22529728.0394                                   22529724.8364
                                                                        46.5004
        36.7504
  -4120752.37148  -3153028.27346
                  21672019.8524                                   21672016.5514
                                                                        49.7504
        37.5004
   -725247.12148   -532997.25846
                  21135002.4144                                   21134998.6524
                                                                        50.5004
        37.7504
   2171879.98447   1701909.64844
                  22836543.6644                                   22836537.0474
                                                                        46.2504
        27.5004
  -3555322.09847  -2719716.88344
                  23319774.4844                                   23319771.5514
                                                                        42.7504
        27.2504
  -3047768.65248  -2325627.68446
                  22404142.3524                                   22404139.3134
                                                                        48.2504
        36.2504
 09 10 25 23 30  0.0000000  0  8G02G04G05G10G13G23G25G29
   -273521.68448   -187908.46547
                  20404097.5474                                   20404092.0634
                                                                        52.0004
        42.5004
   2745872.21948   2144247.96945
                  22249647.4304                                   22249644.5984
                                                                        48.7504
        34.7504
  -4660192.43047  -3571277.64846
                  22493415.3204                                   22493411.8284
                                                                        47.0004
        37.0004
  -4300324.95348  -3292954.98846
                  21637848.5554                                   21637844.9884
                                                                        49.5004
        37.5004
   -810260.51648   -599241.44946
                  21118825.0314                                   21118820.6884
                                                                        51.2504
        36.7504
   2158498.52047   1691482.53544
                  22833996.7194                                   22833990.7934
                                                                        45.2504
        28.0004
  -3719892.28547  -2847953.33244
                  23288458.2114                                   23288455.1564
                                                                        42.2504
        26.5004
  -3196965.10947  -2441884.65646
                  22375751.1094                                   22375747.7074
                                                                        47.0004
        36.0004
 09 10 25 23 30 30.0000000  0  8G02G04G05G10G13G23G25G29
   -345791.33648   -244222.49247
                  20390345.1564                                   20390339.6524
                                                                        51.7504
        43.2504
   2745750.46548   2144152.27345
                  22249624.9924                                   22249622.6914
                                                                        48.0004
        35.2504
  -4850612.37147  -3719656.80546
                  22457179.7504                                   22457176.2664
                                                                        47.5004
        37.0004
  -4479382.25048  -3432480.25046
                  21603775.1414                                   21603771.6334
                                                                        49.2504
        38.0004
   -894492.54748   -664876.80146
                  21102795.9924                                   21102791.6524
                                                                        51.5004
        37.2504
   2145659.58647   1681478.16844
                  22831553.7814                                   22831547.7194
                                                                        44.2504
        29.5004
  -3883924.72746  -2975770.77744
                  23257243.4534                                   23257240.3674
                                                                        41.5004
        26.7504
  -3345526.62547  -2557646.87145
                  22347480.9384                                   22347477.6174
                                                                        46.5004
        35.2504
 09 10 25 23 31  0.0000000  0  8G02G04G05G10G13G23G25G29
   -417371.47748   -299999.26247
                  20376723.8754                                   20376718.2504
                                                                        52.5004
        42.5004
   2746056.77748   2144389.89556
                  22249683.1884                                   22249681.2074
                                                                        48.0004
        36.0004
  -5040632.38747  -3867724.71946
                  22421020.0784                                   22421017.1884
                                                                        47.5004
        36.7504
  -4657929.06248  -3571607.92646
                  21569799.0004                                   21569795.5004
                                                                        49.7504
        37.2504
   -977950.74648   -729909.16446
                  21086914.7194                                   21086910.5594
                                                                        51.5004
        37.2504
   2133353.67647   1671889.14844
                  22829212.0864                                   22829206.0864
                                                                        45.0004
        28.2504
  -4047424.00046  -3103172.76244
                  23226130.5394                                   23226127.3834
                                                                        41.5004
        26.2504
  -3493457.75047  -2672917.86745
                  22319330.4534                                   22319327.0904
                                                                        47.7504
        35.0004
 09 10 25 23 31 30.0000000  0  8G02G04G05G10G13G23G25G29
   1087159.44148    872362.46547
                  20663026.6174                                   20663021.4964
                                                                        51.2504
        43.2504
   4322207.63748   3372559.65245
                  22549614.3834                                   22549612.4694
                                                                        48.0004
        34.5004
  -3654825.30947  -2787876.08246
                  22684731.1484                                   22684728.1994
                                                                        47.7504
        37.2504
  -3260538.15648  -2482732.27046
                  21835713.5864                                   21835711.0594
                                                                        49.2504
        38.0004
    514786.61748    433262.80946
                  21370972.8594                                   21370968.8094
                                                                        51.2504
        37.2504
   3696998.26647   2890313.49244
                  23126763.9454                                   23126758.0514
                                                                        45.0004
        29.2504
  -2634962.80146  -2002553.66044
                  23494912.7034                                   23494909.7544
                                                                        40.7504
        26.2504
  -2065332.65647  -1560093.11745
                  22591093.5004                                   22591090.4694
                                                                        47.5004
        35.7504
 09 10 25 23 32  0.0000000  0  8G02G04G05G10G13G23G25G29
   1016951.96548    817655.28147
                  20649666.5554                                   20649661.1884
                                                                        51.7504
        42.7504
   4323355.35548   3373446.92256
                  22549832.9844                                   22549830.8874
                                                                        48.0004
        36.0004
  -3844044.99648  -2935321.25846
                  22648725.2814                                   22648722.5984
                                                                        48.0004
        37.0004
  -3438063.02048  -2621063.77046
                  21801932.1724                                   21801929.8134
                                                                        49.7504
        37.5004
    432869.35248    369431.17246
                  21355384.5704                                   21355380.7504
                                                                        51.2504
        36.7504
   3685746.19147   2881545.62144
                  23124623.3914                                   23124616.8094
                                                                        45.5004
        28.5004
  -2797393.84047  -2129123.30144
                  23464003.5784                                   23463999.8204
                                                                        42.0004
        26.0004
  -2212002.85947  -1674381.59045
                  22563183.0394                                   22563179.8674
                                                                        47.0004
        35.5004
 09 10 25 23 32 30.0000000  0  8G02G04G05G10G13G23G25G29
    947428.90248    763481.38347
                  20636436.8984                                   20636431.4104
                                                                        52.0004
        43.0004
   4324920.68048   3374658.06355
                  22550130.6334                                   22550128.5634
                                                                        48.2504
        35.7504
  -4032859.02348  -3080486.91856
                  22612794.9384                                   22612792.3714
                                                                        48.5004
        37.5004
  -3615074.37548  -2758994.81646
                  21768247.9384                                   21768244.8874
                                                                        49.5004
        37.7504
    351720.78948    306198.52046
                  21339942.6564                                   21339938.7854
                                                                        52.0004
        37.5004
   3675016.14147   2873184.52044
                  23122580.6484                                   23122575.5434
                                                                        44.2504
        29.2504
  -2959288.14147  -2255274.74244
                  23433195.7584                                   23433192.0904
                                                                        42.5004
        26.7504
  -2358041.02347  -1788177.55945
                  22535393.2424                                   22535389.7934
                                                                        47.0004
        35.2504
 09 10 25 23 33  0.0000000  0  8G02G04G05G10G13G23G25G29
    878586.15648    709837.65247
                  20623336.5084                                   20623330.7734
                                                                        52.0004
        43.0004
   4326895.93848   3376188.15655
                  22550506.1804                                   22550503.7344
                                                                        48.0004
        34.7504
  -4221271.29748  -3227300.82846
                  22576940.5554                                   22576937.0594
                                                                        48.5004
        37.2504
  -3791573.92248  -2896526.82446
                  21734661.4844                                   21734658.4924
                                                                        50.5004
        37.5004
    271336.48848    243561.39546
                  21324646.0554                                   21324641.6804
                                                                        51.0004
        36.7504
   3664801.72347   2865225.21144
                  23120636.6564                                   23120631.3054
                                                                        43.7504
        27.7504
  -3120647.19547  -2381009.16844
                  23402490.7034                                   23402486.5554
                                                                        42.5004
        27.0004
  -2503449.05147  -1901482.51645
                  22507722.5944                                   22507719.3204
                                                                        47.2504
        35.2504
 09 10 25 23 33 30.0000000  0  8G02G04G05G10G13G23G25G29
    810418.84848    656720.25447
                  20610364.8754                                   20610359.2154
                                                                        51.5004
        42.5004
   4329274.98847   3378041.55145
                  22550959.4384                                   22550957.0204
                                                                        47.7504
        34.5004
  -4409289.53548  -3373810.23446
                  22541163.2344                                   22541161.5164
                                                                        48.7504
        37.0004
  -3967564.93448  -3033662.57446
                  21701171.3754                                   21701168.0634
                                                                        50.0004
        38.2504
    191711.16048    181515.68846
                  21309493.9924                                   21309489.8794
                                                                        51.0004
        37.2504
   3655096.03547   2857662.30544
                  23118789.7814                                   23118784.3164
                                                                        43.0004
        27.0004
  -3281473.07447  -2506328.05544
                  23371886.1564                                   23371882.4734
                                                                        43.5004
        27.2504
  -2648229.30547  -2014298.28945
                  22480172.3364                                   22480169.0394
                                                                        47.2504
        35.5004
 09 10 25 23 34  0.0000000  0  8G02G04G05G10G13G23G25G29
    742925.08648    604127.71947
                  20597520.7974                                   20597515.2584
                                                                        51.7504
        42.7504
   4332056.21148   3380209.25445
                  22551488.6484                                   22551485.8324
                                                                        48.0004
        34.0004
  -4596903.15648  -3520001.18446
                  22505460.1174                                   22505456.9844
                                                                        48.5004
        37.5004
  -4143046.97748  -3170401.71546
                  21667778.4064                                   21667774.9964
                                                                        49.0004
        38.7504
    112842.98448    120059.96146
                  21294485.7274                                   21294481.6604
                                                                        50.0004
        37.2504
   3645895.41047   2850493.00844
                  23117039.1954                                   23117032.8094
                                                                        43.7504
        27.5004
  -3441764.67247  -2631230.58244
                  23341383.8054                                   23341380.4454
                                                                        42.0004
        25.5004
  -2792381.88347  -2126624.97345
                  22452740.5164                                   22452737.4774
                                                                        46.5004
        35.7504
 09 10 25 23 34 30.0000000  0  8G02G04G05G10G13G23G25G29
    676100.95348    552056.98847
                  20584804.8134                                   20584799.2704
                                                                        53.0004
        42.5004
   4335233.73448   3382686.16045
                  22552092.5084                                   22552089.9964
                                                                        48.0004
        34.7504
  -4784119.85548  -3665883.29346
                  22469833.2664                                   22469830.1994
                                                                        49.2504
        38.0004
  -4318020.63348  -3306744.35246
                  21634481.3054                                   21634477.8364
                                                                        50.2504
        37.2504
     34727.64548     59190.85946
                  21279620.9454                                   21279616.8984
                                                                        50.7504
        36.7504
   3637193.60947   2843712.39144
                  23115383.2664                                   23115377.4844
                                                                        45.0004
        28.2504
  -3601523.36347  -2755717.85544
                  23310982.3594                                   23310979.7154
                                                                        42.2504
        27.0004
  -2935907.98847  -2238463.48845
                  22425428.6804                                   22425425.3444
                                                                        47.5004
        35.7504
 09 10 25 23 35  0.0000000  0  8G02G04G05G10G13G23G25G29
    609943.42648    500505.66847
                  20572215.4534                                   20572209.8714
                                                                        51.5004
        42.2504
   4338800.62947   3385465.84045
                  22552771.1254                                   22552767.9884
                                                                        47.5004
        35.0004
  -4970941.12548  -3811458.07446
                  22434281.9534                                   22434279.0004
                                                                        48.0004
        37.2504
  -4492487.30548  -3442692.27346
                  21601281.2974                                   21601278.3324
                                                                        49.7504
        38.0004
    -42637.85948     -1093.94146
                  21264898.4534                                   21264894.6254
                                                                        50.0004
        37.0004
   3628985.18847   2837316.21944
                  23113821.7344                                   23113815.5274
                                                                        43.0004
        28.0004
  -3760749.10246  -2879789.75444
                  23280682.5164                                   23280680.0204
                                                                        41.2504
        27.2504
  -3078808.37548  -2349814.44146
                  22398235.5084                                   22398232.4104
                                                                        48.0004
        36.0004
 09 10 25 23 35 30.0000000  0  8G02G04G05G10G13G23G25G29
    544449.98848    449471.64147
                  20559752.7664                                   20559747.2304
                                                                        52.0004
        42.7504
   4342753.96547   3388546.28145
                  22553523.1954                                   22553520.5944
                                                                        47.2504
        33.7504
  -5157365.80548  -3956724.21546
                  22398806.7424                                   22398803.7774
                                                                        48.7504
        37.5004
  -4666447.19948  -3578245.62146
                  21568177.8204                                   21568174.9534
                                                                        50.0004
        38.0004
   -119255.96548    -60796.35946
                  21250318.6484                                   21250314.6334
                                                                        51.5004
        36.2504
   3621266.80147   2831301.88344
                  23112352.7584                                   23112346.3634
                                                                        43.5004
        27.5004
  -3919441.23447  -3003445.87544
                  23250484.6804                                   23250481.4924
                                                                        42.7504
        28.2504
  -3221082.94148  -2460677.73446
                  22371161.6254                                   22371158.1374
                                                                        48.7504
        36.2504
 09 10 25 23 36  0.0000000  0  8G02G04G05G10G13G23G25G29
    479617.90648    398953.08247
                  20547415.6024                                   20547410.2424
                                                                        51.0004
        42.5004
   4347089.66847   3391924.76245
                  22554348.3054                                   22554345.5554
                                                                        47.5004
        33.5004
  -5343394.57448  -4101682.29346
                  22363407.1724                                   22363404.2774
                                                                        48.0004
        37.7504
  -4839900.68448  -3713404.69146
                  21535171.2664                                   21535167.8984
                                                                        49.7504
        38.5004
   -195129.96548   -119918.94946
                  21235880.2584                                   21235876.1724
                                                                        50.7504
        37.0004
   3614032.93447   2825665.09444
                  23110976.1564                                   23110970.0204
                                                                        43.5004
        27.5004
  -4077600.52346  -3126686.92644
                  23220387.9454                                   23220385.3714
                                                                        41.2504
        29.2504
  -3362732.65648  -2571054.13746
                  22344206.4774                                   22344203.5274
                                                                        48.7504
        36.5004
 09 10 25 23 36 30.0000000  0  8G02G04G05G10G13G23G25G29
    415444.43448    348947.87947
                  20535203.8834                                   20535198.6214
                                                                        51.5004
        42.2504
   4351802.85547   3395597.25445
                  22555245.3754                                   22555242.4494
                                                                        47.7504
        33.7504
  -5529025.87548  -4246330.00846
                  22328082.6484                                   22328079.1684
                                                                        48.7504
        37.5004
  -5012846.46548  -3848167.52746
                  21502260.9614                                   21502257.8834
                                                                        49.2504
        38.2504
   -270263.16048   -178464.29746
                  21221583.0084                                   21221578.6844
                                                                        50.7504
        36.2504
   3607278.77347   2820402.10244
                  23109690.9534                                   23109684.9104
                                                                        42.5004
        27.2504
  -4235226.71947  -3249512.59844
                  23190392.8054                                   23190389.6454
                                                                        42.0004
        27.5004
  -3503757.93447  -2680943.96546
                  22317370.4224                                   22317367.3244
                                                                        47.5004
        36.0004
 09 10 25 23 37  0.0000000  0  8G02G04G05G10G13G23G25G29
    351920.82448    299448.94947
                  20523115.8364                                   20523110.2734
                                                                        50.7504
        43.0004
   4356884.44147   3399556.88745
                  22556212.3364                                   22556209.5234
                                                                        47.2504
        33.7504
  -5714266.95347  -4390673.87146
                  22292832.6334                                   22292829.4844
                                                                        47.7504
        37.5004
  -5185291.50848  -3982540.25446
                  21469445.1094                                   21469442.1254
                                                                        50.0004
        38.5004
   -344663.73848   -236438.77746
                  21207425.0314                                   21207421.1254
                                                                        50.2504
        36.7504
   3600994.12947   2815504.96144
                  23108494.9844                                   23108488.7194
                                                                        44.5004
        27.5004
  -4392324.85947  -3371926.68744
                  23160498.0314                                   23160494.7344
                                                                        43.0004
        27.5004
  -3644164.69148  -2790351.82446
                  22290651.8134                                   22290648.0864
                                                                        48.5004
        36.0004
 09 10 25 23 37 30.0000000  0  8G02G04G05G10G13G23G25G29
    289048.74248    250457.62947
                  20511151.5634                                   20511145.9414
                                                                        50.7504
        42.5004
   4362334.12947   3403803.43445
                  22557249.2114                                   22557246.7344
                                                                        47.0004
        34.5004
  -5899112.87148  -4534709.45346
                  22257657.7814                                   22257654.1334
                                                                        48.2504
        37.2504
  -5357231.96148  -4116519.91846
                  21436726.4384                                   21436723.2704
                                                                        50.0004
        38.5004
   -418330.71548   -293841.61346
                  21193406.5084                                   21193402.5164
                                                                        51.0004
        36.2504
   3595178.51647   2810973.29344
                  23107387.7664                                   23107382.6024
                                                                        42.2504
        28.0004
  -4548890.83647  -3493926.00044
                  23130704.3284                                   23130701.2974
                                                                        43.0004
        26.7504
  -3783949.19547  -2899274.81245
                  22264051.7894                                   22264048.2584
                                                                        47.5004
        35.7504
 09 10 25 23 38  0.0000000  0  9G02G04G05G10G13G23G25G29G16
    226827.20748    201973.32047
                  20499311.0554                                   20499305.7934
                                                                        51.0004
        42.0004
   4368149.84047   3408335.25045
                  22558355.7664                                   22558353.0044
                                                                        46.5004
        34.0004
  -6083563.37547  -4678437.35246
                  22222557.8284                                   22222554.7114
                                                                        47.5004
        38.2504
  -5528665.84848  -4250104.81646
                  21404103.5394                                   21404100.5634
                                                                        49.7504
        38.5004
   -491265.04348   -350673.54746
                  21179527.5634                                   21179523.6134
                                                                        51.0004
        36.0004
   3589828.88347   2806804.73444
                  23106370.2034                                   23106364.4184
                                                                        42.7504
        27.2504
  -4704923.00047  -3615509.50044
                  23101012.9304                                   23101008.8834
                                                                        44.2504
        27.0004
  -3923110.15248  -3007711.92246
                  22237570.3524                                   22237566.9654
                                                                        48.2504
        36.0004
   4518335.90256   3558623.23453
                  24257133.6564                                   24257129.6174
                                                                        39.5004
        19.2504
 09 10 25 23 38 30.0000000  0  9G02G04G05G10G13G23G25G29G16
    165250.67248    153991.74247
                  20487593.2974                                   20487588.0784
                                                                        51.2504
        42.7504
   4374323.89147   3413146.24245
                  22559530.6644                                   22559528.3524
                                                                        47.0004
        33.7504
  -6267621.41447  -4821859.66846
                  22187533.1564                                   22187530.0164
                                                                        47.0004
        38.0004
  -5699596.66048  -4383297.73046
                  21371576.9224                                   21371573.6054
                                                                        50.0004
        38.5004
   -563473.06248   -406939.53546
                  21165786.9694                                   21165783.2194
                                                                        50.2504
        36.7504
   3584937.28947   2802993.10244
                  23105439.3524                                   23105433.0164
                                                                        44.7504
        27.0004
  -4860424.21947  -3736679.27044
                  23071421.8594                                   23071418.0554
                                                                        44.5004
        28.2504
  -4061651.42248  -3115666.16046
                  22211206.6174                                   22211203.6564
                                                                        48.0004
        36.0004
   4357350.51246   3433180.12543
                  24226499.4304                                   24226495.8204
                                                                        37.0004
        18.5004
 09 10 25 23 39  0.0000000  0  9G02G04G05G10G13G23G25G29G16
    104311.73848    106506.94547
                  20475997.1094                                   20475991.5474
                                                                        52.5004
        42.5004
   4380847.64547   3418229.62945
                  22560772.1564                                   22560769.0234
                                                                        47.5004
        34.0004
  -6451288.84048  -4964976.59846
                  22152582.2664                                   22152579.0474
                                                                        48.7504
        38.0004
  -5870028.73848  -4516101.94946
                  21339144.3284                                   21339141.5944
                                                                        49.2504
        38.7504
   -634961.84048   -462645.08246
                  21152183.0474                                   21152178.7774
                                                                        50.7504
        36.2504
   3580495.11747   2799531.67244
                  23104593.9064                                   23104587.7894
                                                                        44.5004
        27.0004
  -5015398.47747  -3857438.39844
                  23041931.2344                                   23041927.2274
                                                                        44.5004
        28.5004
  -4199577.10547  -3223140.70746
                  22184960.5164                                   22184957.5744
                                                                        47.2504
        36.0004
   4196892.24246   3308147.73043
                  24195964.9224                                   24195961.6214
                                                                        38.5004
        19.7504
 09 10 25 23 39 30.0000000  0  9G02G04G05G10G13G23G25G29G16
     44009.44948     59518.18046
                  20464521.8204                                   20464516.1994
                                                                        51.5004
        41.7504
   4387718.85947   3423583.79745
                  22562080.0864                                   22562076.9884
                                                                        47.5004
        34.0004
  -6634567.64848  -5107791.43446
                  22117705.3444                                   22117702.0594
                                                                        49.0004
        37.7504
  -6039960.46548  -4648516.07846
                  21306807.3984                                   21306804.6914
                                                                        49.7504
        39.0004
   -705732.70348   -517791.20346
                  21138715.9304                                   21138711.6844
                                                                        50.0004
        36.0004
   3576499.59047   2796418.26644
                  23103833.9384                                   23103827.4304
                                                                        44.5004
        27.0004
  -5169844.23047  -3977785.70744
                  23012540.8364                                   23012537.3794
                                                                        43.5004
        27.2504
  -4336886.50048  -3330135.04745
                  22158831.1334                                   22158828.1374
                                                                        48.5004
        35.5004
   4036962.96546   3183527.51643
                  24165531.9144                                   24165527.9694
                                                                        40.7504
        20.7504
 09 10 25 23 40  0.0000000  0  9G02G04G05G10G13G23G25G29G16
   1559765.36748   1240626.71147
                  20752960.6254                                   20752954.9844
                                                                        51.5004
        42.5004
   5970355.34447   4656806.89145
                  22863245.6024                                   22863242.6804
                                                                        47.7504
        33.5004
  -5242026.88747  -4022694.30146
                  22382696.8524                                   22382693.1994
                                                                        47.5004
        38.0004
  -4633964.17248  -3552934.30146
                  21574359.4614                                   21574356.5314
                                                                        49.0004
        38.7504
    799636.00848    655223.37545
                  21425178.0234                                   21425173.8914
                                                                        50.5004
        35.5004
   5148368.28547   4021250.99644
                  23402950.1804                                   23402943.9884
                                                                        43.7504
        25.5004
  -3748333.53947  -2870114.98444
                  23283045.2034                                   23283041.9884
                                                                        44.0004
        27.7504
  -2898152.76247  -2209043.82846
                  22432613.3134                                   22432610.0514
                                                                        47.0004
        36.5004
   5452990.80147   4286925.79343
                  24434993.1414                                   24434988.8554
                                                                        42.0004
        22.0004
 09 10 25 23 40 30.0000000  0  9G02G04G05G10G13G23G25G29G16
   1500737.45348   1194630.94947
                  20741727.9384                                   20741722.4064
                                                                        52.0004
        42.7504
   5977918.57048   4662700.24645
                  22864684.6174                                   22864682.3714
                                                                        48.2504
        32.7504
  -5424515.60548  -4164892.94546
                  22347969.8134                                   22347966.2934
                                                                        48.7504
        38.0004
  -4802886.76648  -3684562.16046
                  21542214.3834                                   21542211.1804
                                                                        50.2504
        38.2504
    730301.33648    601196.35546
                  21411984.0234                                   21411980.3054
                                                                        50.5004
        36.0004
   5145260.99247   4018829.73444
                  23402359.3054                                   23402352.8484
                                                                        44.0004
        25.5004
  -3901711.93047  -2989630.53544
                  23253858.2504                                   23253855.2344
                                                                        44.0004
        27.7504
  -3034221.14548  -2315071.14846
                  22406720.0704                                   22406716.7624
                                                                        49.2504
        36.5004
   5294129.98447   4163138.12943
                  24404763.6644                                   24404759.0354
                                                                        43.2504
        22.5004
 09 10 25 23 41  0.0000000  0  9G02G04G05G10G13G23G25G29G16
   1442348.40248   1149133.00847
                  20730616.8054                                   20730611.2814
                                                                        52.5004
        42.7504
   5985828.02048   4668863.73045
                  22866189.6804                                   22866186.5554
                                                                        48.0004
        33.0004
  -5606604.37148  -4306780.09046
                  22313319.3914                                   22313316.4494
                                                                        49.2504
        38.7504
  -4971299.37948  -3815792.58246
                  21510166.4384                                   21510163.3444
                                                                        50.2504
        38.5004
    661685.98848    547729.85245
                  21398926.8524                                   21398923.0664
                                                                        51.5004
        35.7504
   5142596.73847   4016753.66844
                  23401852.0004                                   23401846.2894
                                                                        44.5004
        27.0004
  -4054550.93747  -3108725.85944
                  23224773.4224                                   23224770.7344
                                                                        43.7504
        28.5004
  -3169663.44548  -2420610.60246
                  22380946.3914                                   22380943.1954
                                                                        48.7504
        36.0004
   5135809.89147   4039771.80543
                  24374635.4304                                   24374632.3134
                                                                        42.5004
        22.5004
 09 10 25 23 41 30.0000000  0  9G02G04G05G10G13G23G25G29G16
   1384598.42648   1104133.04347
                  20719627.2974                                   20719621.7664
                                                                        51.7504
        42.5004
   5994081.89147   4675295.47345
                  22867760.1724                                   22867757.4804
                                                                        47.5004
        32.5004
  -5788289.43048  -4448352.70346
                  22278745.6174                                   22278742.0004
                                                                        50.5004
        38.5004
  -5139198.91048  -3946623.32446
                  21478216.1564                                   21478213.0824
                                                                        49.2504
        39.2504
    593790.59448    494824.33646
                  21386007.0084                                   21386003.0824
                                                                        50.5004
        36.0004
   5140374.30147   4015021.87144
                  23401429.8524                                   23401423.5984
                                                                        45.0004
        26.5004
  -4206846.76647  -3227397.86344
                  23195792.8134                                   23195789.5124
                                                                        44.0004
        28.5004
  -3304477.14547  -2525660.24246
                  22355292.2894                                   22355288.9964
                                                                        47.5004
        36.7504
   4978033.94146   3916829.52343
                  24344611.5084                                   24344608.1094
                                                                        41.5004
        21.5004
 09 10 25 23 42  0.0000000  0  9G02G04G05G10G13G23G25G29G16
   1327483.23448   1059627.69147
                  20708758.3984                                   20708753.5594
                                                                        52.5004
        42.0004
   6002674.37147   4681990.99245
                  22869395.5314                                   22869392.9224
                                                                        47.2504
        33.0004
  -5969573.62948  -4589613.06646
                  22244248.4614                                   22244245.1254
                                                                        49.5004
        39.0004
  -5306587.11748  -4077055.57446
                  21446363.1024                                   21446360.0744
                                                                        50.2504
        39.5004
    526609.68048    442475.57045
                  21373222.7504                                   21373218.8834
                                                                        51.0004
        35.5004
   5138587.06347   4013629.23844
                  23401088.7974                                   23401083.2344
                                                                        44.5004
        27.2504
  -4358601.47747  -3345648.18744
                  23166915.0164                                   23166911.6524
                                                                        45.0004
        27.2504
  -3438664.66047  -2630221.94146
                  22329757.3914                                   22329754.1334
                                                                        47.7504
        36.2504
   4820800.44146   3794309.93443
                  24314690.7034                                   24314687.8014
                                                                        40.0004
        20.2504
 09 10 25 23 42 30.0000000  0  9G02G04G05G10G13G23G25G29G16
   1271001.30948   1015615.77747
                  20698010.5474                                   20698005.2234
                                                                        52.0004
        42.5004
   6011602.18848   4688947.56645
                  22871094.2894                                   22871091.4964
                                                                        48.0004
        32.2504
  -6150455.53548  -4730560.00046
                  22209828.1564                                   22209824.4454
                                                                        50.7504
        39.0004
  -5473463.00848  -4207088.62546
                  21414607.7034                                   21414604.8914
                                                                        50.5004
        39.0004
    460141.69148    390682.31646
                  21360574.4224                                   21360570.2504
                                                                        51.0004
        36.2504
   5137231.64547   4012573.05144
                  23400831.4064                                   23400825.7504
                                                                        44.2504
        27.0004
  -4509813.68447  -3463475.78544
                  23138140.3524                                   23138136.5704
                                                                        45.5004
        29.5004
  -3572224.89147  -2734294.85546
                  22304341.6094                                   22304338.1454
                                                                        47.5004
        36.7504
   4664111.34046   3672214.60243
                  24284873.6884                                   24284870.5984
                                                                        40.0004
        21.2504
 09 10 25 23 43  0.0000000  0  9G02G04G05G10G13G23G25G29G16
   1215151.82448    972096.66447
                  20687382.6334                                   20687377.3094
                                                                        52.5004
        42.2504
   6020863.89847   4696164.16445
                  22872856.9924                                   22872854.7504
                                                                        47.7504
        33.0004
  -6330932.68748  -4871191.51246
                  22175484.2734                                   22175480.7774
                                                                        50.2504
        38.5004
  -5639825.18748  -4336721.49646
                  21382949.9454                                   21382946.8674
                                                                        51.2504
        39.2504
    394385.59048    339443.79746
                  21348061.6954                                   21348057.2584
                                                                        50.7504
        37.0004
   5136305.94547   4011851.69544
                  23400655.0004                                   23400649.8444
                                                                        44.5004
        25.5004
  -4660480.95747  -3580878.81244
                  23109469.6564                                   23109465.5904
                                                                        46.0004
        29.5004
  -3705156.48848  -2837877.93046
                  22279045.4144                                   22279042.4574
                                                                        49.0004
        36.5004
   4507968.85246   3550545.16443
                  24255161.7274                                   24255158.2854
                                                                        39.2504
        21.5004
 09 10 25 23 43 30.0000000  0 10G02G04G05G10G13G23G25G29G16G07
   1159935.32848    929070.82047
                  20676875.3914                                   20676870.0554
                                                                        53.0004
        42.2504
   6030459.22348   4703640.93845
                  22874683.2274                                   22874680.4414
                                                                        48.0004
        32.5004
  -6511001.93048  -5011505.18446
                  22141218.2504                                   22141214.7074
                                                                        50.2504
        38.7504
  -5805669.85548  -4465951.10246
                  21351390.8444                                   21351387.6954
                                                                        50.5004
        39.0004
    329341.72348    288760.26646
                  21335684.3914                                   21335679.7704
                                                                        51.0004
        36.2504
   5135808.16847   4011463.78144
                  23400560.5314                                   23400554.5824
                                                                        45.0004
        26.5004
  -4810599.80147  -3697854.45744
                  23080902.2114                                   23080899.0084
                                                                        45.5004
        29.7504
  -3837456.84848  -2940969.12945
                  22253869.7114                                   22253866.3364
                                                                        48.2504
        35.7504
   4352376.81346   3429304.63743
                  24225552.9844                                   24225549.1954
                                                                        40.0004
        18.5004
   6054348.07056   4729602.61353
                  24441634.9304                                   24441631.3554
                                                                        41.0004
        22.0004
 09 10 25 23 44  0.0000000  0 10G02G04G05G10G13G23G25G29G16G07
   1105344.39148    886532.43447
                  20666487.2274                                   20666481.9224
                                                                        52.7504
        42.0004
   6040378.79347   4711370.32845
                  22876570.9844                                   22876568.4144
                                                                        47.7504
        31.7504
  -6690667.75848  -5151504.56246
                  22107028.7504                                   22107025.5164
                                                                        50.0004
        38.0004
  -5971001.67648  -4594781.07846
                  21319929.3834                                   21319925.9184
                                                                        51.2504
        39.0004
    265002.02748    238625.44146
                  21323440.3754                                   21323436.5084
                                                                        51.0004
        36.2504
   5135729.24647   4011402.26644
                  23400545.3284                                   23400539.7384
                                                                        43.5004
        26.7504
  -4960175.28947  -3814406.75044
                  23052439.2584                                   23052436.0784
                                                                        45.2504
        29.0004
  -3969130.48448  -3043571.96946
                  22228812.8524                                   22228809.3054
                                                                        48.7504
        36.2504
   4197330.50446   3308489.28543
                  24196049.4774                                   24196045.2194
                                                                        40.0004
        19.2504
   5863466.89546   4580863.56343
                  24405311.6254                                   24405308.2814
                                                                        40.5004
        21.2504
 09 10 25 23 44 30.0000000  0 10G02G04G05G10G13G23G25G29G16G07
   1051373.07848    844476.86347
                  20656216.6094                                   20656211.1524
                                                                        52.0004
        42.0004
   6050616.31647   4719347.85245
                  22878518.6954                                   22878516.3364
                                                                        46.7504
        32.2504
  -6869933.88748  -5291192.55146
                  22072915.6884                                   22072912.3014
                                                                        49.7504
        38.5004
  -6135824.14848  -4723214.16846
                  21288564.4774                                   21288561.1054
                                                                        50.7504
        38.7504
    201360.57048    189034.69946
                  21311330.2344                                   21311326.3134
                                                                        50.0004
        36.7504
   5136061.69547   4011661.31644
                  23400608.1804                                   23400602.8984
                                                                        43.5004
        25.7504
  -5109210.13347  -3930537.80544
                  23024078.6174                                   23024075.5314
                                                                        45.0004
        28.5004
  -4100181.43448  -3145689.60246
                  22203875.0634                                   22203871.6214
                                                                        49.0004
        36.7504
   4042827.40246   3188097.25843
                  24166648.2664                                   24166643.8754
                                                                        40.7504
        20.2504
   5672894.68446   4432365.68843
                  24369046.7194                                   24369044.0634
                                                                        40.2504
        22.0004
 09 10 25 23 45  0.0000000  0 10G02G04G05G10G13G23G25G29G16G07
    998017.34048    802900.98047
                  20646063.4534                                   20646057.9184
                                                                        52.7504
        42.0004
   6061165.90247   4727568.39845
                  22880526.4774                                   22880523.3674
                                                                        46.0004
        31.7504
  -7048801.07448  -5430569.57446
                  22038878.2894                                   22038874.8634
                                                                        50.0004
        38.7504
  -6300138.36348  -4851251.18746
                  21257296.2114                                   21257293.4414
                                                                        50.7504
        39.2504
    138412.94948    139984.60546
                  21299351.2664                                   21299347.2234
                                                                        50.2504
        36.2504
   5136799.70747   4012236.38344
                  23400749.1804                                   23400742.9694
                                                                        43.7504
        26.0004
  -5257705.19147  -4046248.19944
                  22995821.2584                                   22995817.2114
                                                                        44.5004
        29.0004
  -4230611.10548  -3247323.10946
                  22179054.9454                                   22179051.7854
                                                                        49.2504
        36.7504
   3888866.92647   3068128.05943
                  24137350.3054                                   24137345.9224
                                                                        42.0004
        20.5004
   5482630.78547   4284108.19144
                  24332841.1644                                   24332838.2464
                                                                        42.0004
        25.5004
 09 10 25 23 45 30.0000000  0 10G02G04G05G10G13G23G25G29G16G07
    945277.97348    761805.36747
                  20636027.3134                                   20636022.3164
                                                                        52.5004
        42.5004
   6072027.12947   4736031.77045
                  22882593.0704                                   22882590.3284
                                                                        46.5004
        31.5004
  -7227265.96548  -5569633.16446
                  22004917.6644                                   22004914.2464
                                                                        49.5004
        38.7504
  -6463941.26648  -4978889.84046
                  21226125.8284                                   21226122.7504
                                                                        50.7504
        39.7504
     76159.83648     91475.68845
                  21287505.3204                                   21287501.1024
                                                                        50.2504
        35.5004
   5137942.42647   4013126.78944
                  23400966.5474                                   23400960.6884
                                                                        43.5004
        24.0004
  -5405656.75847  -4161535.07844
                  22967665.8914                                   22967662.6564
                                                                        44.0004
        29.0004
  -4360416.25848  -3348469.98446
                  22154353.9144                                   22154350.4774
                                                                        49.0004
        36.0004
   3735452.58647   2948584.37543
                  24108157.0314                                   24108151.9304
                                                                        42.0004
        20.2504
   5292679.61747   4136094.39844
                  24296694.7274                                   24296691.5004
                                                                        42.5004
        26.0004
 09 10 25 23 46  0.0000000  0 10G02G04G05G10G13G23G25G29G16G07
    893158.78948    721193.03147
                  20626109.5164                                   20626104.1994
                                                                        52.5004
        42.0004
   6083202.34447   4744739.75445
                  22884720.1884                                   22884716.8284
                                                                        46.5004
        32.5004
  -7405321.98448  -5708378.07446
                  21971034.4144                                   21971031.3204
                                                                        49.5004
        39.0004
  -6627226.10548  -5106124.85946
                  21195053.9774                                   21195050.7504
                                                                        51.0004
        39.2504
     14604.58648     43510.55546
                  21275791.4924                                   21275787.4884
                                                                        49.0004
        36.0004
   5139491.79347   4014334.09844
                  23401261.4224                                   23401255.4574
                                                                        43.7504
        25.7504
  -5553058.48447  -4276393.53944
                  22939616.9304                                   22939612.6994
                                                                        44.2504
        27.7504
  -4489591.14148  -3449125.74646
                  22129772.4384                                   22129768.7664
                                                                        49.0004
        36.5004
   3582591.47346   2829471.78143
                  24079068.5474                                   24079063.8714
                                                                        40.7504
        21.5004
   5103048.75447   3988330.14844
                  24260608.9454                                   24260606.0434
                                                                        43.0004
        26.7504
 09 10 25 23 46 30.0000000  0 10G02G04G05G10G13G23G25G29G16G07
    841659.12548    681063.43447
                  20616309.6254                                   20616304.0634
                                                                        51.7504
        42.0004
   6094689.83647   4753690.98045
                  22886905.5004                                   22886902.6914
                                                                        46.7504
        32.7504
  -7582966.68448  -5846802.45746
                  21937229.8834                                   21937226.6644
                                                                        49.2504
        39.0004
  -6789991.04348  -5232954.75446
                  21164080.7664                                   21164077.5864
                                                                        51.0004
        39.5004
    -46254.08248     -3911.78546
                  21264210.3134                                   21264206.4884
                                                                        49.2504
        36.0004
   5141445.19147   4015856.23844
                  23401632.8524                                   23401627.3794
                                                                        42.5004
        26.2504
  -5699908.13747  -4390821.78544
                  22911672.3364                                   22911668.6914
                                                                        43.7504
        28.0004
  -4618134.56248  -3549289.46146
                  22105311.4844                                   22105308.3754
                                                                        49.7504
        36.7504
   3430285.55546   2710791.84443
                  24050085.5234                                   24050081.2464
                                                                        40.5004
        21.5004
   4913741.15647   3840817.84844
                  24224584.9064                                   24224581.8054
                                                                        42.0004
        25.5004
 09 10 25 23 47  0.0000000  0 10G02G04G05G10G13G23G25G29G16G07
    790777.14848    641415.16446
                  20606626.8914                                   20606621.6844
                                                                        52.0004
        41.7504
   6106486.93847   4762883.52745
                  22889150.8284                                   22889147.8284
                                                                        46.0004
        32.0004
  -7760199.35548  -5984905.76246
                  21903503.6254                                   21903500.7854
                                                                        49.5004
        39.5004
  -6952235.20348  -5359378.80946
                  21133206.5474                                   21133203.5474
                                                                        51.0004
        39.5004
   -106417.77348    -50792.58646
                  21252761.5634                                   21252757.7304
                                                                        48.2504
        36.2504
   5143799.99647   4017691.16044
                  23402081.2734                                   23402075.4344
                                                                        42.5004
        26.5004
  -5846204.25047  -4504818.75044
                  22883833.5864                                   22883829.2854
                                                                        45.0004
        28.2504
  -4746045.19148  -3648960.08246
                  22080970.9924                                   22080967.8714
                                                                        49.7504
        36.7504
   3278537.05146   2592546.28743
                  24021208.3834                                   24021204.3794
                                                                        40.7504
        22.7504
   4724759.13346   3693558.96144
                  24188623.1174                                   24188619.2974
                                                                        41.2504
        26.7504
 09 10 25 23 47 30.0000000  0 10G02G04G05G10G13G23G25G29G16G07
    740512.14548    602247.64547
                  20597061.7974                                   20597056.3714
                                                                        51.7504
        42.5004
   6118591.40647   4772315.42245
                  22891454.2504                                   22891451.8524
                                                                        45.7504
        32.0004
  -7937018.17248  -6122686.74646
                  21869856.1484                                   21869852.7114
                                                                        50.0004
        39.5004
  -7113955.96948  -5485394.93446
                  21102432.3524                                   21102429.2424
                                                                        50.5004
        39.5004
   -165887.87548    -97132.93045
                  21241444.9454                                   21241440.9184
                                                                        48.2504
        35.5004
   5146553.10247   4019836.46944
                  23402605.1564                                   23402599.1764
                                                                        42.5004
        26.0004
  -5991944.67247  -4618382.69944
                  22856099.8054                                   22856095.8524
                                                                        45.0004
        28.5004
  -4873321.53948  -3748136.46146
                  22056751.0314                                   22056747.4694
                                                                        49.5004
        37.0004
   3127348.13746   2474736.76243
                  23992438.3444                                   23992434.1294
                                                                        39.7504
        22.2504
   4536106.44146   3546556.85544
                  24152723.3284                                   24152720.3484
                                                                        40.7504
        24.7504
 09 10 25 23 48  0.0000000  0 10G02G04G05G10G13G23G25G29G16G07
    690864.66448    563561.30147
                  20587613.9774                                   20587608.6994
                                                                        52.2504
        42.0004
   6131002.92647   4781986.74245
                  22893816.1334                                   22893813.4694
                                                                        44.5004
        31.7504
  -8113419.41448  -6260142.30546
                  21836288.1564                                   21836284.8914
                                                                        50.0004
        39.5004
  -7275150.89548  -5611001.40646
                  21071757.9454                                   21071754.7274
                                                                        51.0004
        39.2504
   -224664.52348   -142932.91846
                  21230259.8284                                   21230256.0514
                                                                        49.0004
        36.0004
   5149703.06347   4022290.94544
                  23403203.9224                                   23403198.9654
                                                                        42.2504
        25.5004
  -6137126.39147  -4731511.29344
                  22828472.5704                                   22828469.4264
                                                                        45.5004
        28.5004
  -4999960.93048  -3846816.52346
                  22032652.5084                                   22032649.1454
                                                                        49.0004
        37.2504
   2976722.09846   2357365.79343
                  23963774.6644                                   23963770.8284
                                                                        40.7504
        21.0004
   4347787.86746   3399815.63343
                  24116886.6024                                   24116883.9774
                                                                        40.0004
        22.5004
 09 10 25 23 48 30.0000000  0 10G02G04G05G10G13G23G25G29G16G07
   2217252.09048   1752954.12547
                  20878076.2114                                   20878070.8284
                                                                        51.7504
        42.0004
   7719136.14547   6019493.33645
                  23196027.4304                                   23196024.8364
                                                                        46.0004
        31.0004
  -6713978.28948  -5169668.73446
                  22102593.3284                                   22102589.7894
                                                                        49.7504
        39.5004
  -5860395.99248  -4508595.02346
                  21340976.6724                                   21340973.7584
                                                                        51.0004
        39.5004
   1292670.21948   1039405.84045
                  21518999.3364                                   21518995.1414
                                                                        48.5004
        35.7504
   6728664.74346   5252650.64743
                  23703671.3284                                   23703664.8054
                                                                        41.5004
        23.7504
  -4706325.30947  -3616601.31644
                  23100744.9924                                   23100741.7584
                                                                        45.0004
        28.5004
  -3550541.12948  -2717398.53146
                  22308467.7114                                   22308464.7194
                                                                        49.0004
        36.7504
   4402083.10246   3468036.71543
                  24235012.5004                                   24235008.8244
                                                                        39.5004
        22.2504
   5735228.27746   4480938.24244
                  24380907.6484                                   24380904.6764
                                                                        39.2504
        25.0004
 09 10 25 23 49  0.0000000  0 10G02G04G05G10G13G23G25G29G16G07
   2168828.51248   1715221.46947
                  20868861.5634                                   20868856.0984
                                                                        52.5004
        42.2504
   7732147.11347   6029631.59445
                  23198503.6334                                   23198501.1214
                                                                        46.2504
        30.0004
  -6889546.27748  -5306474.85546
                  22069183.3134                                   22069180.1414
                                                                        49.0004
        39.0004
  -6020542.06648  -4633384.30546
                  21310502.1414                                   21310498.9964
                                                                        51.5004
        40.2504
   1235269.39848    994677.94545
                  21508076.3674                                   21508072.1564
                                                                        49.0004
        35.5004
   6732593.59847   5255712.06344
                  23704418.7584                                   23704412.9774
                                                                        43.0004
        26.0004
  -4850391.13347  -3728860.44545
                  23073330.2974                                   23073326.6054
                                                                        43.5004
        30.0004
  -3675910.70348  -2815089.14146
                  22284610.8674                                   22284607.6724
                                                                        49.0004
        36.5004
   4252581.65246   3351542.07043
                  24206561.9384                                   24206559.5434
                                                                        38.0004
        22.0004
   5547577.05946   4334716.62943
                  24345199.4774                                   24345195.7854
                                                                        40.7504
        23.5004
 09 10 25 23 49 30.0000000  0 10G02G04G05G10G13G23G25G29G16G07
   2121012.45348   1677962.22347
                  20859762.1954                                   20859756.7544
                                                                        52.7504
        42.0004
   7745452.12547   6039999.07845
                  23201035.2584                                   23201032.4344
                                                                        46.2504
        30.0004
  -7064698.07048  -5442956.64846
                  22035853.1884                                   22035849.6804
                                                                        49.5004
        39.2504
  -6180163.26648  -4757764.42246
                  21280127.4144                                   21280123.9804
                                                                        51.0004
        40.5004
   1178551.39548    950482.10545
                  21497283.2034                                   21497279.0164
                                                                        49.0004
        35.5004
   6736904.99647   5259071.59043
                  23705238.3054                                   23705232.6454
                                                                        43.0004
        22.7504
  -4993899.08647  -3840684.82044
                  23046021.2814                                   23046018.2114
                                                                        45.0004
        29.5004
  -3800646.18048  -2912285.65646
                  22260874.3834                                   22260871.2504
                                                                        49.2504
        37.7504
   4103642.73846   3235485.75043
                  24178220.2894                                   24178217.2894
                                                                        39.0004
        21.5004
   5360261.06346   4188756.13344
                  24309554.4064                                   24309550.7234
                                                                        41.5004
        25.5004
 09 10 25 23 50  0.0000000  0 10G02G04G05G10G13G23G25G29G16G07
   2073802.13348   1641174.94147
                  20850778.5554                                   20850772.9614
                                                                        52.2504
        42.0004
   7759048.44147   6050593.63345
                  23203622.7034                                   23203619.7154
                                                                        47.0004
        30.5004
  -7239432.72348  -5579113.50446
                  22002602.3754                                   22002598.9144
                                                                        50.2504
        39.7504
  -6339258.83648  -4881734.77346
                  21249852.2194                                   21249848.7194
                                                                        51.0004
        39.5004
   1122514.35548    906816.88746
                  21486619.6644                                   21486615.5314
                                                                        49.0004
        36.2504
   6741595.88347   5262726.84443
                  23706131.5554                                   23706124.8794
                                                                        43.0004
        22.5004
  -5136847.89147  -3952073.50444
                  23018819.5084                                   23018815.9104
                                                                        43.5004
        29.2504
  -3924747.07048  -3008987.69146
                  22237258.9694                                   22237256.3364
                                                                        49.0004
        36.7504
   3955268.23446   3119869.27043
                  24149985.6564                                   24149982.2384
                                                                        38.5004
        20.2504
   5173282.80147   4043058.84044
                  24273973.8834                                   24273970.0314
                                                                        42.5004
        25.7504
 09 10 25 23 50 30.0000000  0 10G02G04G05G10G13G23G25G29G16G07
   2027195.64148   1604858.19547
                  20841909.4064                                   20841903.8204
                                                                        52.5004
        42.0004
   7772932.51247   6061412.31345
                  23206265.0474                                   23206262.0124
                                                                        47.0004
        31.7504
  -7413748.84048  -5714944.19546
                  21969431.0394                                   21969427.7034
                                                                        50.7504
        40.2504
  -6497828.21948  -5005295.21146
                  21219677.3594                                   21219674.0314
                                                                        51.0004
        40.2504
   1067155.60948    863680.20345
                  21476085.2974                                   21476081.1954
                                                                        49.7504
        35.7504
   6746662.50447   5266674.85544
                  23707095.7584                                   23707089.4104
                                                                        44.0004
        26.0004
  -5279236.56647  -4063025.69544
                  22991723.3364                                   22991720.4264
                                                                        43.0004
        29.0004
  -4048213.27748  -3105195.17246
                  22213764.0004                                   22213761.3714
                                                                        48.0004
        37.2504
   3807458.92246   3004693.17643
                  24121859.0164                                   24121855.2154
                                                                        39.5004
        22.0004
   4986644.56346   3897626.49644
                  24238457.5394                                   24238454.2234
                                                                        41.5004
        25.7504
 09 10 25 23 51  0.0000000  0 10G02G04G05G10G13G23G25G29G16G07
   1981189.71548   1569009.39847
                  20833154.6414                                   20833149.1684
                                                                        52.2504
        42.2504
   7787100.09447   6072451.80945
                  23208960.8444                                   23208959.1094
                                                                        47.0004
        30.7504
  -7587647.18048  -5850449.36346
                  21936339.0474                                   21936335.5044
                                                                        49.7504
        39.7504
  -6655872.23448  -5128446.33646
                  21189602.2034                                   21189599.1374
                                                                        50.5004
        40.2504
   1012471.32048    821069.06645
                  21465679.3984                                   21465675.2384
                                                                        49.7504
        35.5004
   6752099.62147   5270911.58644
                  23708130.8134                                   23708124.7154
                                                                        43.5004
        26.5004
  -5421065.76647  -4173541.93744
                  22964734.2114                                   22964730.7194
                                                                        44.2504
        29.2504
  -4171046.13748  -3200909.12946
                  22190390.0784                                   22190386.8524
                                                                        49.0004
        36.7504
   3660214.71546   2889957.46943
                  24093839.6484                                   24093835.8054
                                                                        40.0004
        22.5004
   4800346.46546   3752459.17644
                  24203006.2194                                   24203002.3244
                                                                        41.0004
        26.5004
 09 10 25 23 51 30.0000000  0 10G02G04G05G10G13G23G25G29G16G07
   1935783.81648   1533628.16447
                  20824514.3444                                   20824508.9064
                                                                        52.5004
        42.2504
   7801549.61747   6083711.03145
                  23211710.5864                                   23211708.3054
                                                                        46.2504
        31.2504
  -7761124.45748  -5985626.41046
                  21903327.3914                                   21903323.9694
                                                                        50.0004
        40.0004
  -6813387.93748  -5251185.82846
                  21159628.1884                                   21159625.0394
                                                                        51.7504
        40.0004
    958460.98048    778983.08245
                  21455401.4384                                   21455397.2934
                                                                        50.0004
        35.5004
   6757905.80547   5275435.88744
                  23709235.6334                                   23709229.9534
                                                                        43.2504
        25.7504
  -5562332.77747  -4283620.09444
                  22937851.9694                                   22937848.5274
                                                                        43.0004
        28.5004
  -4293242.54348  -3296127.10246
                  22167136.6094                                   22167133.6724
                                                                        49.0004
        37.5004
   3513538.64546   2775664.41843
                  24065928.2114                                   24065923.8914
                                                                        40.2504
        22.5004
   4614392.27347   3607559.79344
                  24167619.9924                                   24167616.5634
                                                                        42.2504
        27.2504
 09 10 25 23 52  0.0000000  0 10G02G04G05G10G13G23G25G29G16G07
   1890973.64148   1498711.13347
                  20815987.3754                                   20815981.8914
                                                                        52.2504
        42.0004
   7816276.87947   6095186.91445
                  23214513.0704                                   23214510.0944
                                                                        46.5004
        30.2504
  -7934183.03948  -6120477.19946
                  21870395.5314                                   21870391.8554
                                                                        49.5004
        39.7504
  -6970377.24248  -5373515.14546
                  21129754.0164                                   21129751.0514
                                                                        51.2504
        39.7504
    905119.93448    737418.63345
                  21445250.9304                                   21445246.9224
                                                                        50.0004
        35.2504
   6764075.19546   5280243.15644
                  23710409.2274                                   23710404.0944
                                                                        41.0004
        24.2504
  -5703038.91447  -4393261.25044
                  22911076.6334                                   22911072.7704
                                                                        43.0004
        29.0004
  -4414805.34448  -3390851.37946
                  22144003.8984                                   22144000.9024
                                                                        49.5004
        37.7504
   3367428.97746   2661812.75043
                  24038124.0314                                   24038119.7854
                                                                        41.0004
        22.5004
   4428782.61346   3462928.85944
                  24132299.6414                                   24132297.0204
                                                                        41.5004
        26.7504
 09 10 25 23 52 30.0000000  0 10G02G04G05G10G13G23G25G29G16G07
   1846756.56648   1464256.26646
                  20807572.9534                                   20807567.9304
                                                                        52.0004
        41.7504
   7831277.25047   6106875.66045
                  23217367.5554                                   23217364.7664
                                                                        46.5004
        30.5004
  -8106822.29748  -6255001.22346
                  21837543.1414                                   21837539.6454
                                                                        49.5004
        40.5004
  -7126840.30948  -5495434.40246
                  21099980.4454                                   21099976.7934
                                                                        51.0004
        40.5004
    852444.82448    696373.09845
                  21435226.9304                                   21435223.1094
                                                                        49.5004
        34.7504
   6770602.88746   5285329.61743
                  23711650.4304                                   23711646.0984
                                                                        41.5004
        22.5004
  -5843184.31647  -4502465.45344
                  22884408.6024                                   22884403.7074
                                                                        43.7504
        28.7504
  -4535734.66048  -3485082.03146
                  22120992.2194                                   22120988.7274
                                                                        49.5004
        37.5004
   3221885.76646   2548402.41043
                  24010428.2114                                   24010423.9384
                                                                        41.0004
        22.0004
   4243518.16846   3318566.97344
                  24097044.8984                                   24097041.6024
                                                                        41.2504
        24.0004
 09 10 25 23 53  0.0000000  0 10G02G04G05G10G13G23G25G29G16G07
   1803132.52748   1430263.51647
                  20799271.7664                                   20799266.4344
                                                                        52.5004
        42.2504
   7846549.77747   6118776.46944
                  23220273.4924                                   23220270.7504
                                                                        46.2504
        29.5004
  -8279039.03948  -6389196.02046
                  21804771.5634                                   21804768.2304
                                                                        50.5004
        39.7504
  -7282774.06648  -5616941.20746
                  21070307.1174                                   21070303.8364
                                                                        52.0004
        40.0004
    800435.78148    655846.57445
                  21425330.0944                                   21425326.4964
                                                                        49.5004
        35.5004
   6777488.02047   5290694.69543
                  23712961.6804                                   23712955.7774
                                                                        42.0004
        21.7504
  -5982765.69147  -4611230.12944
                  22857846.5394                                   22857842.0784
                                                                        44.5004
        29.7504
  -4656028.07048  -3578817.16846
                  22098100.8984                                   22098097.6684
                                                                        50.0004
        37.2504
   3076913.55946   2435437.01643
                  23982841.5634                                   23982836.5124
                                                                        40.5004
        22.5004
   4058603.34847   3174477.53544
                  24061857.0784                                   24061853.4574
                                                                        42.2504
        25.2504
 09 10 25 23 53 30.0000000  0 10G02G04G05G10G13G23G25G29G16G07
   1760099.39548   1396731.20346
                  20791083.0164                                   20791077.5474
                                                                        52.0004
        41.7504
   7862091.03947   6130886.41044
                  23223231.2114                                   23223228.3634
                                                                        44.7504
        29.5004
  -8450832.77048  -6523061.22346
                  21772080.5314                                   21772076.9734
                                                                        50.5004
        40.5004
  -7438177.74648  -5738034.96946
                  21040734.6174                                   21040731.6374
                                                                        51.5004
        40.0004
    749089.76648    615836.69145
                  21415559.0784                                   21415555.2934
                                                                        49.2504
        35.5004
   6784726.96947   5296335.45744
                  23714339.1024                                   23714333.2074
                                                                        42.7504
        24.2504
  -6121782.41047  -4719554.85944
                  22831392.1804                                   22831388.2424
                                                                        44.2504
        29.2504
  -4775686.04748  -3672057.21546
                  22075330.8674                                   22075327.5164
                                                                        50.5004
        38.0004
   2932512.67246   2322916.87543
                  23955362.4614                                   23955357.4224
                                                                        40.5004
        22.0004
   3874040.21946   3030662.24644
                  24026735.4224                                   24026731.9884
                                                                        41.7504
        24.5004
 09 10 25 23 54  0.0000000  0 10G02G04G05G10G13G23G25G29G16G07
   1717654.66048   1363657.37546
                  20783005.7274                                   20783000.7664
                                                                        52.2504
        41.7504
   7877898.04347   6143203.37544
                  23226239.1254                                   23226236.5274
                                                                        44.0004
        29.5004
  -8622202.96148  -6656596.41446
                  21739469.6884                                   21739465.9384
                                                                        50.2504
        40.5004
  -7593051.07448  -5858715.48046
                  21011263.2034                                   21011259.9184
                                                                        51.5004
        39.7504
    698404.27348    576341.49245
                  21405914.3754                                   21405910.5664
                                                                        49.0004
        35.0004
   6792315.39147   5302248.50443
                  23715783.4454                                   23715777.4104
                                                                        42.5004
        23.0004
  -6260233.98447  -4827439.18044
                  22805046.1254                                   22805041.8284
                                                                        43.5004
        29.5004
  -4894708.93048  -3764802.32046
                  22052681.9304                                   22052678.7274
                                                                        50.0004
        37.7504
   2788683.58246   2210842.27743
                  23927992.7814                                   23927988.3364
                                                                        41.2504
        21.7504
   3689829.58247   2887121.58643
                  23991681.6804                                   23991677.3244
                                                                        43.0004
        23.5004
 09 10 25 23 54 30.0000000  0 10G02G04G05G10G13G23G25G29G16G07
   1675797.05948   1331041.07047
                  20775040.8284                                   20775035.1054
                                                                        51.2504
        42.0004
   7893968.75047   6155725.98845
                  23229297.7664                                   23229295.0004
                                                                        43.5004
        30.5004
  -8793147.63748  -6789800.02046
                  21706940.0164                                   21706936.1254
                                                                        50.5004
        40.2504
  -7747392.72348  -5978981.65646
                  20981892.9064                                   20981889.7074
                                                                        51.5004
        41.0004
    648377.00848    537359.20345
                  21396394.6564                                   21396390.2894
                                                                        49.0004
        35.0004
   6800250.88347   5308432.04743
                  23717293.1024                                   23717287.2894
                                                                        42.5004
        22.5004
  -6398119.05947  -4934882.08244
                  22778807.4454                                   22778803.5434
                                                                        44.2504
        29.7504
  -5013095.10948  -3857051.28946
                  22030153.1954                                   22030149.9844
                                                                        50.0004
        37.7504
   2645428.30546   2099214.78943
                  23900731.2114                                   23900727.2234
                                                                        40.0004
        20.2504
   3505975.02047   2743858.36744
                  23956695.2734                                   23956691.5044
                                                                        43.7504
        25.7504
 09 10 25 23 55  0.0000000  0 10G02G04G05G10G13G23G25G29G16G07
   1634525.19948   1298881.18046
                  20767187.0084                                   20767181.3594
                                                                        52.7504
        41.5004
   7910300.86347   6168452.23845
                  23232405.2194                                   23232402.8634
                                                                        44.5004
        30.0004
  -8963664.98048  -6922670.61346
                  21674491.3284                                   21674487.5824
                                                                        50.5004
        40.0004
  -7901201.15648  -6098832.36346
                  20952624.1094                                   20952620.7774
                                                                        52.0004
        40.2504
    599006.80148    498888.91845
                  21386999.3834                                   21386995.2544
                                                                        49.0004
        35.5004
   6808530.75846   5314883.90643
                  23718869.0634                                   23718863.2934
                                                                        41.7504
        22.5004
  -6535435.70747  -5041882.05945
                  22752676.5394                                   22752673.1764
                                                                        44.7504
        30.7504
  -5130843.44148  -3948803.23446
                  22007746.4774                                   22007743.5394
                                                                        49.0004
        37.7504
   2502749.25446   1988036.40643
                  23873580.2424                                   23873576.5474
                                                                        39.0004
        20.7504
   3322479.23047   2600874.62544
                  23921776.6024                                   23921773.6604
                                                                        44.5004
        25.7504
 09 10 25 23 55 30.0000000  0 10G02G04G05G10G13G23G25G29G16G07
   1593835.03148   1267174.55146
                  20759443.7734                                   20759438.2234
                                                                        52.2504
        41.5004
   7926889.44547   6181378.42245
                  23235562.4454                                   23235559.5944
                                                                        46.0004
        30.5004
  -9133756.65648  -7055209.54746
                  21642124.0634                                   21642120.1454
                                                                        50.0004
        40.0004
  -8054477.66848  -6218268.60246
                  20923456.8204                                   20923453.3164
                                                                        51.7504
        40.2504
    550288.94548    460926.95745
                  21377728.9454                                   21377724.5594
                                                                        48.0004
        34.2504
   6817149.35946   5321599.67244
                  23720508.6334                                   23720503.5164
                                                                        41.2504
        24.0004
  -6672185.38747  -5148440.25844
                  22726653.9454                                   22726650.5784
                                                                        44.5004
        29.5004
  -5247956.51648  -4040060.17246
                  21985460.5314                                   21985457.7664
                                                                        50.0004
        38.0004
   2360644.38746   1877305.46143
                  23846538.4774                                   23846535.3524
                                                                        40.0004
        21.7504
   3139342.11347   2458170.41444
                  23886926.6334                                   23886923.6764
                                                                        43.5004
        26.5004
 09 10 25 23 56  0.0000000  0 10G02G04G05G10G13G23G25G29G16G07
   1553726.19548   1235920.91046
                  20751811.0704                                   20751805.8794
                                                                        52.0004
        41.5004
   7943733.06347   6194503.27044
                  23238767.2734                                   23238765.0044
                                                                        44.0004
        29.2504
  -9303419.45748  -7187414.29746
                  21609838.1414                                   21609834.6524
                                                                        49.5004
        40.5004
  -8207219.63748  -6337288.30146
                  20894390.7894                                   20894387.7384
                                                                        51.7504
        40.2504
    502222.87148    423472.86745
                  21368582.1724                                   21368578.2194
                                                                        48.2504
        34.7504
   6826104.82846   5328577.88744
                  23722213.1024                                   23722207.5784
                                                                        41.7504
        25.2504
  -6808365.17247  -5254554.36344
                  22700739.8914                                   22700736.4184
                                                                        44.0004
        29.5004
  -5364431.86348  -4130820.20346
                  21963296.2504                                   21963293.5204
                                                                        49.5004
        38.0004
   2219117.15246   1767024.64143
                  23819607.4304                                   23819604.0084
                                                                        41.0004
        22.5004
   2956567.85547   2315748.98444
                  23852146.3674                                   23852143.4494
                                                                        43.7504
        26.5004
 09 10 25 23 56 30.0000000  0 10G02G04G05G10G13G23G25G29G16G07
   1514198.72348   1205120.27346
                  20744289.3914                                   20744284.0824
                                                                        52.0004
        41.5004
   7960831.16047   6207826.38744
                  23242021.1254                                   23242018.6914
                                                                        44.7504
        29.7504
  -9472650.55948  -7319282.66046
                  21577634.6564                                   21577630.8164
                                                                        49.7504
        40.5004
  -8359424.27748  -6455889.31246
                  20865427.2274                                   20865423.9144
                                                                        52.0004
        40.2504
    454808.29747    386526.45345
                  21359559.5944                                   21359555.7074
                                                                        47.7504
        35.5004
   6835395.98047   5335817.66844
                  23723981.1254                                   23723975.3834
                                                                        43.0004
        24.5004
  -6943972.19547  -5360222.15244
                  22674934.3524                                   22674931.4184
                                                                        44.2504
        29.5004
  -5480267.17248  -4221081.47346
                  21941253.4144                                   21941250.2464
                                                                        50.0004
        37.5004
   2078170.53947   1657196.19543
                  23792786.0084                                   23792782.5044
                                                                        42.0004
        23.7504
   2774160.41047   2173613.27044
                  23817435.0084                                   23817431.8954
                                                                        43.5004
        26.7504
 09 10 25 23 57  0.0000000  0 10G02G04G05G10G13G23G25G29G16G07
   1475247.54348   1174768.70746
                  20736877.2664                                   20736871.9384
                                                                        53.0004
        41.2504
   7978177.80947   6221343.23844
                  23245322.2034                                   23245319.4804
                                                                        45.5004
        29.2504
  -9641451.66448  -7450815.96146
                  21545512.9844                                   21545509.3244
                                                                        50.0004
        40.5004
  -8511093.99248  -6574073.51246
                  20836565.2344                                   20836562.2304
                                                                        51.7504
        40.5004
    408039.53547    350083.25445
                  21350659.8984                                   21350655.8444
                                                                        47.7504
        34.5004
   6845016.31347   5343314.00444
                  23725812.1884                                   23725806.0474
                                                                        43.5004
        24.0004
  -7079008.72747  -5465445.42644
                  22649238.1024                                   22649234.9184
                                                                        44.7504
        29.7504
  -5595465.66448  -4310846.53946
                  21919332.1414                                   21919328.5234
                                                                        49.7504
        37.0004
   1937802.80547   1547818.81344
                  23766075.2584                                   23766071.2664
                                                                        42.0004
        24.7504
   2592119.35947   2031763.11344
                  23782794.3284                                   23782790.5554
                                                                        44.0004
        27.5004
 09 10 25 23 57 30.0000000  0 10G02G04G05G10G13G23G25G29G16G07
   3012291.05548   2372464.94146
                  21029366.9304                                   21029361.8484
                                                                        52.7504
        41.0004
   9571188.78547   7462650.57444
                  23548461.8754                                   23548458.8674
                                                                        45.5004
        28.7504
  -8234397.30948  -6354409.94146
                  21813266.3134                                   21813263.1094
                                                                        49.7504
        40.7504
  -7086803.68048  -5464236.89846
                  21107598.5314                                   21107595.3714
                                                                        51.7504
        40.0004
   1937334.70747   1541741.83245
                  21641674.8284                                   21641671.2034
                                                                        47.5004
        35.0004
   8430381.43847   6578663.44143
                  24027496.7194                                   24027491.0554
                                                                        43.0004
        23.0004
  -5638050.26647  -4342620.64545
                  22923443.1414                                   22923439.8164
                                                                        44.7504
        30.5004
  -4134603.99648  -3172512.80146
                  22197324.6644                                   22197321.4534
                                                                        50.5004
        37.7504
   3373438.83446   2666496.28843
                  24039267.2194                                   24039263.5944
                                                                        40.5004
        23.5004
   3985871.71547   3117804.05944
                  24048016.1564                                   24048012.5354
                                                                        42.5004
        26.0004
 09 10 25 23 58  0.0000000  0 10G02G04G05G10G13G23G25G29G16G07
   2974487.11348   2343007.32046
                  21022173.1414                                   21022167.8594
                                                                        53.0004
        41.5004
   9589024.77347   7476548.78544
                  23551855.6564                                   23551853.3324
                                                                        45.0004
        28.5004
  -8402335.07448  -6485270.52046
                  21781308.9064                                   21781305.1564
                                                                        51.0004
        40.7504
  -7237399.94148  -5581584.61746
                  21078941.3754                                   21078938.2774
                                                                        51.5004
        40.5004
   1891850.72348   1506299.76245
                  21633019.8914                                   21633015.7304
                                                                        49.0004
        34.7504
   8440650.72347   6586665.47743
                  24029451.4614                                   24029445.2344
                                                                        42.0004
        22.0004
  -5771942.61347  -4446952.34845
                  22897964.3364                                   22897961.2074
                                                                        45.5004
        30.2504
  -4248527.06248  -3261284.05146
                  22175646.0234                                   22175642.8094
                                                                        50.0004
        37.5004
   3234232.68046   2558024.02743
                  24012777.5784                                   24012773.1954
                                                                        41.5004
        22.7504
   3804569.76647   2976529.89144
                  24013515.0314                                   24013512.2304
                                                                        43.5004
        27.7504
 09 10 25 23 58 30.0000000  0 10G02G04G05G10G13G23G25G29G16G07
   2937254.16448   2313994.64546
                  21015087.8444                                   21015082.7034
                                                                        53.0004
        41.5004
   9607101.76647   7490634.77744
                  23555295.8134                                   23555293.0314
                                                                        44.0004
        28.0004
  -8569839.55948  -6615793.48046
                  21749433.7734                                   21749430.0164
                                                                        50.2504
        40.7504
  -7387458.14148  -5698513.08646
                  21050386.1564                                   21050382.9654
                                                                        51.7504
        40.5004
   1847005.89548   1471355.73445
                  21624485.7194                                   21624481.8794
                                                                        48.7504
        35.0004
   8451240.18446   6594916.97743
                  24031465.8364                                   24031460.3984
                                                                        40.7504
        21.5004
  -5905260.69147  -4550836.54745
                  22872594.8444                                   22872591.4304
                                                                        44.5004
        30.2504
  -4361811.84048  -3349557.94146
                  22154088.6414                                   22154085.4454
                                                                        50.5004
        37.7504
   3095609.75846   2450006.23443
                  23986398.0084                                   23986393.6524
                                                                        40.7504
        22.0004
   3623641.55947   2835546.95344
                  23979085.8754                                   23979082.0474
                                                                        43.5004
        26.7504
 09 10 25 23 59  0.0000000  0 10G02G04G05G10G13G23G25G29G16G07
   2900589.85548   2285425.05546
                  21008111.0164                                   21008105.6374
                                                                        53.0004
        41.5004
   9625416.21947   7504905.82044
                  23558781.0554                                   23558778.2544
                                                                        45.7504
        29.0004
  -8736909.29748  -6745977.68746
                  21717641.1804                                   21717637.6884
                                                                        50.2504
        40.2504
  -7536977.48048  -5815021.65246
                  21021933.6804                                   21021930.4184
                                                                        51.5004
        41.0004
   1802797.24648   1436907.43445
                  21616073.0944                                   21616069.2624
                                                                        48.5004
        34.2504
   8462145.60246   6603414.68443
                  24033541.2504                                   24033534.9924
                                                                        39.5004
        20.2504
  -6038004.66847  -4654273.40245
                  22847334.6254                                   22847331.0634
                                                                        45.5004
        30.7504
  -4474458.00048  -3437334.21946
                  22132652.6484                                   22132649.6484
                                                                        49.5004
        37.7504
   2957570.31646   2342443.07443
                  23960130.4924                                   23960125.2194
                                                                        41.7504
        22.0004
   3443088.18847   2694856.05144
                  23944727.2894                                   23944723.9734
                                                                        43.2504
        25.7504
 09 10 25 23 59 30.0000000  0 10G02G04G05G10G13G23G25G29G16G07
   2864492.41448   2257297.17646
                  21001241.9384                                   21001236.3054
                                                                        53.0004
        41.5004
   9643965.69547   7519359.95745
                  23562311.0634                                   23562308.3634
                                                                        45.5004
        30.5004
  -8903542.99248  -6875822.11346
                  21685931.8754                                   21685928.6214
                                                                        51.0004
        40.7504
  -7685956.88348  -5931109.49246
                  20993583.9454                                   20993580.5274
                                                                        52.0004
        40.5004
   1759222.81348   1402953.31345
                  21607781.4304                                   21607777.3404
                                                                        48.7504
        34.7504
   8473364.27746   6612156.48043
                  24035676.3914                                   24035670.7584
                                                                        40.0004
        22.0004
  -6170173.00047  -4757261.71945
                  22822183.5084                                   22822180.3364
                                                                        46.0004
        30.5004
  -4586465.61348  -3524612.91046
                  22111338.3444                                   22111335.4224
                                                                        49.7504
        37.5004
   2820115.54347   2235335.45743
                  23933973.6564                                   23933968.4494
                                                                        42.5004
        22.0004
   3262912.67247   2554459.59844
                  23910441.6484                                   23910437.9454
                                                                        43.7504
        27.0004
