     2.11           OBSERVATION DATA    G (GPS)             RINEX VERSION / TYPE
teqc  2019Feb25                         20221121 12:28:50UTCPGM / RUN BY / DATE
OSX ker:10.11.6|Core i5|gcc 4.3 -m64|OSX ker:10.10+|=+      COMMENT
BIT 2 OF LLI FLAGS DATA COLLECTED UNDER A/S CONDITION       COMMENT
04713020                                                    MARKER NAME
3020                                                        MARKER NUMBER
-Unknown-           -Unknown-                               OBSERVER / AGENCY
0220400471          TRIMBLE R7          2.30                REC # / TYPE / VERS
-Unknown-           TRM39105.00     NONE                    ANT # / TYPE
  1449459.5725 -1709244.0925  5952444.2891                  APPROX POSITION XYZ
        0.0000        0.0000        0.0000                  ANTENNA: DELTA H/E/N
     1     1                                                WAVELENGTH FACT L1/2
    20    L1    L2    L5    L6    L7    L8    C1    P1    C2# / TYPES OF OBSERV
          P2    C5    C6    C7    C8    S1    S2    S5    S6# / TYPES OF OBSERV
          S7    S8                                          # / TYPES OF OBSERV
    30.0000                                                 INTERVAL
    15                                                      LEAP SECONDS
Forced Modulo Decimation to 30 seconds                      COMMENT
 SNR is mapped to RINEX snr flag value [0-9]                COMMENT
  L1 & L2: min(max(int(snr_dBHz/6), 0), 9)                  COMMENT
teqc edited: Beidou # 1 - 37 excluded                       COMMENT
  2009    10    29     0     0    0.0000000     GPS         TIME OF FIRST OBS
                                                            END OF HEADER
 09 10 29  0  0  0.0000000  0  8G02G04G05G10G13G29G16G07
  -4661354.62548  -3610502.82846
                  21198427.9844                                   21198421.9964
                                                                        51.2504
        40.2504
   1471290.74247   1148007.70344
                  24022785.1954                                   24022782.6844
                                                                        42.5004
        27.2504
 -17030630.69948 -13219111.83646
                  21237723.4304                                   21237719.1254
                                                                        51.0004
        41.0004
 -15480478.84448 -12017722.14846
                  20630913.9224                                   20630910.2624
                                                                        52.0004
        40.5004
  -5554810.93748  -4303346.61745
                  21778844.8754                                   21778840.9344
                                                                        48.5004
        33.0004
 -12138316.73048  -9417937.68046
                  21946459.0234                                   21946455.2704
                                                                        49.5004
        39.0004
  -9687005.92246  -7509471.63343
                  23644609.2974                                   23644604.4344
                                                                        41.5004
        22.7504
 -10461583.60547  -8141170.91844
                  23399854.6414                                   23399850.8714
                                                                        42.5004
        29.7504
 09 10 29  0  0 30.0000000  0  8G02G04G05G10G13G29G16G07
  -4677329.02348  -3622950.39546
                  21195388.2274                                   21195382.0394
                                                                        51.7504
        40.0004
   1501192.85947   1171307.89544
                  24028475.8054                                   24028473.0234
                                                                        43.0004
        28.0004
 -17179071.43748 -13334779.94946
                  21209475.7894                                   21209471.7664
                                                                        51.0004
        41.2504
 -15607957.16848 -12117055.91446
                  20606655.7344                                   20606652.0944
                                                                        51.2504
        41.0004
  -5576427.27348  -4320190.52345
                  21774731.6484                                   21774727.3014
                                                                        49.0004
        33.5004
 -12227101.73448  -9487120.79346
                  21929564.0004                                   21929559.8404
                                                                        49.5004
        38.2504
  -9802510.21546  -7599475.00043
                  23622629.5164                                   23622624.1484
                                                                        41.7504
        22.5004
 -10624866.19147  -8268404.03944
                  23368783.1724                                   23368778.6764
                                                                        44.5004
        28.7504
 09 10 29  0  1  0.0000000  0  8G02G04G05G10G13G29G16G07
  -4692785.32048  -3634994.25446
                  21192446.7344                                   21192440.8984
                                                                        51.5004
        40.0004
   1531265.69947   1194741.32844
                  24034199.0944                                   24034196.2234
                                                                        42.2504
        27.7504
 -17327036.07048 -13450077.04746
                  21181319.3364                                   21181315.1914
                                                                        51.0004
        41.5004
 -15734863.62548 -12215944.06246
                  20582506.0554                                   20582501.6254
                                                                        52.2504
        40.7504
  -5597472.05548  -4336589.07445
                  21770727.1024                                   21770722.7464
                                                                        48.7504
        33.5004
 -12315239.11748  -9555799.27346
                  21912791.5474                                   21912787.4414
                                                                        48.7504
        38.0004
  -9917394.67646  -7688995.36344
                  23600767.5394                                   23600762.6994
                                                                        41.5004
        24.0004
 -10787699.16447  -8395286.87545
                  23337796.5634                                   23337793.0904
                                                                        43.5004
        30.2504
 09 10 29  0  1 30.0000000  0  8G02G04G05G10G13G29G16G07
  -4707725.42648  -3646635.89546
                  21189603.8134                                   21189597.4534
                                                                        51.2504
        40.0004
   1561506.43846   1218305.49244
                  24039952.6414                                   24039950.1844
                                                                        41.2504
        24.0004
 -17474523.53148 -13565002.35546
                  21153253.0084                                   21153249.0204
                                                                        51.0004
        41.0004
 -15861197.66848 -12314386.18046
                  20558465.5164                                   20558461.9884
                                                                        52.0004
        41.0004
  -5617947.74248  -4352544.16045
                  21766831.0474                                   21766826.6334
                                                                        49.0004
        33.2504
 -12402728.69548  -9623972.97346
                  21896143.1644                                   21896139.3244
                                                                        49.2504
        38.0004
 -10031658.01247  -7778031.70744
                  23579023.9614                                   23579019.8364
                                                                        42.0004
        24.0004
 -10950080.28547  -8521817.61745
                  23306897.1414                                   23306892.7584
                                                                        43.5004
        30.0004
 09 10 29  0  2  0.0000000  0  8G02G04G05G10G13G29G16G07
  -4722152.32048  -3657877.65246
                  21186858.6174                                   21186852.7034
                                                                        51.2504
        40.2504
   1591911.98046   1241998.12943
                  24045738.6954                                   24045736.5274
                                                                        40.0004
        22.5004
 -17621532.96548 -13679555.16446
                  21125278.2974                                   21125274.0824
                                                                        51.5004
        41.5004
 -15986959.09448 -12412382.08647
                  20534533.6804                                   20534530.2774
                                                                        52.0004
        42.0004
  -5637857.65648  -4368058.40245
                  21763042.3444                                   21763037.4924
                                                                        48.7504
        33.0004
 -12489570.94148  -9691642.25446
                  21879617.5634                                   21879614.0204
                                                                        49.2504
        37.5004
 -10145300.28546  -7866584.14844
                  23557398.4694                                   23557394.3404
                                                                        41.5004
        24.5004
 -11112008.07047  -8647995.08645
                  23276082.6024                                   23276078.7504
                                                                        44.5004
        30.2504
 09 10 29  0  2 30.0000000  0  8G02G04G05G10G13G29G16G07
  -4736067.36748  -3668720.55146
                  21184210.3134                                   21184204.7114
                                                                        51.0004
        40.2504
   1622480.69947   1265817.88343
                  24051556.2114                                   24051553.2344
                                                                        42.5004
        22.7504
 -17768062.87148 -13793734.31246
                  21097394.4304                                   21097389.8284
                                                                        51.5004
        41.0004
 -16112146.89148 -12509931.03146
                  20510711.7734                                   20510707.9264
                                                                        52.2504
        41.5004
  -5657203.76648  -4383133.29345
                  21759360.3524                                   21759356.2424
                                                                        49.0004
        33.2504
 -12575766.10948  -9758807.32046
                  21863215.1954                                   21863211.6174
                                                                        50.2504
        38.0004
 -10258320.20746  -7954651.58244
                  23535891.7504                                   23535887.8554
                                                                        41.2504
        24.5004
 -11273479.35947  -8773816.85544
                  23245356.0554                                   23245351.7774
                                                                        43.7504
        29.2504
 09 10 29  0  3  0.0000000  0  8G02G04G05G10G13G29G16G07
  -4749473.94948  -3679167.23846
                  21181659.0784                                   21181653.5234
                                                                        50.2504
        40.5004
   1653208.90247   1289762.01644
                  24057403.5474                                   24057400.4454
                                                                        43.5004
        26.0004
 -17914112.91048 -13907539.54346
                  21069601.9224                                   21069597.9384
                                                                        51.2504
        41.5004
 -16236761.18748 -12607033.07846
                  20486998.2814                                   20486994.6254
                                                                        52.0004
        41.7504
  -5675989.66848  -4397771.63745
                  21755785.8524                                   21755781.4804
                                                                        49.0004
        32.0004
 -12661315.22348  -9825468.96946
                  21846935.7274                                   21846931.9104
                                                                        49.2504
        37.2504
 -10370717.94546  -8042234.21544
                  23514502.8284                                   23514499.2304
                                                                        41.7504
        25.5004
 -11434493.07847  -8899282.09844
                  23214716.1484                                   23214711.7814
                                                                        43.0004
        28.7504
 09 10 29  0  3 30.0000000  0  8G02G04G05G10G13G29G16G07
  -4762371.70348  -3689217.42246
                  21179205.0394                                   21179198.9574
                                                                        51.2504
        39.7504
   1684096.90247   1313830.65644
                  24063281.0634                                   24063278.5354
                                                                        44.0004
        26.5004
 -18059679.99248 -14020968.43446
                  21041901.4924                                   21041897.3634
                                                                        51.0004
        41.7504
 -16360798.67248 -12703685.66446
                  20463394.7734                                   20463390.7814
                                                                        52.0004
        41.0004
  -5694215.68748  -4411973.71545
                  21752317.5164                                   21752312.9574
                                                                        48.7504
        32.2504
 -12746216.10548  -9891625.49646
                  21830779.5474                                   21830775.8364
                                                                        49.5004
        38.0004
 -10482490.49247  -8129329.68744
                  23493233.4534                                   23493229.1684
                                                                        42.0004
        26.5004
 -11595044.51647  -9024387.07845
                  23184164.6414                                   23184160.3554
                                                                        43.7504
        30.0004
 09 10 29  0  4  0.0000000  0  8G02G04G05G10G13G29G16G07
  -3199341.82048  -2471272.06646
                  21476639.8204                                   21476633.6914
                                                                        51.5004
        40.0004
   3290561.60947   2565621.45344
                  24368981.0474                                   24368978.6484
                                                                        43.0004
        25.5004
 -16629337.25448 -12906415.67646
                  21314086.9694                                   21314082.7114
                                                                        51.2504
        41.0004
 -14908834.30148 -11572284.84846
                  20739694.4614                                   20739690.2234
                                                                        51.7504
        41.0004
  -4136463.60248  -3198140.89845
                  22048747.5234                                   22048743.2034
                                                                        48.2504
        32.5004
 -11255045.67248  -8729674.50446
                  22114539.9694                                   22114536.1564
                                                                        49.2504
        38.5004
  -9018213.07047  -6988334.30944
                  23771876.0004                                   23771872.2074
                                                                        42.7504
        24.7504
 -10179705.44147  -7921525.44945
                  23453494.3674                                   23453490.0434
                                                                        44.5004
        30.0004
 09 10 29  0  4 30.0000000  0  8G02G04G05G10G13G29G16G07
  -3211229.32048  -2480535.05946
                  21474377.4304                                   21474372.0124
                                                                        51.5004
        40.0004
   3321760.27047   2589932.03944
                  24374918.0474                                   24374915.5084
                                                                        42.5004
        25.0004
 -16773935.67648 -13019089.77346
                  21286570.5634                                   21286566.8714
                                                                        50.7504
        41.5004
 -15031718.23048 -11668038.55946
                  20716310.2974                                   20716306.5514
                                                                        51.7504
        41.0004
  -4153579.30548  -3211477.78545
                  22045490.4614                                   22045485.9104
                                                                        48.7504
        32.2504
 -11338651.97348  -8794822.26646
                  22098629.9064                                   22098626.3794
                                                                        48.7504
        38.0004
  -9128734.16447  -7074454.66044
                  23750845.1414                                   23750841.2894
                                                                        42.2504
        25.2504
 -10339326.54747  -8045905.52744
                  23423120.0394                                   23423115.3554
                                                                        45.7504
        29.7504
 09 10 29  0  5  0.0000000  0  8G02G04G05G10G13G29G16G07
  -3222614.32848  -2489406.50846
                  21472211.0944                                   21472204.9614
                                                                        51.2504
        39.5004
   3353111.60246   2614361.63343
                  24380883.4694                                   24380881.4774
                                                                        41.0004
        23.5004
 -16918047.25448 -13131384.49646
                  21259147.0784                                   21259142.8444
                                                                        51.0004
        41.5004
 -15154023.48448 -11763341.36346
                  20693036.4224                                   20693032.6094
                                                                        52.0004
        41.0004
  -4170142.86348  -3224384.44145
                  22042339.0314                                   22042334.5594
                                                                        49.2504
        32.5004
 -11421610.80548  -8859465.51646
                  22082843.5004                                   22082840.1414
                                                                        49.2504
        38.0004
  -9238627.61346  -7160085.91444
                  23729932.7194                                   23729928.2774
                                                                        41.7504
        25.0004
 -10498478.09847  -8169919.72344
                  23392833.7814                                   23392829.3554
                                                                        44.5004
        29.5004
 09 10 29  0  5 30.0000000  0  8G02G04G05G10G13G29G16G07
  -3233500.14848  -2497888.96946
                  21470139.2664                                   21470133.2934
                                                                        51.0004
        39.2504
   3384611.95347   2638907.26644
                  24386878.9694                                   24386875.9534
                                                                        43.7504
        24.0004
 -17061671.59048 -13243299.57846
                  21231816.3754                                   21231812.6174
                                                                        50.7504
        41.0004
 -15275750.55148 -11858193.61746
                  20669872.4844                                   20669868.7664
                                                                        51.7504
        41.0004
  -4186157.97348  -3236863.75845
                  22039291.1254                                   22039286.8054
                                                                        49.0004
        32.2504
 -11503923.03148  -8923604.90646
                  22067179.8364                                   22067176.2934
                                                                        49.2504
        38.5004
  -9347893.92647  -7245228.46944
                  23709139.8674                                   23709135.8204
                                                                        43.0004
        25.5004
 -10657158.91047  -8293567.08644
                  23362638.0004                                   23362633.3244
                                                                        43.5004
        29.7504
 09 10 29  0  6  0.0000000  0  8G02G04G05G10G13G29G16G07
  -3243889.23048  -2505984.35546
                  21468162.5554                                   21468156.5554
                                                                        50.0004
        39.5004
   3416258.95347   2663567.25844
                  24392901.0004                                   24392897.7664
                                                                        43.0004
        24.7504
 -17204808.12148 -13354834.55547
                  21204578.4384                                   21204574.5984
                                                                        51.0004
        42.0004
 -15396899.16448 -11952595.13346
                  20646818.8444                                   20646815.1054
                                                                        51.5004
        41.0004
  -4201627.91048  -3248918.25045
                  22036347.1644                                   22036342.9534
                                                                        48.2504
        32.5004
 -11585590.06248  -8987241.56246
                  22051639.4224                                   22051635.7074
                                                                        48.5004
        38.5004
  -9456532.63347  -7329881.97344
                  23688466.8364                                   23688462.9104
                                                                        42.5004
        25.5004
 -10815367.13346  -8416846.20744
                  23332531.3204                                   23332527.7074
                                                                        41.0004
        29.7504
 09 10 29  0  6 30.0000000  0  8G02G04G05G10G13G29G16G07
  -3253784.62548  -2513695.03146
                  21466279.2974                                   21466273.5004
                                                                        50.7504
        39.2504
   3448049.19547   2688338.82043
                  24398950.4144                                   24398947.6094
                                                                        42.5004
        23.7504
 -17347456.75048 -13465989.31646
                  21177433.4144                                   21177428.9734
                                                                        51.0004
        41.7504
 -15517469.47348 -12046546.02746
                  20623874.9534                                   20623870.8364
                                                                        51.5004
        41.5004
  -4216556.08248  -3260550.57445
                  22033506.7034                                   22033502.2074
                                                                        48.0004
        32.5004
 -11666612.42248  -9050375.88346
                  22036220.9454                                   22036217.8244
                                                                        49.2504
        38.0004
  -9564544.22746  -7414046.88344
                  23667913.2584                                   23667908.6844
                                                                        41.7504
        26.2504
 -10973101.13347  -8539755.76644
                  23302515.8444                                   23302511.9534
                                                                        43.5004
        29.2504
 09 10 29  0  7  0.0000000  0  8G02G04G05G10G13G29G16G07
  -3263188.73848  -2521022.92646
                  21464489.7424                                   21464483.9264
                                                                        51.7504
        39.7504
   3479980.44546   2713220.23443
                  24405026.0944                                   24405023.9454
                                                                        41.0004
        22.5004
 -17489616.19548 -13576762.89546
                  21150380.9614                                   21150376.9414
                                                                        51.0004
        41.7504
 -15637460.94148 -12140045.87946
                  20601040.9534                                   20601037.4304
                                                                        52.0004
        41.2504
  -4230945.25848  -3271762.93445
                  22030768.4694                                   22030764.2544
                                                                        48.2504
        32.7504
 -11746990.74247  -9113008.34846
                  22020926.1724                                   22020922.3794
                                                                        47.7504
        37.5004
  -9671927.84447  -7497722.43744
                  23647478.5634                                   23647473.9804
                                                                        42.5004
        24.5004
 -11130359.02747  -8662294.37545
                  23272590.4534                                   23272586.5554
                                                                        44.2504
        30.0004
 09 10 29  0  7 30.0000000  0  8G02G04G05G10G13G29G16G07
  -3272102.60548  -2527968.83246
                  21462794.1024                                   21462788.0594
                                                                        50.7504
        39.5004
   3512050.66046   2738209.88743
                  24411129.2734                                   24411126.7304
                                                                        41.5004
        22.0004
 -17631284.87148 -13687154.08246
                  21123422.7034                                   21123418.3714
                                                                        51.0004
        41.5004
 -15756872.25048 -12233093.65646
                  20578317.8054                                   20578314.0394
                                                                        51.2504
        40.5004
  -4244797.49648  -3282556.89145
                  22028132.3984                                   22028128.3404
                                                                        48.0004
        32.0004
 -11826725.08648  -9175139.01246
                  22005753.1334                                   22005749.4534
                                                                        48.7504
        38.0004
  -9778682.41447  -7580907.81644
                  23627163.6094                                   23627159.3874
                                                                        44.0004
        24.7504
 -11287137.44547  -8784459.35945
                  23242756.8754                                   23242752.3594
                                                                        43.7504
        31.0004
 09 10 29  0  8  0.0000000  0  8G02G04G05G10G13G29G16G07
  -3280528.62148  -2534534.55546
                  21461190.5784                                   21461184.2154
                                                                        51.0004
        40.0004
   3544258.14547   2763306.60544
                  24417258.1024                                   24417255.6214
                                                                        42.5004
        24.0004
 -17772461.26648 -13797161.66446
                  21096557.6094                                   21096553.1134
                                                                        52.0004
        41.5004
 -15875702.85248 -12325688.93046
                  20555705.5004                                   20555701.4304
                                                                        51.5004
        40.7504
  -4258115.46148  -3292934.53945
                  22025598.0944                                   22025593.9184
                                                                        48.2504
        32.5004
 -11905815.24648  -9236767.71146
                  21990702.5234                                   21990698.9224
                                                                        49.5004
        38.0004
  -9884807.21947  -7663602.50844
                  23606969.0474                                   23606964.8244
                                                                        43.5004
        25.5004
 -11443434.46147  -8906249.25445
                  23213014.9534                                   23213010.5274
                                                                        46.0004
        30.7504
 09 10 29  0  8 30.0000000  0  8G02G04G05G10G13G29G16G07
  -3288469.83648  -2540722.53946
                  21459679.1484                                   21459673.1134
                                                                        50.0004
        39.5004
   3576599.86347   2788508.04344
                  24423412.4144                                   24423409.8484
                                                                        43.2504
        24.5004
 -17913145.57448 -13906785.82046
                  21069786.1804                                   21069781.7304
                                                                        51.0004
        41.5004
 -15993952.96148 -12417831.86746
                  20533203.0084                                   20533199.4264
                                                                        51.7504
        41.2504
  -4270902.59448  -3302898.54745
                  22023164.9144                                   22023160.0784
                                                                        48.0004
        31.5004
 -11984262.82848  -9297895.70746
                  21975774.3754                                   21975771.0044
                                                                        49.0004
        38.5004
  -9990302.69947  -7745806.77743
                  23586894.1644                                   23586889.2344
                                                                        43.0004
        23.7504
 -11599248.62147  -9027662.88745
                  23183364.0944                                   23183359.8244
                                                                        44.5004
        31.2504
 09 10 29  0  9  0.0000000  0  8G02G04G05G10G13G29G16G07
  -3295928.28148  -2546534.33646
                  21458259.9924                                   21458253.7464
                                                                        51.0004
        39.2504
   3609072.89147   2813811.76644
                  24429592.4304                                   24429589.6844
                                                                        43.0004
        24.5004
 -18053336.21948 -14016025.25046
                  21043108.7424                                   21043104.8404
                                                                        50.7504
        41.5004
 -16111621.97348 -12509522.02046
                  20510811.3204                                   20510807.4774
                                                                        52.0004
        41.5004
  -4283161.40648  -3312450.89145
                  22020831.9614                                   22020827.7194
                                                                        48.0004
        32.0004
 -12062067.84848  -9358523.00046
                  21960968.7584                                   21960965.0434
                                                                        48.7504
        38.7504
 -10095167.85247  -7827519.91044
                  23566938.7974                                   23566934.3054
                                                                        42.5004
        25.7504
 -11754577.25847  -9148698.16045
                  23153806.2274                                   23153801.6724
                                                                        44.7504
        30.7504
 09 10 29  0  9 30.0000000  0  8G02G04G05G10G13G29G16G07
  -3302905.70348  -2551971.30546
                  21456931.9454                                   21456926.2544
                                                                        50.0004
        39.0004
   3641675.72747   2839216.59444
                  24435796.1954                                   24435793.8444
                                                                        42.5004
        24.5004
 -18193031.75848 -14124878.90247
                  21016525.5634                                   21016521.2734
                                                                        50.5004
        42.0004
 -16228708.43448 -12600758.21546
                  20488530.6024                                   20488526.7544
                                                                        51.5004
        41.5004
  -4294894.53147  -3321593.59045
                  22018599.4454                                   22018594.7544
                                                                        46.5004
        31.2504
 -12139230.43747  -9418649.68046
                  21946284.9844                                   21946281.5984
                                                                        47.5004
        37.7504
 -10199401.95746  -7908741.30144
                  23547103.5084                                   23547098.8404
                                                                        41.5004
        24.0004
 -11909417.96547  -9269353.28145
                  23124341.1334                                   23124336.7464
                                                                        45.0004
        30.7504
 09 10 29  0 10  0.0000000  0  8G02G04G05G10G13G29G16G07
  -3309406.41048  -2557036.83246
                  21455695.1884                                   21455689.3364
                                                                        51.0004
        39.0004
   3674403.91047   2864719.05943
                  24442023.9614                                   24442021.8554
                                                                        42.0004
        22.7504
 -18332232.89148 -14233347.32446
                  20990036.3204                                   20990032.4614
                                                                        51.0004
        41.5004
 -16345214.23048 -12691541.96546
                  20466360.3134                                   20466356.3554
                                                                        51.7504
        41.5004
  -4306106.27747  -3330330.03545
                  22016466.0234                                   22016461.3284
                                                                        47.5004
        31.7504
 -12215752.84848  -9478277.53546
                  21931723.5634                                   21931719.5634
                                                                        48.5004
        38.0004
 -10303006.20346  -7989471.92244
                  23527388.3524                                   23527383.5274
                                                                        41.2504
        24.2504
 -12063770.23447  -9389627.80945
                  23094968.9844                                   23094964.2304
                                                                        44.5004
        30.7504
 09 10 29  0 10 30.0000000  0  8G02G04G05G10G13G29G16G07
  -3315432.30948  -2561732.36346
                  21454548.6884                                   21454542.6214
                                                                        50.5004
        39.5004
   3707255.89146   2890317.94543
                  24448274.9224                                   24448273.1884
                                                                        40.5004
        22.5004
 -18470938.10948 -14341429.30146
                  20963641.7734                                   20963637.7034
                                                                        50.5004
        41.7504
 -16461138.33248 -12781872.41446
                  20444300.6094                                   20444296.9494
                                                                        52.7504
        41.0004
  -4316799.42647  -3338662.41845
                  22014431.0474                                   22014426.8204
                                                                        46.7504
        31.5004
 -12291635.58247  -9537406.94146
                  21917283.4534                                   21917279.9384
                                                                        47.2504
        38.0004
 -10405980.16846  -8069711.38343
                  23507793.2344                                   23507788.4414
                                                                        41.5004
        23.5004
 -12217631.49247  -9509519.68744
                  23065690.0474                                   23065685.0274
                                                                        44.7504
        29.7504
 09 10 29  0 11  0.0000000  0  8G02G04G05G10G13G29G16G07
  -3320985.50048  -2566059.52346
                  21453491.8204                                   21453485.8874
                                                                        50.5004
        38.7504
   3740228.85246   2916011.15243
                  24454550.1484                                   24454547.3244
                                                                        41.2504
        22.0004
 -18609146.62548 -14449124.28147
                  20937341.1724                                   20937337.3134
                                                                        51.0004
        42.0004
 -16576480.21948 -12871749.21546
                  20422351.7664                                   20422347.9964
                                                                        52.5004
        41.2504
  -4326976.40647  -3346592.56645
                  22012494.5634                                   22012490.1484
                                                                        47.2504
        31.5004
 -12366878.83248  -9596038.04346
                  21902965.0394                                   21902961.2504
                                                                        48.2504
        37.7504
 -10508323.21947  -8149459.23443
                  23488317.6804                                   23488313.0744
                                                                        42.7504
        22.5004
 -12370999.65247  -9629027.33644
                  23036504.4924                                   23036500.0354
                                                                        43.0004
        28.7504
 09 10 29  0 11 30.0000000  0  8G02G04G05G10G13G29G16G07
  -3326068.57848  -2570020.37146
                  21452524.2194                                   21452518.4734
                                                                        50.2504
        39.0004
   3773320.70746   2941796.99243
                  24460847.4844                                   24460844.6054
                                                                        40.0004
        22.5004
 -18746857.75448 -14556431.68447
                  20911136.0784                                   20911132.1334
                                                                        51.5004
        42.0004
 -16691239.59448 -12961172.09046
                  20400513.8984                                   20400509.9734
                                                                        52.5004
        41.0004
  -4336640.05147  -3354122.67645
                  22010655.4924                                   22010651.1644
                                                                        46.7504
        30.7504
 -12441483.29348  -9654171.39146
                  21888768.3984                                   21888764.4064
                                                                        48.5004
        38.0004
 -10610035.08247  -8228715.25043
                  23468962.1484                                   23468957.6644
                                                                        42.5004
        23.0004
 -12523872.89547  -9748149.31244
                  23007413.6024                                   23007409.4574
                                                                        43.0004
        29.7504
 09 10 29  0 12  0.0000000  0  8G02G04G05G10G13G29G16G07
  -3330683.94948  -2573616.78146
                  21451646.5554                                   21451640.2424
                                                                        50.5004
        38.7504
   3806528.76646   2967673.36343
                  24467166.5784                                   24467164.2774
                                                                        41.2504
        22.7504
 -18884070.06648 -14663350.33246
                  20885025.4384                                   20885021.1524
                                                                        51.5004
        41.5004
 -16805416.64548 -13050141.24646
                  20378786.7274                                   20378782.7274
                                                                        53.0004
        41.5004
  -4345793.93447  -3361255.56245
                  22008913.8594                                   22008909.4454
                                                                        47.5004
        31.5004
 -12515450.26648  -9711807.97746
                  21874692.7584                                   21874688.9964
                                                                        48.7504
        38.0004
 -10711115.36347  -8307479.11743
                  23449727.7584                                   23449723.0204
                                                                        42.5004
        22.7504
 -12676249.00847  -9866883.90645
                  22978417.5944                                   22978413.1644
                                                                        43.7504
        30.5004
 09 10 29  0 12 30.0000000  0  8G02G04G05G10G13G29G16G07
  -3334833.60548  -2576850.29346
                  21450856.8524                                   21450850.5944
                                                                        49.5004
        38.5004
   3839851.54747   2993639.18444
                  24473508.2504                                   24473505.4884
                                                                        42.5004
        25.2504
 -19020782.41448 -14769879.44147
                  20859009.9454                                   20859005.6804
                                                                        52.0004
        42.0004
 -16919009.71548 -13138655.34446
                  20357171.0004                                   20357166.8134
                                                                        52.7504
        41.0004
  -4354439.90247  -3367992.71945
                  22007268.0474                                   22007264.3634
                                                                        47.2504
        31.2504
 -12588780.09048  -9768948.10246
                  21860738.2894                                   21860734.9884
                                                                        49.0004
        38.0004
 -10811563.38047  -8385750.30343
                  23430612.9534                                   23430608.4534
                                                                        43.2504
        22.5004
 -12828125.26247  -9985229.05945
                  22949516.8914                                   22949512.3834
                                                                        45.2504
        31.0004
 09 10 29  0 13  0.0000000  0  8G02G04G05G10G13G29G16G07
  -3338519.18748  -2579722.21546
                  21450154.9844                                   21450149.4694
                                                                        49.2504
        38.2504
   3873286.96147   3019692.76243
                  24479870.5164                                   24479868.3594
                                                                        42.5004
        23.7504
 -19156993.02348 -14876017.54346
                  20833089.9924                                   20833085.7384
                                                                        51.5004
        41.7504
 -17032018.21548 -13226713.91046
                  20335666.0004                                   20335662.2034
                                                                        52.5004
        41.2504
  -4362580.08647  -3374335.71545
                  22005718.8054                                   22005714.7624
                                                                        47.0004
        31.5004
 -12661471.79348  -9825590.98846
                  21846905.9454                                   21846902.2664
                                                                        49.0004
        38.2504
 -10911378.44147  -8463528.25043
                  23411619.0234                                   23411613.8914
                                                                        42.7504
        23.0004
 -12979499.08647 -10103182.60545
                  22920711.0084                                   22920706.9924
                                                                        45.2504
        31.5004
 09 10 29  0 13 30.0000000  0  8G02G04G05G10G13G29G16G07
  -1766322.68448  -1354634.02746
                  21749334.2664                                   21749328.1994
                                                                        49.5004
        39.0004
   5482251.69147   4273431.58643
                  24786045.6954                                   24786044.1174
                                                                        42.0004
        22.0004
 -17717276.38748 -13754160.41047
                  21107058.7974                                   21107054.3204
                                                                        51.2504
        42.0004
 -15569018.03148 -12086713.75846
                  20614065.6024                                   20614061.7934
                                                                        52.0004
        41.7504
  -2794797.23047  -2152686.73845
                  22304058.4614                                   22304053.9774
                                                                        46.5004
        31.5004
 -11158104.32448  -8654135.82046
                  22132987.4064                                   22132983.5704
                                                                        48.7504
        38.2504
  -9435137.00847  -7313210.28144
                  23692538.5704                                   23692533.8594
                                                                        43.5004
        25.0004
 -11554943.49247  -8993139.27045
                  23191795.3364                                   23191791.1684
                                                                        42.7504
        31.5004
 09 10 29  0 14  0.0000000  0  8G02G04G05G10G13G29G16G07
  -1769086.78148  -1356787.88746
                  21748808.0474                                   21748802.3954
                                                                        50.0004
        39.0004
   5515905.54346   4299655.37543
                  24792450.2974                                   24792447.3364
                                                                        41.2504
        21.5004
 -17852480.52748 -13859514.27747
                  21081330.3204                                   21081325.9534
                                                                        51.5004
        42.2504
 -15680856.17648 -12173860.34846
                  20592783.4844                                   20592779.9104
                                                                        52.7504
        41.2504
  -2801934.48447  -2158248.23445
                  22302700.3834                                   22302696.2234
                                                                        47.2504
        31.0004
 -11229522.57448  -8709786.40246
                  22119396.8054                                   22119392.8134
                                                                        49.5004
        37.5004
  -9533684.36747  -7390000.38743
                  23673785.4534                                   23673780.5314
                                                                        43.0004
        23.7504
 -11705306.21147  -9110305.04745
                  23163181.9304                                   23163177.9064
                                                                        44.0004
        32.2504
 09 10 29  0 14 30.0000000  0  7G02G05G10G13G29G16G07
  -1771400.08248  -1358590.45746
                  21748368.2424                                   21748362.3954
                                                                        50.7504
        39.0004
 -17987186.51648 -13964479.99647
                  21055696.7274                                   21055692.7344
                                                                        51.5004
        42.5004
 -15792114.75848 -12260555.35246
                  20571611.7424                                   20571607.8364
                                                                        51.7504
        41.0004
  -2808581.23047  -2163427.53145
                  22301435.8364                                   22301430.9024
                                                                        46.7504
        30.5004
 -11300311.96548  -8764946.97746
                  22105925.8914                                   22105922.3054
                                                                        49.0004
        38.0004
  -9631604.46546  -7466301.72743
                  23655151.9534                                   23655147.3054
                                                                        41.7504
        23.7504
 -11855166.42647  -9227079.22345
                  23134664.6804                                   23134660.2734
                                                                        44.5004
        32.2504
 09 10 29  0 15  0.0000000  0  7G02G05G10G13G29G16G07
  -1773260.60548  -1360040.23446
                  21748014.2424                                   21748008.1374
                                                                        48.5004
        38.0004
 -18121389.16048 -14069053.48447
                  21030158.5784                                   21030154.6844
                                                                        51.7504
        42.5004
 -15902789.33648 -12346795.26246
                  20550550.9614                                   20550547.1764
                                                                        53.0004
        41.2504
  -2814735.87947  -2168223.39144
                  22300264.2114                                   22300259.8984
                                                                        44.5004
        29.0004
 -11370468.61748  -8819614.49246
                  22092575.7344                                   22092571.6764
                                                                        49.2504
        38.5004
  -9728892.52347  -7542110.58644
                  23636638.7894                                   23636634.0824
                                                                        42.0004
        24.7504
 -12004518.44947  -9343457.43445
                  23106244.0864                                   23106239.4344
                                                                        44.0004
        31.5004
 09 10 29  0 15 30.0000000  0  7G02G05G10G13G29G16G07
  -1774664.25448  -1361134.00046
                  21747747.1254                                   21747741.0904
                                                                        50.0004
        37.7504
 -18255080.64148 -14173228.68047
                  21004717.8204                                   21004714.0234
                                                                        52.0004
        42.5004
 -16012872.86748 -12432574.64846
                  20529602.9774                                   20529598.7624
                                                                        52.2504
        41.2504
  -2820394.38747  -2172632.61745
                  22299187.6254                                   22299182.9844
                                                                        46.5004
        30.2504
 -11439986.66848  -8873784.39846
                  22079346.7504                                   22079343.1294
                                                                        50.0004
        37.7504
  -9825541.55947  -7617421.52343
                  23618247.1644                                   23618242.3364
                                                                        43.0004
        23.7504
 -12153352.43747  -9459431.99245
                  23077921.8054                                   23077917.0044
                                                                        44.7504
        31.5004
 09 10 29  0 16  0.0000000  0  7G02G05G10G13G29G16G07
  -1775611.04748  -1361871.78546
                  21747566.7664                                   21747561.0824
                                                                        49.5004
        38.0004
 -18388257.40248 -14277002.77747
                  20979375.2894                                   20979371.2384
                                                                        52.0004
        42.5004
 -16122362.21948 -12517891.02747
                  20508767.7584                                   20508763.9024
                                                                        53.0004
        42.0004
  -2825557.19547  -2176655.60545
                  22298205.0864                                   22298200.7974
                                                                        45.0004
        30.5004
 -11508864.01248  -8927455.05146
                  22066240.0164                                   22066236.2384
                                                                        48.7504
        38.0004
  -9921548.53947  -7692232.18043
                  23599977.4844                                   23599972.8524
                                                                        43.0004
        22.7504
 -12301664.26647  -9574999.60545
                  23049698.9304                                   23049694.1844
                                                                        44.0004
        30.7504
 09 10 29  0 16 30.0000000  0  7G02G05G10G13G29G16G07
  -1776106.51248  -1362257.89146
                  21747472.7974                                   21747466.6954
                                                                        50.0004
        38.2504
 -18520922.41448 -14380378.11347
                  20954130.0084                                   20954126.3094
                                                                        51.7504
        42.2504
 -16231261.10248 -12602747.28946
                  20488044.7504                                   20488041.0394
                                                                        53.0004
        41.0004
  -2830230.85947  -2180297.41044
                  22297315.6094                                   22297311.4064
                                                                        45.5004
        29.7504
 -11577105.60948  -8980630.32846
                  22053253.9064                                   22053250.3404
                                                                        49.5004
        38.2504
 -10016917.47747  -7766545.58643
                  23581828.9534                                   23581824.4734
                                                                        43.0004
        23.7504
 -12449456.10247  -9690162.06645
                  23021574.8284                                   23021569.9184
                                                                        44.0004
        31.0004
 09 10 29  0 17  0.0000000  0  7G02G05G10G13G29G16G07
  -1776156.30148  -1362296.68446
                  21747463.0704                                   21747456.8594
                                                                        49.5004
        38.2504
 -18653077.90648 -14483356.42247
                  20928981.7894                                   20928977.4614
                                                                        52.0004
        42.0004
 -16339572.20748 -12687145.55146
                  20467433.9534                                   20467430.2664
                                                                        52.7504
        41.5004
  -2834421.57847  -2183562.91045
                  22296518.3054                                   22296513.9494
                                                                        45.0004
        31.0004
 -11644715.47348  -9033313.34446
                  22040388.2814                                   22040384.2704
                                                                        49.0004
        38.0004
 -10111651.26647  -7840364.10944
                  23563802.3914                                   23563797.2384
                                                                        42.5004
        25.0004
 -12596728.52047  -9804919.82045
                  22993550.0944                                   22993545.5704
                                                                        43.7504
        30.7504
 09 10 29  0 17 30.0000000  0  7G02G05G10G13G29G16G07
  -1775765.21148  -1361991.95746
                  21747537.5944                                   21747531.4844
                                                                        50.0004
        38.2504
 -18784725.09848 -14585938.64847
                  20903930.1484                                   20903926.1564
                                                                        52.2504
        42.5004
 -16447297.40248 -12771087.25846
                  20446934.4144                                   20446930.8634
                                                                        52.2504
        41.0004
  -2838134.23047  -2186455.90245
                  22295811.6334                                   22295807.1644
                                                                        46.7504
        30.7504
 -11711696.06248  -9085506.02046
                  22027642.2274                                   22027638.5124
                                                                        49.5004
        38.5004
 -10205751.48047  -7913688.99644
                  23545895.1954                                   23545890.9694
                                                                        42.0004
        24.5004
 -12743481.72347  -9919272.90645
                  22965623.5864                                   22965618.7504
                                                                        44.5004
        30.2504
 09 10 29  0 18  0.0000000  0  7G02G05G10G13G29G16G07
  -1774936.80948  -1361346.45346
                  21747695.4384                                   21747689.4654
                                                                        49.0004
        38.2504
 -18915864.04748 -14688124.86747
                  20878975.3134                                   20878971.2734
                                                                        52.2504
        42.0004
 -16554438.21948 -12854573.60946
                  20426546.3914                                   20426542.0664
                                                                        52.7504
        41.0004
  -2841373.03947  -2188979.64845
                  22295195.8834                                   22295190.8524
                                                                        45.0004
        31.2504
 -11778049.84448  -9137210.24646
                  22015015.7034                                   22015011.7814
                                                                        49.7504
        38.0004
 -10299220.23847  -7986521.83644
                  23528109.0084                                   23528103.9264
                                                                        42.7504
        24.0004
 -12889715.10947 -10033221.01245
                  22937796.8134                                   22937792.0204
                                                                        44.5004
        31.2504
 09 10 29  0 18 30.0000000  0  7G02G05G10G13G29G16G07
  -1773671.72748  -1360360.69546
                  21747936.0164                                   21747930.1294
                                                                        49.5004
        38.5004
 -19046492.40648 -14789913.21947
                  20854117.5164                                   20854113.2424
                                                                        52.0004
        42.7504
 -16660992.33248 -12937602.78546
                  20406269.8754                                   20406266.0554
                                                                        52.0004
        41.7504
  -2844139.16847  -2191135.06645
                  22294669.3594                                   22294664.8134
                                                                        44.5004
        30.0004
 -11843776.35248  -9188425.70346
                  22002508.0864                                   22002504.6454
                                                                        48.5004
        38.0004
 -10392055.25047  -8058860.84044
                  23510442.8674                                   23510438.4104
                                                                        43.0004
        26.7504
 -13035424.96947 -10146761.11345
                  22910068.5474                                   22910064.0314
                                                                        45.2504
        31.2504
 09 10 29  0 19  0.0000000  0  7G02G05G10G13G29G16G07
  -1771974.96148  -1359038.57846
                  21748258.9844                                   21748253.0314
                                                                        49.5004
        37.7504
 -19176611.77748 -14891304.93447
                  20829356.6954                                   20829352.2074
                                                                        52.5004
        42.5004
 -16766962.00448 -13020176.57046
                  20386104.1724                                   20386100.5124
                                                                        52.5004
        41.0004
  -2846438.19147  -2192926.55145
                  22294231.4774                                   22294227.0354
                                                                        45.0004
        30.0004
 -11908878.69148  -9239154.77746
                  21990119.4454                                   21990115.8444
                                                                        50.0004
        37.5004
 -10484258.91047  -8130707.85244
                  23492897.6484                                   23492892.8324
                                                                        43.0004
        25.7504
 -13180612.05147 -10259893.97345
                  22882440.9844                                   22882436.0634
                                                                        45.2504
        32.2504
 09 10 29  0 19 30.0000000  0  7G02G05G10G13G29G16G07
  -1769850.35948  -1357383.02346
                  21748663.5554                                   21748656.9924
                                                                        49.5004
        38.0004
 -19306222.65248 -14992300.41447
                  20804692.4224                                   20804688.3244
                                                                        52.2504
        42.7504
 -16872348.49648 -13102295.91446
                  20366050.0394                                   20366045.8794
                                                                        52.7504
        41.2504
  -2848274.27047  -2194357.27745
                  22293882.4384                                   22293878.2704
                                                                        45.2504
        30.0004
 -11973359.34048  -9289399.43746
                  21977849.3054                                   21977845.4614
                                                                        50.7504
        37.7504
 -10575832.62547  -8202064.01244
                  23475471.3834                                   23475466.6524
                                                                        43.2504
        25.7504
 -13325275.76247 -10372618.97745
                  22854912.1414                                   22854908.0744
                                                                        45.7504
        31.7504
 09 10 29  0 20  0.0000000  0  7G02G05G10G13G29G16G07
  -1767303.83248  -1355398.73446
                  21749147.9224                                   21749142.0044
                                                                        49.2504
        37.5004
 -19435327.64848 -15092901.69947
                  20780124.5634                                   20780120.7194
                                                                        52.0004
        42.0004
 -16977154.88348 -13183963.22746
                  20346106.1564                                   20346101.9384
                                                                        51.7504
        41.0004
  -2849653.55547  -2195432.02344
                  22293619.4454                                   22293615.4224
                                                                        45.5004
        29.5004
 -12037222.51248  -9339162.96146
                  21965696.5864                                   21965692.8204
                                                                        48.7504
        37.7504
 -10666779.71946  -8272931.88344
                  23458164.2274                                   23458160.1294
                                                                        41.5004
        25.0004
 -13469417.22747 -10484936.98045
                  22827482.8204                                   22827478.3954
                                                                        46.0004
        32.2504
 09 10 29  0 20 30.0000000  0  7G02G05G10G13G29G16G07
  -1764333.31648  -1353084.06246
                  21749712.9454                                   21749706.6214
                                                                        48.7504
        37.5004
 -19563921.53148 -15193104.70747
                  20755654.0164                                   20755649.8054
                                                                        52.5004
        42.5004
 -17081376.47748 -13265174.84846
                  20326273.2664                                   20326269.5044
                                                                        52.7504
        41.0004
  -2850574.86347  -2196149.93444
                  22293444.2194                                   22293439.8484
                                                                        43.5004
        29.5004
 -12100464.53948  -9388442.46946
                  21953661.7344                                   21953658.3164
                                                                        49.0004
        38.5004
 -10757095.86747  -8343308.11744
                  23440978.2344                                   23440973.4454
                                                                        42.5004
        26.0004
 -13613030.16847 -10596843.14145
                  22800154.5084                                   22800149.9614
                                                                        46.2504
        32.2504
 09 10 29  0 21  0.0000000  0  7G02G05G10G13G29G16G07
  -1760941.16448  -1350440.84446
                  21750359.1564                                   21750352.9454
                                                                        49.2504
        37.0004
 -19692003.36348 -15292908.74647
                  20731280.6954                                   20731276.6484
                                                                        52.2504
        42.5004
 -17185013.23848 -13345930.76646
                  20306552.1884                                   20306548.1954
                                                                        52.5004
        41.7504
  -2851040.70747  -2196512.90244
                  22293356.0314                                   22293351.3404
                                                                        44.7504
        28.5004
 -12163086.52748  -9437238.82446
                  21941745.2114                                   21941741.4574
                                                                        49.0004
        37.5004
 -10846780.89147  -8413192.54344
                  23423911.6884                                   23423907.3244
                                                                        42.5004
        26.0004
 -13756112.86747 -10708336.13745
                  22772926.5394                                   22772922.1374
                                                                        45.5004
        31.2504
 09 10 29  0 21 30.0000000  0  7G02G05G10G13G29G16G07
  -1757127.97748  -1347469.58646
                  21751084.2274                                   21751078.3014
                                                                        48.2504
        37.2504
 -19819570.25048 -15392311.51247
                  20707005.6094                                   20707001.4144
                                                                        52.5004
        42.7504
 -17288062.92648 -13426229.22746
                  20286942.0164                                   20286938.6914
                                                                        52.5004
        41.7504
  -2851052.37147  -2196521.96544
                  22293353.9144                                   22293348.6884
                                                                        43.5004
        29.2504
 -12225087.72348  -9485551.44946
                  21929946.9304                                   21929943.2934
                                                                        49.0004
        38.0004
 -10935833.42647  -8482584.13344
                  23406965.4534                                   23406961.1294
                                                                        42.2504
        25.7504
 -13898661.28547 -10819412.77745
                  22745800.3674                                   22745795.7344
                                                                        46.5004
        32.0004
 09 10 29  0 22  0.0000000  0  7G02G05G10G13G29G16G07
  -1752896.11348  -1344172.07046
                  21751889.4384                                   21751883.9264
                                                                        48.5004
        37.5004
 -19946621.42648 -15491312.43747
                  20682828.3674                                   20682824.2424
                                                                        52.5004
        42.7504
 -17390525.49648 -13506070.18746
                  20267444.1254                                   20267440.2344
                                                                        53.2504
        41.7504
  -2850612.93747  -2196179.60944
                  22293437.6414                                   22293432.8914
                                                                        45.2504
        29.7504
 -12286469.39548  -9533381.34446
                  21918266.4844                                   21918263.1884
                                                                        49.0004
        38.5004
 -11024254.00847  -8551483.28144
                  23390140.1174                                   23390135.2074
                                                                        42.0004
        26.2504
 -14040673.61747 -10930071.69545
                  22718776.2114                                   22718771.8364
                                                                        46.7504
        31.7504
 09 10 29  0 22 30.0000000  0  7G02G05G10G13G29G16G07
  -1748250.96548  -1340552.53546
                  21752773.4144                                   21752767.5204
                                                                        48.7504
        37.2504
 -20073158.55548 -15589912.77747
                  20658749.4224                                   20658745.2624
                                                                        52.2504
        42.7504
 -17492403.15248 -13585455.37146
                  20248057.8914                                   20248053.5904
                                                                        53.0004
        40.7504
  -2849727.45347  -2195489.64144
                  22293605.6954                                   22293601.4774
                                                                        44.5004
        29.2504
 -12347234.62148  -9580730.86346
                  21906703.3204                                   21906699.7464
                                                                        49.0004
        38.5004
 -11112044.25447  -8619891.27744
                  23373433.9144                                   23373429.5314
                                                                        43.0004
        27.2504
 -14182150.70747 -11040313.57445
                  22691853.5864                                   22691849.5594
                                                                        45.7504
        32.2504
 09 10 29  0 23  0.0000000  0  7G02G05G10G13G29G16G07
   -167771.92648   -109010.49646
                  22053528.6884                                   22053522.9964
                                                                        48.0004
        36.7504
 -18623754.02748 -14460506.64147
                  20934561.7584                                   20934557.8164
                                                                        52.0004
        43.0004
 -16018270.37948 -12436780.48846
                  20528575.7584                                   20528571.6684
                                                                        53.0004
        41.5004
  -1272976.47347   -966852.51644
                  22593651.6414                                   22593647.4104
                                                                        45.2504
        29.7504
 -10831960.13748  -8399997.50446
                  22195050.7194                                   22195046.5274
                                                                        49.2504
        38.0004
  -9623779.00447  -7460204.06644
                  23656641.4224                                   23656636.7464
                                                                        42.2504
        26.0004
 -12747663.08647  -9922530.98845
                  22964827.7894                                   22964823.4304
                                                                        45.5004
        31.5004
 09 10 29  0 23 30.0000000  0  7G02G05G10G13G29G16G07
   -162302.26647   -104748.47746
                  22054569.7814                                   22054563.7034
                                                                        47.7504
        37.0004
 -18749256.36748 -14558300.66447
                  20910679.5634                                   20910675.6484
                                                                        52.2504
        42.7504
 -16118974.62948 -12515251.32046
                  20509412.3754                                   20509408.6374
                                                                        52.5004
        40.7504
  -1271203.90647   -965471.30144
                  22593989.1804                                   22593985.0234
                                                                        45.7504
        29.5004
 -10891491.81248  -8446385.80946
                  22183721.8444                                   22183717.7974
                                                                        49.5004
        38.0004
  -9710305.75846  -7527627.47744
                  23640175.7274                                   23640171.2854
                                                                        41.7504
        26.0004
 -12888059.35547 -10031930.66445
                  22938111.2894                                   22938107.0984
                                                                        45.7504
        31.2504
 09 10 29  0 24  0.0000000  0  7G02G05G10G13G29G16G07
   -156424.35548   -100168.30946
                  22055687.9304                                   22055682.2854
                                                                        48.7504
        38.0004
 -18874240.14148 -14655690.61747
                  20886895.8054                                   20886892.1564
                                                                        52.5004
        43.2504
 -16219091.63348 -12593264.56246
                  20490360.4924                                   20490356.6804
                                                                        52.0004
        41.0004
  -1268991.87547   -963747.59044
                  22594410.3204                                   22594405.8164
                                                                        45.0004
        29.0004
 -10950408.73048  -8492295.10546
                  22172510.2894                                   22172506.6994
                                                                        48.5004
        37.5004
  -9796200.42247  -7594558.38744
                  23623830.2974                                   23623825.8324
                                                                        42.5004
        25.7504
 -13027912.61747 -10140907.22745
                  22911498.3594                                   22911493.5554
                                                                        47.0004
        32.0004
 09 10 29  0 24 30.0000000  0  7G02G05G10G13G29G16G07
   -150139.10248    -95270.75446
                  22056884.6724                                   22056878.6844
                                                                        49.2504
        37.0004
 -18998703.11348 -14752674.74247
                  20863211.5004                                   20863207.8054
                                                                        52.0004
        43.0004
 -16318619.71148 -12670818.91846
                  20471421.1334                                   20471416.9264
                                                                        52.2504
        41.0004
  -1266342.02347   -961682.77044
                  22594913.5554                                   22594909.7664
                                                                        43.7504
        28.5004
 -11008710.18748  -8537724.82846
                  22161416.2034                                   22161412.4264
                                                                        49.0004
        38.0004
  -9881462.15246  -7660996.05544
                  23607605.6484                                   23607601.4694
                                                                        41.5004
        27.0004
 -13167219.23047 -10249457.82845
                  22884989.0944                                   22884984.3984
                                                                        47.0004
        31.5004
 09 10 29  0 25  0.0000000  0  7G02G05G10G13G29G16G07
   -143450.95348    -90059.23446
                  22058157.2584                                   22058150.9654
                                                                        49.5004
        37.2504
 -19122646.73048 -14849254.18447
                  20839625.8054                                   20839621.5784
                                                                        51.5004
        42.5004
 -16417561.29348 -12747916.24646
                  20452593.2274                                   20452589.3204
                                                                        52.2504
        41.5004
  -1263259.55547   -959280.81644
                  22595500.2114                                   22595496.3634
                                                                        45.0004
        27.7504
 -11066399.33648  -8582677.40646
                  22150438.3674                                   22150434.5514
                                                                        48.5004
        38.0004
  -9966093.68047  -7726942.65244
                  23591500.8674                                   23591496.5164
                                                                        42.5004
        25.5004
 -13305980.27047 -10357583.28145
                  22858583.4224                                   22858579.3134
                                                                        46.7504
        32.5004
 09 10 29  0 25 30.0000000  0  7G02G05G10G13G29G16G07
   -136357.22748    -84531.69146
                  22059506.9454                                   22059501.1914
                                                                        49.0004
        37.2504
 -19246064.84848 -14945424.14147
                  20816140.0554                                   20816136.2074
                                                                        52.0004
        43.0004
 -16515910.89848 -12824552.32446
                  20433877.7664                                   20433873.9494
                                                                        52.2504
        41.7504
  -1259742.30547   -956540.10544
                  22596169.7894                                   22596165.3204
                                                                        45.5004
        29.0004
 -11123472.34848  -8627149.87546
                  22139577.2114                                   22139574.1134
                                                                        48.2504
        37.7504
 -10050089.76247  -7792394.08244
                  23575516.6804                                   23575511.9144
                                                                        42.5004
        25.0004
 -13444188.04347 -10465277.60245
                  22832283.7424                                   22832279.3914
                                                                        47.2504
        32.5004
 09 10 29  0 26  0.0000000  0  8G02G08G05G10G13G29G16G07
   -128863.82848    -78692.74646
                  22060933.1484                                   22060927.1094
                                                                        49.0004
        37.0004
   4442131.16456   3507132.74653
                  24673022.7504                                   24673019.8674
                                                                        40.5004
        19.2504
 -19368960.06648 -15041186.65247
                  20792753.7274                                   20792749.7504
                                                                        52.2504
        43.0004
 -16613671.98048 -12900729.78146
                  20415274.4844                                   20415270.6254
                                                                        52.2504
        41.0004
  -1255796.39847   -953465.37944
                  22596920.8364                                   22596916.3674
                                                                        45.0004
        28.5004
 -11179933.82448  -8671145.84046
                  22128833.4384                                   22128829.4454
                                                                        48.0004
        37.7504
 -10133454.11347  -7857353.29344
                  23559652.8284                                   23559648.4454
                                                                        43.0004
        26.2504
 -13581844.09047 -10572542.06245
                  22806088.3524                                   22806083.9304
                                                                        47.5004
        32.2504
 09 10 29  0 26 30.0000000  0  8G02G08G05G10G13G29G16G07
   -120977.94548    -72547.94946
                  22062433.9774                                   22062427.7814
                                                                        48.2504
        36.7504
   4251086.32446   3358266.68843
                  24636667.6954                                   24636665.4384
                                                                        39.7504
        19.7504
 -19491336.43448 -15136544.84847
                  20769466.1174                                   20769462.1024
                                                                        52.0004
        43.0004
 -16710849.03548 -12976452.16446
                  20396782.2274                                   20396778.5164
                                                                        52.5004
        41.5004
  -1251429.56247   -950062.65244
                  22597751.4844                                   22597747.2074
                                                                        45.2504
        28.2504
 -11235789.63748  -8714669.85246
                  22118204.2274                                   22118200.5864
                                                                        48.2504
        38.0004
 -10216191.46146  -7921823.91844
                  23543908.4694                                   23543903.9264
                                                                        41.5004
        24.2504
 -13718951.71947 -10679379.20345
                  22779997.4144                                   22779993.3164
                                                                        47.2504
        32.5004
 09 10 29  0 27  0.0000000  0  8G02G08G05G10G13G29G16G07
   -112700.69548    -66098.23846
                  22064008.7034                                   22064003.1454
                                                                        48.0004
        36.0004
   4060226.33246   3209544.71543
                  24600348.7734                                   24600346.3484
                                                                        41.7504
        22.0004
 -19613191.55548 -15231496.89147
                  20746278.1804                                   20746274.1764
                                                                        52.2504
        42.5004
 -16807440.80548 -13051718.47346
                  20378401.7424                                   20378397.4414
                                                                        52.0004
        41.0004
  -1246643.09447   -946333.01244
                  22598662.7664                                   22598658.0514
                                                                        45.2504
        28.2504
 -11291039.42648  -8757721.63746
                  22107690.1334                                   22107686.6484
                                                                        48.5004
        37.7504
 -10298300.23846  -7985804.75844
                  23528284.0314                                   23528279.2034
                                                                        41.5004
        26.0004
 -13855507.44547 -10785786.24645
                  22754012.1414                                   22754007.5084
                                                                        46.5004
        32.5004
 09 10 29  0 27 30.0000000  0  8G02G08G05G10G13G29G16G07
   -104036.50447    -59346.92245
                  22065657.2814                                   22065651.1564
                                                                        47.0004
        35.7504
   3869551.41047   3060966.88344
                  24564064.5004                                   24564062.3594
                                                                        44.2504
        26.0004
 -19734527.17248 -15326044.13347
                  20723188.6024                                   20723184.6374
                                                                        52.2504
        42.7504
 -16903449.46548 -13126530.41446
                  20360131.4694                                   20360127.7664
                                                                        52.2504
        41.5004
  -1241442.10947   -942280.36744
                  22599652.2114                                   22599648.0784
                                                                        45.0004
        28.0004
 -11345686.82048  -8800304.01246
                  22097291.7814                                   22097287.6724
                                                                        48.2504
        37.5004
 -10379783.57446  -8049298.20744
                  23512778.1174                                   23512773.3444
                                                                        41.7504
        25.7504
 -13991511.79747 -10891763.66845
                  22728131.1094                                   22728126.8134
                                                                        47.5004
        32.5004
 09 10 29  0 28  0.0000000  0  8G02G08G05G10G13G29G16G07
    -94982.77748    -52292.12146
                  22067380.4694                                   22067374.6524
                                                                        48.2504
        37.2504
   3679069.84047   2912539.68444
                  24527817.6024                                   24527814.7624
                                                                        45.2504
        26.0004
 -19855337.06648 -15420181.69947
                  20700199.4144                                   20700195.2584
                                                                        52.5004
        42.7504
 -16998869.91848 -13200884.02046
                  20341973.7504                                   20341969.6804
                                                                        52.2504
        41.7504
  -1235824.30147   -937902.87944
                  22600721.3524                                   22600716.7274
                                                                        44.7504
        29.2504
 -11399727.65248  -8842413.74246
                  22087007.7274                                   22087004.0354
                                                                        48.0004
        37.7504
 -10460636.32447  -8112300.33244
                  23497391.9924                                   23497388.0514
                                                                        42.2504
        26.0004
 -14126957.77747 -10997306.00045
                  22702357.0634                                   22702352.1844
                                                                        47.5004
        32.5004
 09 10 29  0 28 30.0000000  0  8G02G08G05G10G13G29G16G07
    -85536.92647    -44931.73046
                  22069178.1484                                   22069172.3054
                                                                        47.7504
        37.5004
   3488789.27747   2764269.18444
                  24491608.7584                                   24491605.8244
                                                                        44.0004
        25.5004
 -19975615.28948 -15513905.00447
                  20677310.9694                                   20677307.0704
                                                                        51.5004
        42.7504
 -17093697.08648 -13274775.32047
                  20323928.6414                                   20323924.7734
                                                                        52.5004
        42.0004
  -1229787.59447   -933198.95344
                  22601870.2344                                   22601865.6134
                                                                        43.0004
        27.5004
 -11453158.00047  -8884047.78946
                  22076839.9844                                   22076836.7584
                                                                        47.0004
        38.0004
 -10540853.97347  -8174807.60544
                  23482127.5004                                   23482122.7074
                                                                        42.0004
        25.7504
 -14261838.53547 -11102407.87945
                  22676690.0004                                   22676685.2424
                                                                        47.7504
        32.7504
 09 10 29  0 29  0.0000000  0  8G02G08G05G10G13G29G16G07
    -75700.50047    -37266.98446
                  22071050.0234                                   22071044.1294
                                                                        47.7504
        36.5004
   3298713.00847   2616157.82844
                  24455437.5164                                   24455434.7894
                                                                        42.5004
        24.5004
 -20095360.57448 -15607213.01247
                  20654524.5084                                   20654520.2344
                                                                        52.2504
        42.7504
 -17187930.30148 -13348203.80546
                  20305996.6644                                   20305992.8594
                                                                        52.2504
        41.2504
  -1223333.89147   -928170.09444
                  22603098.6414                                   22603093.8204
                                                                        44.0004
        27.5004
 -11505978.66047  -8925206.73846
                  22066789.0554                                   22066785.2734
                                                                        46.5004
        37.5004
 -10620436.10247  -8236819.62944
                  23466983.1024                                   23466979.0044
                                                                        42.5004
        25.0004
 -14396151.62547 -11207067.40645
                  22651131.1414                                   22651126.4574
                                                                        47.2504
        32.7504
 09 10 29  0 29 30.0000000  0  8G02G08G05G10G13G29G16G07
    -65475.44147    -29299.45746
                  22072995.5234                                   22072989.8484
                                                                        47.7504
        36.7504
   3108844.79746   2468208.58643
                  24419306.3984                                   24419304.4534
                                                                        40.7504
        21.5004
 -20214571.15248 -15700104.37547
                  20631839.5004                                   20631835.1684
                                                                        52.2504
        42.5004
 -17281568.06248 -13421168.28146
                  20288178.3834                                   20288174.2194
                                                                        51.7504
        40.7504
  -1216465.39547   -922818.03144
                  22604405.0704                                   22604401.2894
                                                                        43.0004
        28.2504
 -11558190.03147  -8965890.92646
                  22056853.7114                                   22056849.6914
                                                                        47.2504
        38.0004
 -10699382.20346  -8298336.03544
                  23451960.5944                                   23451956.5594
                                                                        41.5004
        26.7504
 -14529894.34447 -11311282.51645
                  22625680.8204                                   22625675.8594
                                                                        47.2504
        32.5004
 09 10 29  0 30  0.0000000  0  8G02G08G05G10G13G29G16G07
    -54862.39147    -21029.64146
                  22075015.1644                                   22075009.4344
                                                                        47.5004
        36.0004
   2919189.10946   2320424.99243
                  24383216.1254                                   24383213.8324
                                                                        41.2504
        20.5004
 -20333244.67648 -15792577.24647
                  20609256.7194                                   20609252.6644
                                                                        52.5004
        43.0004
 -17374608.90648 -13493667.64146
                  20270473.0314                                   20270469.1414
                                                                        52.0004
        40.7504
  -1209183.61347   -917143.92644
                  22605791.3594                                   22605787.5004
                                                                        43.2504
        28.5004
 -11609791.80547  -9006100.09446
                  22047033.9844                                   22047030.2424
                                                                        46.5004
        38.0004
 -10777691.16047  -8359356.00844
                  23437058.7734                                   23437054.6604
                                                                        42.5004
        25.5004
 -14663063.75847 -11415050.84045
                  22600339.2344                                   22600334.6564
                                                                        46.2504
        32.5004
 09 10 29  0 30 30.0000000  0  8G02G08G05G10G13G29G16G07
    -43863.95747    -12459.45745
                  22077107.6724                                   22077101.9104
                                                                        47.7504
        35.5004
   2729748.07047   2172808.58643
                  24347166.9304                                   24347163.4344
                                                                        42.0004
        20.5004
 -20451381.13748 -15884631.64847
                  20586775.6644                                   20586771.6644
                                                                        51.5004
        42.7504
 -17467053.67248 -13565702.52046
                  20252881.2664                                   20252877.4454
                                                                        52.2504
        41.0004
  -1201491.64847   -911150.18444
                  22607254.7734                                   22607250.9344
                                                                        44.5004
        28.5004
 -11660785.46547  -9045835.39546
                  22037329.8204                                   22037326.2734
                                                                        47.2504
        36.7504
 -10855363.37947  -8419879.82044
                  23422277.7734                                   23422273.8794
                                                                        42.5004
        26.5004
 -14795658.54347 -11518371.44145
                  22575107.1954                                   22575102.7194
                                                                        47.0004
        32.0004
 09 10 29  0 31  0.0000000  0  8G02G08G05G10G13G29G16G07
    -32483.36747     -3591.51645
                  22079273.9304                                   22079267.9454
                                                                        47.5004
        35.5004
   2540524.01647   2025361.28143
                  24311158.5164                                   24311155.6724
                                                                        42.0004
        19.5004
 -20568979.85248 -15976267.02747
                  20564397.9144                                   20564393.5594
                                                                        51.2504
        43.2504
 -17558902.84448 -13637273.28946
                  20235402.9224                                   20235398.9844
                                                                        51.7504
        41.5004
  -1193392.94547   -904839.48844
                  22608796.3134                                   22608792.0434
                                                                        44.7504
        28.5004
 -11711172.93747  -9085098.35946
                  22027741.5634                                   22027738.1094
                                                                        47.0004
        37.7504
 -10932399.74646  -8479908.14844
                  23407618.2664                                   23407614.4184
                                                                        41.5004
        25.2504
 -14927676.84847 -11621242.83245
                  22549985.1564                                   22549979.9694
                                                                        47.2504
        32.7504
 09 10 29  0 31 30.0000000  0  8G02G08G05G10G13G29G16G07
    -20723.49647      5571.98446
                  22081511.9064                                   22081505.9184
                                                                        47.5004
        36.0004
   2351519.23447   1878084.82443
                  24275193.1414                                   24275189.9454
                                                                        43.7504
        22.5004
 -20686040.47748 -16067483.07047
                  20542121.8834                                   20542117.4804
                                                                        51.0004
        42.7504
 -17650157.16848 -13708380.55946
                  20218038.0554                                   20218034.0744
                                                                        51.2504
        41.0004
  -1184890.48447   -898214.18044
                  22610414.4454                                   22610409.7934
                                                                        42.5004
        29.0004
 -11760956.00448  -9123890.35246
                  22018268.3984                                   22018264.5784
                                                                        48.0004
        37.5004
 -11008801.47347  -8539441.94144
                  23393079.5394                                   23393075.2704
                                                                        42.5004
        24.7504
 -15059117.73847 -11723664.26645
                  22524972.6334                                   22524968.2114
                                                                        47.7504
        33.2504
 09 10 29  0 32  0.0000000  0  8G02G08G05G10G13G29G16G07
     -8584.34847     15031.03946
                  22083821.8754                                   22083816.3404
                                                                        47.0004
        36.5004
   2162738.73847   1730983.16043
                  24239268.7034                                   24239265.5704
                                                                        42.5004
        22.7504
 -20802560.62948 -16158277.99247
                  20519949.0704                                   20519944.5084
                                                                        51.5004
        42.7504
 -17740814.05948 -13779022.28946
                  20200786.3054                                   20200782.7934
                                                                        52.5004
        41.2504
  -1175985.11347   -891274.90244
                  22612108.6804                                   22612103.8834
                                                                        42.7504
        27.5004
 -11810133.36347  -9162210.37146
                  22008910.0864                                   22008906.5704
                                                                        47.0004
        38.5004
 -11084566.71947  -8598479.80544
                  23378662.1254                                   23378658.0984
                                                                        42.2504
        26.5004
 -15189977.68747 -11825633.07045
                  22500070.9694                                   22500066.3204
                                                                        47.5004
        32.5004
 09 10 29  0 32 30.0000000  0  8G02G08G05G10G13G29G16G07
   1579348.55148   1252381.38746
                  22385995.4454                                   22385989.9844
                                                                        48.0004
        36.5004
   3549609.31646   2811661.59843
                  24503181.9534                                   24503178.9344
                                                                        41.5004
        22.5004
 -19343117.86348 -15021049.87147
                  20797671.5164                                   20797667.1644
                                                                        51.0004
        43.2504
 -16255452.96948 -12621598.06646
                  20483441.1484                                   20483437.2384
                                                                        51.5004
        41.0004
    408737.68047    343574.07044
                  22913670.8754                                   22913666.5274
                                                                        43.7504
        26.0004
 -10283287.54748  -7972460.37546
                  22299459.2664                                   22299455.6174
                                                                        48.5004
        38.0004
  -9584275.44146  -7429421.64544
                  23664158.4224                                   23664153.3284
                                                                        41.7504
        25.5004
 -13744832.29347 -10699545.73845
                  22775072.8364                                   22775068.1254
                                                                        47.7504
        33.0004
 09 10 29  0 33  0.0000000  0  8G02G08G05G10G13G29G16G07
   1592233.29348   1262421.42245
                  22388447.2814                                   22388441.4454
                                                                        48.7504
        35.7504
   3361280.44146   2664911.85944
                  24467343.3674                                   24467340.8984
                                                                        41.5004
        24.2504
 -19458559.41848 -15111004.32847
                  20775703.7504                                   20775699.6134
                                                                        50.5004
        43.0004
 -16344920.18448 -12691312.78946
                  20466416.4924                                   20466412.5664
                                                                        50.0004
        41.2504
    418434.71547    351130.24644
                  22915515.9304                                   22915511.6374
                                                                        42.7504
        27.2504
 -10331263.81248  -8009844.48446
                  22290329.6414                                   22290326.0904
                                                                        48.5004
        38.0004
  -9658774.44946  -7487472.82444
                  23649981.1174                                   23649976.9304
                                                                        41.7504
        26.7504
 -13874529.94547 -10800608.83645
                  22750391.8524                                   22750387.4964
                                                                        47.2504
        32.7504
 09 10 29  0 33 30.0000000  0  8G02G08G05G10G13G29G16G07
   1605486.34448   1272748.44145
                  22390969.1724                                   22390963.3554
                                                                        48.5004
        35.5004
   3173180.75446   2518340.77043
                  24431548.9924                                   24431547.0984
                                                                        41.7504
        22.5004
 -19573461.57848 -15200538.46547
                  20753838.6024                                   20753834.0514
                                                                        51.2504
        43.7504
 -16433794.15248 -12760565.22346
                  20449504.3364                                   20449499.8094
                                                                        51.5004
        41.0004
    428522.61747    358990.94144
                  22917435.9534                                   22917431.5944
                                                                        42.7504
        25.0004
 -10378642.50448  -8046762.94946
                  22281313.7274                                   22281310.2774
                                                                        48.5004
        38.0004
  -9732641.95747  -7545031.93044
                  23635924.7034                                   23635920.4694
                                                                        42.7504
        25.2504
 -14003645.19947 -10901218.10945
                  22725822.2194                                   22725817.4614
                                                                        47.5004
        33.0004
 09 10 29  0 34  0.0000000  0  8G02G08G05G10G13G29G16G07
   1619104.49648   1283359.91045
                  22393560.3524                                   22393554.7384
                                                                        48.5004
        34.7504
   2985312.43447   2371949.92643
                  24395798.9224                                   24395795.8984
                                                                        42.0004
        22.7504
 -19687824.30148 -15289652.28547
                  20732076.1174                                   20732071.8914
                                                                        51.2504
        43.2504
 -16522075.10548 -12829355.58246
                  20432704.5164                                   20432701.0204
                                                                        51.7504
        41.5004
    438997.85247    367153.45744
                  22919429.2974                                   22919425.3364
                                                                        43.2504
        27.0004
 -10425425.58248  -8083217.30146
                  22272411.2814                                   22272407.5704
                                                                        48.5004
        37.5004
  -9805878.96947  -7602099.76644
                  23621988.2504                                   23621983.7424
                                                                        42.0004
        25.2504
 -14132176.49647 -11001372.39145
                  22701363.6564                                   22701358.7424
                                                                        47.7504
        33.0004
 09 10 29  0 34 30.0000000  0  8G02G08G05G10G13G29G16G07
   1633084.41048   1294253.30945
                  22396221.0004                                   22396215.3794
                                                                        48.0004
        34.7504
   2797677.13347   2225740.60244
                  24360093.5944                                   24360090.3324
                                                                        43.5004
        24.5004
 -19801647.74648 -15378345.90247
                  20710416.1884                                   20710412.0784
                                                                        51.0004
        43.0004
 -16609764.24648 -12897684.76646
                  20416018.1094                                   20416014.2304
                                                                        50.7504
        41.2504
    449856.57447    375614.84044
                  22921495.7734                                   22921491.5744
                                                                        42.0004
        28.5004
 -10471615.52348  -8119209.46146
                  22263621.5554                                   22263617.8444
                                                                        48.5004
        38.0004
  -9878487.35547  -7658677.73844
                  23608171.2814                                   23608167.2774
                                                                        42.5004
        26.0004
 -14260123.36347 -11101071.21145
                  22677016.5554                                   22677011.8094
                                                                        47.0004
        32.5004
 09 10 29  0 35  0.0000000  0  8G02G08G05G10G13G29G16G07
   1647424.71548   1305427.52745
                  22398950.2344                                   22398944.0234
                                                                        48.5004
        35.0004
   2610278.75447   2079715.85244
                  24324432.8984                                   24324429.3244
                                                                        43.7504
        24.0004
 -19914930.65248 -15466618.32047
                  20688859.2194                                   20688855.1524
                                                                        51.7504
        43.5004
 -16696860.80148 -12965552.21946
                  20399444.1724                                   20399440.3164
                                                                        51.7504
        41.0004
    461096.81347    384373.48044
                  22923635.0234                                   22923630.4614
                                                                        44.0004
        28.2504
 -10517212.77048  -8154739.77746
                  22254944.6484                                   22254941.1764
                                                                        49.0004
        37.5004
  -9950466.18447  -7714765.12144
                  23594474.0944                                   23594469.7664
                                                                        42.5004
        27.2504
 -14387483.44147 -11200312.81645
                  22652780.2584                                   22652775.6994
                                                                        46.5004
        33.0004
 09 10 29  0 35 30.0000000  0  8G02G08G05G10G13G29G16G07
   1662125.45748   1316882.69946
                  22401747.8054                                   22401741.9574
                                                                        48.0004
        36.0004
   2423122.21547   1933879.49243
                  24288818.2274                                   24288815.2464
                                                                        43.0004
        22.7504
 -20027669.66048 -15554466.91047
                  20667405.6804                                   20667401.3714
                                                                        52.0004
        43.2504
 -16783362.71548 -13032956.31646
                  20382983.1884                                   20382979.3164
                                                                        52.2504
        41.5004
    472718.04747    393429.00044
                  22925846.7424                                   22925841.8794
                                                                        45.0004
        27.7504
 -10562216.06248  -8189807.29346
                  22246380.7034                                   22246377.6094
                                                                        49.2504
        37.2504
 -10021814.07847  -7770360.87144
                  23580897.6254                                   23580892.8444
                                                                        42.0004
        26.0004
 -14514252.77047 -11299094.08645
                  22628656.4924                                   22628652.0904
                                                                        47.0004
        33.5004
 09 10 29  0 36  0.0000000  0  8G02G08G05G10G13G29G16G07
   1677184.17248   1328616.77345
                  22404612.6804                                   22404606.9104
                                                                        48.0004
        35.0004
   2236210.62146   1788233.93443
                  24253250.1414                                   24253246.9144
                                                                        41.5004
        22.5004
 -20139863.68448 -15641890.85547
                  20646055.8674                                   20646051.6134
                                                                        52.2504
        43.7504
 -16869270.02348 -13099897.07046
                  20366636.0784                                   20366631.9924
                                                                        52.5004
        41.2504
    484717.87147    402779.48844
                  22928129.6174                                   22928125.0514
                                                                        43.5004
        26.7504
 -10606627.14148  -8224413.33246
                  22237929.9224                                   22237926.4024
                                                                        49.0004
        37.2504
 -10092531.33247  -7825465.22744
                  23567440.2894                                   23567435.9774
                                                                        42.0004
        24.2504
 -14640429.46147 -11397413.57445
                  22604646.0634                                   22604641.7624
                                                                        47.0004
        32.5004
 09 10 29  0 36 30.0000000  0  8G02G08G05G10G13G29G16G07
   1692596.34047   1340626.21545
                  22407545.5474                                   22407540.3054
                                                                        47.7504
        35.0004
   2049544.98846   1642780.05143
                  24217728.5864                                   24217726.2664
                                                                        41.7504
        22.7504
 -20251514.52748 -15728891.53947
                  20624809.2974                                   20624805.4414
                                                                        51.5004
        43.2504
 -16954584.68448 -13166376.02746
                  20350400.9224                                   20350397.4104
                                                                        51.5004
        41.5004
    497091.29347    412421.09044
                  22930483.5944                                   22930480.1134
                                                                        42.0004
        25.7504
 -10650449.20348  -8258560.39846
                  22229590.8914                                   22229587.2734
                                                                        49.0004
        37.5004
 -10162620.85247  -7880080.43444
                  23554102.6414                                   23554098.2704
                                                                        43.7504
        25.2504
 -14766013.99647 -11495271.61745
                  22580748.3134                                   22580743.8014
                                                                        46.7504
        33.2504
 09 10 29  0 37  0.0000000  0  8G02G08G05G10G13G29G16G07
   1708358.25847   1352908.17645
                  22410545.1724                                   22410539.9774
                                                                        47.5004
        35.2504
   1863127.15246   1497519.52743
                  24182254.2584                                   24182252.2704
                                                                        40.7504
        22.0004
 -20362622.57448 -15815469.21947
                  20603666.2504                                   20603662.0354
                                                                        51.2504
        43.0004
 -17039307.91448 -13232394.16846
                  20334278.5554                                   20334274.6024
                                                                        51.0004
        41.0004
    509834.57446    422350.88743
                  22932909.0314                                   22932904.9454
                                                                        41.5004
        23.7504
 -10693685.01648  -8292250.66046
                  22221363.1954                                   22221359.8324
                                                                        49.0004
        36.7504
 -10232084.19547  -7934207.69144
                  23540883.8204                                   23540880.1254
                                                                        42.7504
        25.5004
 -14891006.28147 -11592668.20345
                  22556962.7034                                   22556958.5744
                                                                        46.7504
        34.0004
 09 10 29  0 37 30.0000000  0  8G02G08G05G10G13G29G16G07
   1724468.95347   1365461.96145
                  22413611.0004                                   22413605.2814
                                                                        46.5004
        34.5004
   1676960.97746   1352455.02044
                  24146827.7894                                   24146825.5084
                                                                        41.7504
        24.5004
 -20473185.84048 -15901622.41447
                  20582626.8284                                   20582622.6094
                                                                        49.7504
        43.0004
 -17123438.57448 -13297950.66846
                  20318269.4304                                   20318265.3404
                                                                        50.0004
        41.7504
    522945.60547    432567.23444
                  22935404.2734                                   22935399.5744
                                                                        43.2504
        25.2504
 -10736334.64848  -8325484.14846
                  22213247.1414                                   22213244.0044
                                                                        48.7504
        37.2504
 -10300920.79347  -7987846.62944
                  23527785.3754                                   23527780.4614
                                                                        42.5004
        26.0004
 -15015403.41047 -11689601.04745
                  22533291.1174                                   22533286.9224
                                                                        47.7504
        34.0004
 09 10 29  0 38  0.0000000  0  8G02G08G05G10G13G29G16G07
   1740922.82447   1378283.12945
                  22416742.1024                                   22416736.0394
                                                                        47.0004
        34.5004
   1491046.24247   1207586.49244
                  24111449.8054                                   24111447.0004
                                                                        42.7504
        25.0004
 -20583206.98048 -15987353.20747
                  20561690.3674                                   20561685.9494
                                                                        50.5004
        43.7504
 -17206979.86748 -13363047.78146
                  20302371.8204                                   20302368.0084
                                                                        51.2504
        41.0004
    536418.50447    443065.58244
                  22937968.5394                                   22937963.9454
                                                                        44.2504
        26.0004
 -10778403.48048  -8358265.05546
                  22205241.9384                                   22205237.9304
                                                                        49.0004
        36.7504
 -10369134.48847  -8041000.12944
                  23514804.3444                                   23514799.7384
                                                                        43.5004
        26.2504
 -15139207.49647 -11786071.77745
                  22509732.0004                                   22509727.6524
                                                                        47.7504
        33.5004
 09 10 29  0 38 30.0000000  0  8G02G08G05G10G13G29G16G07
   1757718.72347   1391370.81345
                  22419937.8524                                   22419932.2274
                                                                        47.0004
        34.0004
   1305387.29347   1062917.23844
                  24076119.9224                                   24076117.3134
                                                                        43.2504
        25.2504
 -20692683.82448 -16072659.87147
                  20540857.7664                                   20540853.4694
                                                                        50.5004
        43.5004
 -17289930.92248 -13427684.96546
                  20286587.1644                                   20286583.2854
                                                                        50.5004
        41.0004
    550252.26247    453845.05544
                  22940600.7114                                   22940596.2384
                                                                        43.7504
        28.2504
 -10819890.75448  -8390592.80146
                  22197347.1094                                   22197343.1024
                                                                        48.7504
        37.0004
 -10436724.36747  -8093667.54344
                  23501942.3134                                   23501937.6254
                                                                        43.7504
        25.2504
 -15262414.48047 -11882077.22345
                  22486286.4614                                   22486282.1914
                                                                        47.7504
        33.2504
 09 10 29  0 39  0.0000000  0  8G02G08G05G10G13G29G16G07
   1774856.37947   1404724.78145
                  22423199.5164                                   22423193.5274
                                                                        47.7504
        34.5004
   1119988.85947    918451.06644
                  24040840.0314                                   24040837.3244
                                                                        44.2504
        25.5004
 -20801613.80148 -16157540.38747
                  20520129.3284                                   20520125.1214
                                                                        51.2504
        43.5004
 -17372289.90248 -13491860.84046
                  20270914.3444                                   20270910.5274
                                                                        51.5004
        41.0004
    564446.05947    464905.17644
                  22943301.7664                                   22943297.2504
                                                                        43.2504
        27.5004
 -10860796.47748  -8422467.39846
                  22189562.8134                                   22189559.1094
                                                                        48.5004
        36.7504
 -10503689.57847  -8145848.22744
                  23489199.2584                                   23489194.7074
                                                                        44.0004
        24.2504
 -15385021.62547 -11977615.27745
                  22462955.3134                                   22462950.7774
                                                                        47.2504
        34.0004
 09 10 29  0 39 30.0000000  0  9G02G08G05G10G13G21G29G16G07
   1792331.72347   1418341.91445
                  22426525.3524                                   22426519.4494
                                                                        46.2504
        34.5004
    934852.13347    774188.80144
                  24005609.2504                                   24005606.2464
                                                                        43.5004
        24.7504
 -20909998.11748 -16241995.69547
                  20499504.3914                                   20499499.9144
                                                                        50.7504
        43.2504
 -17454059.15248 -13555577.21146
                  20255354.3444                                   20255350.4104
                                                                        51.0004
        40.5004
    578995.19946    476242.22744
                  22946069.7504                                   22946065.6914
                                                                        41.2504
        26.2504
   6022472.00856   4737758.08653
                  24704965.3984                                   24704960.2234
                                                                        41.0004
        22.0004
 -10901124.09047  -8453891.53946
                  22181888.8594                                   22181885.2974
                                                                        47.5004
        37.0004
 -10570032.42247  -8197543.92644
                  23476574.8054                                   23476570.1844
                                                                        43.7504
        26.0004
 -15507029.16847 -12072686.12945
                  22439737.8594                                   22439733.2974
                                                                        47.7504
        34.5004
 09 10 29  0 40  0.0000000  0  9G02G08G05G10G13G21G29G16G07
   1810140.85947   1432219.16445
                  22429913.7504                                   22429908.5784
                                                                        46.0004
        34.5004
    749978.42247    630131.45343
                  23970429.0784                                   23970426.0314
                                                                        43.5004
        23.7504
 -21017837.10948 -16326026.09047
                  20478983.2344                                   20478978.9454
                                                                        50.5004
        43.0004
 -17535239.62948 -13618834.74646
                  20239906.3524                                   20239902.3714
                                                                        50.5004
        41.2504
    593895.72346    487853.07044
                  22948905.3834                                   22948901.5634
                                                                        41.5004
        25.5004
   5834740.58646   4591473.85943
                  24669240.9924                                   24669236.2504
                                                                        40.5004
        22.7504
 -10940875.99648  -8484867.04746
                  22174324.4224                                   22174321.0514
                                                                        48.2504
        37.0004
 -10635754.59847  -8248756.04344
                  23464068.3754                                   23464063.7114
                                                                        43.5004
        26.0004
 -15628436.83648 -12167289.48045
                  22416634.9304                                   22416630.4614
                                                                        48.0004
        34.0004
 09 10 29  0 40 30.0000000  0  9G02G08G05G10G13G21G29G16G07
   1828277.44947   1446351.51645
                  22433364.8444                                   22433359.5864
                                                                        46.5004
        35.0004
    565366.92647    486278.41843
                  23935298.5084                                   23935295.4844
                                                                        42.5004
        22.7504
 -21125134.54748 -16409634.53547
                  20458565.1414                                   20458561.1914
                                                                        50.7504
        43.7504
 -17615835.81648 -13681636.97346
                  20224569.4694                                   20224565.3164
                                                                        50.7504
        41.5004
    609140.78947    499732.32043
                  22951806.0554                                   22951802.2814
                                                                        42.2504
        22.5004
   5647137.77346   4445289.83243
                  24633541.9694                                   24633536.2344
                                                                        40.7504
        22.0004
 -10980058.18748  -8515398.62946
                  22166867.9384                                   22166864.7384
                                                                        48.7504
        36.7504
 -10700861.19147  -8299488.46544
                  23451678.8674                                   23451674.1174
                                                                        44.2504
        26.5004
 -15749247.17247 -12261427.35545
                  22393645.6484                                   22393640.8984
                                                                        47.5004
        33.2504
 09 10 29  0 41  0.0000000  0  9G02G08G05G10G13G21G29G16G07
   1846740.90647   1460738.59445
                  22436878.5314                                   22436873.0824
                                                                        46.0004
        34.0004
    381022.27747    342633.28543
                  23900218.3524                                   23900215.9614
                                                                        42.0004
        23.0004
 -21231887.53548 -16492818.69547
                  20438250.8284                                   20438246.6454
                                                                        50.0004
        43.0004
 -17695845.57848 -13743982.25046
                  20209344.1024                                   20209339.9614
                                                                        50.2504
        41.5004
    624729.55146    511879.42244
                  22954773.1174                                   22954768.2774
                                                                        41.5004
        24.2504
   5459667.85546   4299209.39143
                  24597867.4534                                   24597861.9924
                                                                        39.7504
        21.2504
 -11018669.92648  -8545485.69146
                  22159520.6174                                   22159516.9734
                                                                        49.0004
        37.2504
 -10765350.80947  -8349740.06244
                  23439407.0164                                   23439402.4694
                                                                        44.5004
        26.2504
 -15869456.96947 -12355097.34045
                  22370770.0944                                   22370765.4304
                                                                        47.0004
        33.5004
 09 10 29  0 41 30.0000000  0  9G02G08G05G10G13G21G29G16G07
   1865531.25847   1475380.41445
                  22440454.2274                                   22440448.6644
                                                                        46.0004
        34.0004
    196949.32046    199199.79343
                  23865190.9844                                   23865187.8834
                                                                        41.7504
        23.5004
 -21338093.80148 -16575576.82447
                  20418040.4774                                   20418036.2734
                                                                        51.2504
        43.5004
 -17775267.76648 -13805869.66846
                  20194230.4454                                   20194226.5554
                                                                        50.2504
        41.5004
    640661.07846    524293.59844
                  22957805.0634                                   22957800.1564
                                                                        41.0004
        25.5004
   5272334.12146   4153235.07443
                  24562218.6484                                   24562214.0474
                                                                        39.7504
        21.2504
 -11056711.09048  -8575128.17646
                  22152281.5234                                   22152277.9694
                                                                        49.0004
        36.2504
 -10829222.80147  -8399510.48044
                  23427252.5164                                   23427247.4804
                                                                        43.5004
        24.5004
 -15989062.48848 -12448296.41045
                  22348009.7504                                   22348005.2704
                                                                        48.2504
        34.2504
 09 10 29  0 42  0.0000000  0  9G02G08G05G10G13G21G29G16G07
   3460069.49247   2717877.71945
                  22743885.4064                                   22743879.1254
                                                                        46.5004
        33.5004
   1588581.82847   1283588.81644
                  24130009.8524                                   24130006.6914
                                                                        43.0004
        25.7504
 -19868325.15648 -15430302.57447
                  20697728.1254                                   20697723.7194
                                                                        49.7504
        43.5004
 -16278675.48848 -12639693.87946
                  20479022.1724                                   20479018.3244
                                                                        50.2504
        41.0004
   2232356.25047   1764575.54344
                  23260694.5314                                   23260689.9064
                                                                        44.0004
        25.5004
   6660569.75446   5234977.16843
                  24826391.1724                                   24826386.7584
                                                                        40.5004
        22.2504
  -9518757.77348  -7376722.99646
                  22444944.7114                                   22444941.1094
                                                                        48.7504
        36.7504
  -9317050.93747  -7221194.72344
                  23715009.2974                                   23715004.3554
                                                                        43.7504
        26.2504
 -14532634.62948 -11313417.55945
                  22625159.1644                                   22625154.6174
                                                                        48.2504
        34.0004
 09 10 29  0 42 30.0000000  0  9G02G08G05G10G13G21G29G16G07
   3479515.11747   2733030.14545
                  22747585.6884                                   22747579.4064
                                                                        46.7504
        33.0004
   1405071.10947   1140593.44144
                  24095088.8834                                   24095086.0164
                                                                        43.0004
        26.7504
 -19973426.52048 -15512199.75047
                  20677727.9304                                   20677723.8984
                                                                        51.0004
        43.2504
 -16356913.18748 -12700658.28946
                  20464134.3364                                   20464130.4144
                                                                        51.2504
        41.0004
   2248975.18047   1777525.36744
                  23263856.9614                                   23263851.9184
                                                                        43.7504
        26.0004
   6473525.79346   5089228.65643
                  24790797.8524                                   24790792.7974
                                                                        41.0004
        22.0004
  -9555652.82848  -7405472.39546
                  22437924.0084                                   22437919.8834
                                                                        49.0004
        36.7504
  -9379679.27047  -7269996.05144
                  23703091.2504                                   23703086.5664
                                                                        43.2504
        25.5004
 -14651018.33248 -11405664.60545
                  22602631.1954                                   22602626.9494
                                                                        48.0004
        33.5004
 09 10 29  0 43  0.0000000  0  9G02G08G05G10G13G21G29G16G07
   3499285.35547   2748435.53545
                  22751347.2814                                   22751341.4734
                                                                        46.5004
        32.5004
   1221846.12947    997820.77044
                  24060222.3914                                   24060219.6334
                                                                        42.0004
        27.0004
 -20077974.11748 -15593665.42647
                  20657832.9694                                   20657829.0594
                                                                        51.5004
        43.0004
 -16434559.04748 -12761161.56646
                  20449359.0554                                   20449354.8714
                                                                        52.0004
        41.0004
   2265933.66847   1790739.74244
                  23267084.1804                                   23267080.0554
                                                                        42.7504
        26.0004
   6286629.41447   4943595.12943
                  24755232.9384                                   24755227.7344
                                                                        42.5004
        21.2504
  -9591976.96548  -7433776.91846
                  22431011.4924                                   22431007.9104
                                                                        48.5004
        37.0004
  -9441687.10547  -7318313.91444
                  23691292.2194                                   23691287.3984
                                                                        43.5004
        25.2504
 -14768788.62147 -11497433.68445
                  22580220.4534                                   22580215.9884
                                                                        47.5004
        33.5004
 09 10 29  0 43 30.0000000  0  9G02G08G05G10G13G21G29G16G07
   3519378.51647   2764092.51245
                  22755171.0634                                   22755165.6764
                                                                        46.7504
        33.7504
   1038910.67647    855273.74644
                  24025411.0864                                   24025408.0004
                                                                        42.7504
        27.0004
 -20181966.84048 -15674698.75047
                  20638043.9144                                   20638039.8984
                                                                        50.7504
        43.5004
 -16511612.05948 -12821202.86746
                  20434695.7734                                   20434691.8634
                                                                        49.5004
        41.5004
   2283230.04746   1804217.35243
                  23270374.8444                                   23270371.5204
                                                                        41.2504
        23.2504
   6099883.70747   4798078.92643
                  24719696.6094                                   24719691.0274
                                                                        42.5004
        22.0004
  -9627731.21148  -7461637.37546
                  22424207.8594                                   22424203.9924
                                                                        49.0004
        37.5004
  -9503074.38347  -7366148.15644
                  23679610.1484                                   23679605.5164
                                                                        43.0004
        24.5004
 -14885943.47748 -11588723.15645
                  22557926.4064                                   22557921.6054
                                                                        48.5004
        34.0004
 09 10 29  0 44  0.0000000  0  9G02G08G05G10G13G21G29G16G07
   3539788.15247   2779996.09845
                  22759054.9534                                   22759049.1024
                                                                        46.2504
        33.5004
    856263.52346    712951.36344
                  23990654.1414                                   23990651.0274
                                                                        41.2504
        25.0004
 -20285407.85248 -15755302.13747
                  20618359.8524                                   20618355.6254
                                                                        51.2504
        43.0004
 -16588076.98848 -12880785.93046
                  20420145.2114                                   20420141.4574
                                                                        51.0004
        41.0004
   2300857.47346   1817952.94544
                  23273729.8054                                   23273726.1054
                                                                        41.7504
        25.0004
   5913286.82846   4652678.66043
                  24684188.5164                                   24684182.8634
                                                                        41.0004
        22.0004
  -9662920.95748  -7489057.94946
                  22417511.1724                                   22417507.9694
                                                                        48.5004
        37.2504
  -9563845.83247  -7413502.51643
                  23668045.7344                                   23668040.9884
                                                                        43.5004
        22.7504
 -15002485.39847 -11679535.05545
                  22535749.0704                                   22535744.5634
                                                                        47.0004
        33.0004
 09 10 29  0 44 30.0000000  0  9G02G08G05G10G13G21G29G16G07
   3560516.29747   2796147.89145
                  22762999.3054                                   22762994.2664
                                                                        46.0004
        33.5004
    673911.94146    570859.28544
                  23955953.9774                                   23955950.6884
                                                                        41.2504
        24.5004
 -20388292.41048 -15835471.91847
                  20598781.8594                                   20598777.2234
                                                                        48.7504
        43.0004
 -16663949.70348 -12939907.55546
                  20405707.3444                                   20405703.3524
                                                                        48.2504
        41.5004
   2318817.79347   1831947.99244
                  23277147.3674                                   23277143.9924
                                                                        42.0004
        25.2504
   5726845.60246   4507399.80943
                  24648708.9454                                   24648704.6134
                                                                        39.0004
        20.0004
  -9697543.90248  -7516036.87946
                  22410922.5864                                   22410918.8954
                                                                        48.7504
        37.2504
  -9623997.75447  -7460374.11343
                  23656599.2814                                   23656594.5634
                                                                        43.5004
        23.2504
 -15118408.80547 -11769865.01645
                  22513689.9224                                   22513685.0784
                                                                        47.0004
        33.5004
 09 10 29  0 45  0.0000000  0  9G02G08G05G10G13G21G29G16G07
   3581561.55147   2812546.78545
                  22767004.4614                                   22766998.6484
                                                                        46.7504
        33.5004
    491860.10246    429000.74644
                  23921310.6254                                   23921307.1804
                                                                        41.0004
        25.0004
 -20490618.86348 -15915206.82447
                  20579309.4924                                   20579305.2464
                                                                        50.2504
        43.5004
 -16739229.13348 -12998566.82046
                  20391381.9064                                   20391377.9774
                                                                        50.0004
        41.5004
   2337109.13747   1846200.96143
                  23280628.2814                                   23280623.9614
                                                                        44.0004
        22.5004
   5540562.37146   4362244.10543
                  24613260.3284                                   24613256.6054
                                                                        38.5004
        21.5004
  -9731600.46148  -7542574.46546
                  22404441.6564                                   22404438.3164
                                                                        48.0004
        37.0004
  -9683530.57447  -7506763.32843
                  23645270.8914                                   23645265.4264
                                                                        43.2504
        22.7504
 -15233711.51248 -11859711.35245
                  22491748.2034                                   22491743.4884
                                                                        48.0004
        33.5004
 09 10 29  0 45 30.0000000  0  9G02G08G05G10G13G21G29G16G07
   3602917.50847   2829187.75045
                  22771068.0784                                   22771062.2584
                                                                        47.0004
        33.7504
    310107.02747    287375.00044
                  23886723.3444                                   23886720.5474
                                                                        43.0004
        25.5004
 -20592390.82448 -15994509.64547
                  20559943.2734                                   20559938.9734
                                                                        50.7504
        43.0004
 -16813919.97748 -13056767.46946
                  20377169.0164                                   20377165.0434
                                                                        51.5004
        41.5004
   2355724.95746   1860706.80543
                  23284170.8674                                   23284166.6334
                                                                        41.5004
        22.5004
   5354435.69146   4217210.35544
                  24577842.3674                                   24577837.7974
                                                                        39.7504
        24.0004
  -9765096.10548  -7568674.96546
                  22398068.1334                                   22398064.2894
                                                                        48.2504
        36.7504
  -9742448.84447  -7552673.64844
                  23634058.9844                                   23634053.9614
                                                                        43.5004
        24.5004
 -15348395.93448 -11949075.90645
                  22469924.8594                                   22469920.3834
                                                                        48.0004
        33.0004
 09 10 29  0 46  0.0000000  0  9G02G08G05G10G13G21G29G16G07
   3624583.97347   2846070.66845
                  22775191.2664                                   22775185.3444
                                                                        46.5004
        32.2504
    128657.35947    145985.65644
                  23852195.0314                                   23852191.8594
                                                                        43.0004
        25.7504
 -20693605.39848 -16073378.15647
                  20540682.4224                                   20540678.3244
                                                                        51.0004
        43.2504
 -16888020.45348 -13114508.10546
                  20363067.8444                                   20363063.7774
                                                                        51.0004
        41.5004
   2374664.66847   1875465.02043
                  23287774.0084                                   23287769.8874
                                                                        42.2504
        22.7504
   5168469.38746   4072301.59444
                  24542454.6884                                   24542449.1334
                                                                        41.0004
        24.7504
  -9798030.74648  -7594338.32846
                  22391800.3834                                   22391797.1334
                                                                        48.2504
        36.2504
  -9800751.97747  -7598104.68044
                  23622964.2814                                   23622959.3284
                                                                        43.7504
        24.7504
 -15462459.02747 -12037956.25445
                  22448219.1954                                   22448214.5044
                                                                        47.7504
        33.5004
 09 10 29  0 46 30.0000000  0  9G02G08G05G10G13G21G29G16G07
   3646552.65647   2863189.11745
                  22779371.8284                                   22779366.3754
                                                                        45.0004
        32.2504
    -52491.48047      4830.80144
                  23817723.8984                                   23817720.7934
                                                                        43.0004
        26.5004
 -20794268.22348 -16151816.73447
                  20521526.8914                                   20521523.1884
                                                                        51.0004
        43.7504
 -16961536.40648 -13171793.28546
                  20349078.2424                                   20349074.6334
                                                                        51.2504
        41.7504
   2393919.13746   1890468.51844
                  23291439.0084                                   23291434.1484
                                                                        41.0004
        25.0004
   4982660.10246   3927515.14843
                  24507095.6094                                   24507090.7814
                                                                        40.7504
        23.0004
  -9830411.99647  -7619570.46546
                  22385638.3754                                   22385635.1954
                                                                        47.5004
        37.2504
  -9858446.21147  -7643061.25844
                  23611985.6174                                   23611980.2664
                                                                        43.5004
        25.5004
 -15575905.12547 -12126355.79345
                  22426631.2114                                   22426626.8324
                                                                        47.5004
        33.5004
 09 10 29  0 47  0.0000000  0  9G02G08G05G10G13G21G29G16G07
   3668826.30947   2880545.14145
                  22783610.2424                                   22783604.6414
                                                                        44.2504
        32.2504
   -233331.97747   -136083.86744
                  23783310.7344                                   23783307.8324
                                                                        43.5004
        27.0004
 -20894373.92648 -16229821.16847
                  20502477.6024                                   20502473.3364
                                                                        50.7504
        43.7504
 -17034463.96548 -13228619.93746
                  20335200.7664                                   20335196.9344
                                                                        51.5004
        41.5004
   2413491.57846   1905719.74643
                  23295163.0864                                   23295159.4574
                                                                        39.5004
        22.5004
   4797014.17646   3782856.00043
                  24471768.0314                                   24471763.4774
                                                                        41.0004
        22.0004
  -9862236.74648  -7644368.96946
                  22379582.4534                                   22379579.0354
                                                                        48.5004
        36.7504
  -9915528.17647  -7687540.73444
                  23601123.0944                                   23601117.9804
                                                                        43.2504
        24.7504
 -15688728.14547 -12214269.81645
                  22405161.7034                                   22405156.8204
                                                                        47.5004
        33.0004
 09 10 29  0 47 30.0000000  0  9G02G08G05G10G13G21G29G16G07
   3691398.82847   2898134.03945
                  22787905.8204                                   22787900.2074
                                                                        45.0004
        32.5004
   -413864.19147   -276758.34444
                  23748956.4384                                   23748954.0044
                                                                        43.2504
        27.0004
 -20993924.95348 -16307393.40247
                  20483533.5784                                   20483529.4654
                                                                        49.2504
        43.7504
 -17106806.43748 -13284990.69546
                  20321434.3834                                   20321430.6414
                                                                        50.5004
        41.2504
   2433375.07446   1921213.35543
                  23298947.2504                                   23298943.0084
                                                                        41.7504
        22.7504
   4611531.36746   3638323.94143
                  24436472.4454                                   24436466.5704
                                                                        40.7504
        21.7504
  -9893509.80948  -7668737.59446
                  22373631.8594                                   22373627.9454
                                                                        48.5004
        37.2504
  -9972001.74247  -7731546.14543
                  23590376.1024                                   23590371.6134
                                                                        44.5004
        23.2504
 -15800930.05148 -12301699.83645
                  22383810.3284                                   22383805.8754
                                                                        48.0004
        34.2504
 09 10 29  0 48  0.0000000  0  9G02G08G05G10G13G21G29G16G07
   3714270.32447   2915955.91445
                  22792258.0164                                   22792252.2344
                                                                        45.7504
        31.7504
   -594082.84447   -417188.40644
                  23714662.1024                                   23714659.0944
                                                                        43.5004
        27.0004
 -21092918.78548 -16384531.41847
                  20464695.4224                                   20464691.5234
                                                                        50.0004
        43.5004
 -17178561.82048 -13340903.98046
                  20307779.9534                                   20307776.1054
                                                                        50.2504
        41.0004
   2453570.10546   1936949.72743
                  23302790.2114                                   23302785.8634
                                                                        41.2504
        22.7504
   4426215.66846   3493922.09443
                  24401208.0944                                   24401202.6844
                                                                        41.0004
        22.0004
  -9924230.62148  -7692675.90246
                  22367785.6254                                   22367781.6564
                                                                        49.0004
        36.7504
 -10027865.30147  -7775076.18443
                  23579745.7974                                   23579740.5864
                                                                        43.7504
        22.5004
 -15912507.68047 -12388643.43445
                  22362578.2194                                   22362573.2894
                                                                        47.5004
        34.0004
 09 10 29  0 48 30.0000000  0  9G02G08G05G10G13G21G29G16G07
   3737436.83247   2934007.60945
                  22796666.5474                                   22796661.2424
                                                                        45.7504
        32.7504
   -773986.73047   -557373.20344
                  23680428.1254                                   23680424.7344
                                                                        44.0004
        26.5004
 -21191356.73848 -16461236.32847
                  20445963.6804                                   20445959.4654
                                                                        50.2504
        44.0004
 -17249732.59048 -13396361.71146
                  20294236.4774                                   20294232.4884
                                                                        50.2504
        41.5004
   2474071.88746   1952925.15644
                  23306691.6564                                   23306687.8404
                                                                        41.0004
        25.0004
   4241067.20746   3349650.54343
                  24365975.8594                                   24365970.0864
                                                                        40.7504
        21.2504
  -9954403.20748  -7716187.01646
                  22362043.8754                                   22362040.2934
                                                                        48.0004
        37.0004
 -10083122.17647  -7818133.46944
                  23569230.5634                                   23569225.8364
                                                                        43.7504
        25.5004
 -16023461.37548 -12475100.85245
                  22341464.1564                                   22341459.3674
                                                                        48.5004
        33.5004
 09 10 29  0 49  0.0000000  0  9G02G08G05G10G13G21G29G16G07
   3760893.78147   2952285.71545
                  22801130.4224                                   22801124.8954
                                                                        45.5004
        32.5004
   -953575.21147   -697312.23044
                  23646253.3914                                   23646249.8834
                                                                        44.5004
        26.2504
 -21289240.57448 -16537509.44547
                  20427336.8054                                   20427332.7854
                                                                        50.2504
        43.5004
 -17320321.09448 -13451365.73846
                  20280803.7344                                   20280799.7154
                                                                        49.7504
        41.7504
   2494875.46546   1969135.74243
                  23310650.1884                                   23310645.9534
                                                                        40.7504
        23.2504
   4056086.37946   3205509.64843
                  24330774.9144                                   24330769.7114
                                                                        41.5004
        21.7504
  -9984031.23448  -7739273.80146
                  22356405.8914                                   22356402.3164
                                                                        48.2504
        36.2504
 -10137775.28147  -7860720.27044
                  23558830.8914                                   23558825.4304
                                                                        44.0004
        24.2504
 -16133792.20747 -12561072.90645
                  22320468.7274                                   22320463.9884
                                                                        47.5004
        34.0004
 09 10 29  0 49 30.0000000  0  9G02G08G05G10G13G21G29G16G07
   3784641.58247   2970790.41045
                  22805649.4844                                   22805644.3324
                                                                        46.0004
        32.5004
  -1132842.41847   -837000.90244
                  23612139.7114                                   23612136.3404
                                                                        45.0004
        26.5004
 -21386566.67648 -16613347.97747
                  20408816.5004                                   20408812.4454
                                                                        50.2504
        43.0004
 -17390325.10948 -13505914.30946
                  20267482.5634                                   20267478.4614
                                                                        50.0004
        40.7504
   2515980.77746   1985581.43443
                  23314666.9844                                   23314662.0904
                                                                        41.5004
        22.5004
   3871277.93446   3061503.01643
                  24295606.8284                                   24295601.5704
                                                                        40.2504
        22.5004
 -10013113.51247  -7761935.31246
                  22350872.1174                                   22350868.1214
                                                                        47.5004
        36.7504
 -10191822.88747  -7902835.28144
                  23548545.3054                                   23548540.5514
                                                                        44.2504
        25.2504
 -16243496.43747 -12646556.66445
                  22299592.5864                                   22299588.4104
                                                                        47.7504
        34.0004
 09 10 29  0 50  0.0000000  0  9G02G08G05G10G13G21G29G16G07
   3808675.46147   2989517.97345
                  22810222.5944                                   22810217.4304
                                                                        45.5004
        32.5004
  -1311787.63347   -976438.68444
                  23578087.6724                                   23578084.4304
                                                                        44.0004
        27.0004
 -21483337.21548 -16688753.59047
                  20390401.6334                                   20390397.1604
                                                                        50.0004
        43.7504
 -17459747.27048 -13560009.48046
                  20254271.6804                                   20254267.8754
                                                                        50.5004
        41.0004
   2537383.04346   2002258.53943
                  23318738.5864                                   23318734.3134
                                                                        40.5004
        22.7504
   3686641.73846   2917630.61344
                  24260472.3834                                   24260466.6524
                                                                        40.7504
        24.2504
 -10041654.58248  -7784175.11346
                  22345440.7814                                   22345436.9574
                                                                        48.2504
        36.5004
 -10245268.77347  -7944481.38744
                  23538374.8204                                   23538370.3284
                                                                        43.5004
        25.5004
 -16352575.14847 -12731553.09045
                  22278836.0474                                   22278831.2624
                                                                        47.2504
        34.5004
 09 10 29  0 50 30.0000000  0  9G02G08G05G10G13G21G29G16G07
   3832995.18847   3008468.36345
                  22814850.8444                                   22814845.5704
                                                                        45.2504
        32.5004
  -1490405.87547  -1115621.65644
                  23544097.3524                                   23544094.3164
                                                                        44.0004
        26.7504
 -21579549.47748 -16763724.15247
                  20372093.0084                                   20372088.8364
                                                                        50.0004
        43.5004
 -17528586.27048 -13613650.27046
                  20241172.4384                                   20241168.5274
                                                                        50.0004
        41.2504
   2559082.46546   2019167.17643
                  23322867.6484                                   23322863.9064
                                                                        38.0004
        22.2504
   3502182.87946   2773896.54344
                  24225370.1484                                   24225365.2274
                                                                        41.5004
        24.5004
 -10069653.86748  -7805992.72746
                  22340112.5944                                   22340108.7114
                                                                        48.0004
        36.5004
 -10298111.71547  -7985657.70743
                  23528319.3284                                   23528314.6804
                                                                        42.7504
        23.2504
 -16461024.91448 -12816059.39545
                  22258198.1334                                   22258193.8954
                                                                        48.2504
        34.2504
 09 10 29  0 51  0.0000000  0  9G02G08G05G10G13G21G29G16G07
   3857601.06347   3027641.72745
                  22819533.6024                                   22819528.1994
                                                                        45.0004
        32.0004
  -1668692.02047  -1254545.91844
                  23510170.3204                                   23510167.3364
                                                                        44.2504
        26.5004
 -21675200.90648 -16838257.75847
                  20353890.9774                                   20353886.7894
                                                                        51.0004
        43.2504
 -17596840.00448 -13666834.98046
                  20228183.8834                                   20228180.0274
                                                                        51.0004
        41.0004
   2581077.44146   2036306.13743
                  23327053.3984                                   23327049.3674
                                                                        40.7504
        22.5004
   3317904.67246   2630303.16443
                  24190303.3834                                   24190298.2464
                                                                        40.7504
        22.7504
 -10097110.96148  -7827387.87546
                  22334888.1484                                   22334884.2854
                                                                        48.0004
        36.5004
 -10350351.02347  -8026363.66843
                  23518378.5314                                   23518374.1524
                                                                        42.7504
        22.7504
 -16568842.46148 -12900073.09445
                  22237681.5474                                   22237677.0514
                                                                        48.0004
        34.0004
 09 10 29  0 51 30.0000000  0  9G02G08G05G10G13G21G29G16G07
   5457904.09847   4274631.05545
                  23124061.2344                                   23124055.2774
                                                                        45.2504
        31.2504
   -271222.11347   -165608.26244
                  23776100.0004                                   23776097.1374
                                                                        44.2504
        27.2504
 -20194873.14548 -15684755.60247
                  20635587.8984                                   20635583.8444
                                                                        49.7504
        43.7504
 -16089091.62948 -12491966.09846
                  20515098.8754                                   20515094.9614
                                                                        49.5004
        40.7504
   4178780.77746   3281269.78943
                  23631086.9144                                   23631082.2664
                                                                        41.0004
        22.7504
   4709230.89546   3714453.47743
                  24455063.4384                                   24455058.5434
                                                                        41.0004
        22.7504
  -8548611.69547  -6620765.06246
                  22629557.0004                                   22629553.6994
                                                                        47.2504
        36.0004
  -8826570.40647  -6839002.16443
                  23808343.8984                                   23808339.9844
                                                                        42.7504
        22.7504
 -15100608.41048 -11755994.64545
                  22517077.1484                                   22517072.7234
                                                                        48.2504
        34.5004
 09 10 29  0 52  0.0000000  0  9G02G08G05G10G13G21G29G16G07
   5483061.57047   4294234.24645
                  23128848.3754                                   23128842.5554
                                                                        45.0004
        31.0004
   -448847.50847   -304017.60944
                  23742299.1094                                   23742296.2384
                                                                        43.5004
        28.0004
 -20289414.42648 -15758424.10947
                  20617597.2034                                   20617593.3714
                                                                        49.5004
        43.5004
 -16156189.05548 -12544249.80146
                  20502330.8984                                   20502326.8444
                                                                        49.2504
        41.2504
   4201347.55146   3298854.25044
                  23635381.3754                                   23635376.7034
                                                                        41.0004
        25.2504
   4525308.61746   3571137.41843
                  24420064.5164                                   24420059.3524
                                                                        41.5004
        23.0004
  -8575002.87148  -6641329.64146
                  22624535.4694                                   22624532.1214
                                                                        48.2504
        36.0004
  -8877617.64847  -6878779.24244
                  23798630.1564                                   23798625.9184
                                                                        43.5004
        24.0004
 -15207171.11348 -11839030.53145
                  22496798.9384                                   22496794.7664
                                                                        48.0004
        35.0004
 09 10 29  0 52 30.0000000  0  9G02G08G05G10G13G21G29G16G07
   5508493.32847   4314051.17245
                  23133687.6954                                   23133682.4064
                                                                        45.0004
        32.0004
   -626136.46547   -442164.83244
                  23708562.4304                                   23708559.0664
                                                                        43.0004
        27.0004
 -20383398.16048 -15831658.14147
                  20599712.9774                                   20599709.0394
                                                                        50.0004
        43.5004
 -16222706.99248 -12596081.95346
                  20489673.0164                                   20489669.0314
                                                                        49.2504
        41.0004
   4224198.45747   3316660.14143
                  23639729.9614                                   23639725.4184
                                                                        42.0004
        22.7504
   4341569.32447   3427963.96143
                  24385100.2504                                   24385094.9304
                                                                        42.0004
        22.5004
  -8600862.09848  -6661479.69546
                  22619614.7344                                   22619610.4104
                                                                        48.5004
        36.2504
  -8928068.94547  -6918091.95344
                  23789029.8834                                   23789025.7114
                                                                        42.7504
        25.0004
 -15313102.97348 -11921574.83245
                  22476640.9694                                   22476636.8164
                                                                        48.5004
        34.7504
 09 10 29  0 53  0.0000000  0  9G02G08G05G10G13G21G29G16G07
   5534196.53147   4334079.59045
                  23138578.4844                                   23138573.8014
                                                                        43.2504
        31.5004
   -803086.27747   -580047.75044
                  23674889.6644                                   23674886.8714
                                                                        44.0004
        27.7504
 -20476824.66048 -15904458.00447
                  20581934.3204                                   20581930.4184
                                                                        49.2504
        43.7504
 -16288646.61348 -12647463.48846
                  20477124.9224                                   20477120.8204
                                                                        48.5004
        41.0004
   4247329.31646   3334684.17243
                  23644130.6094                                   23644126.6254
                                                                        41.0004
        22.0004
   4158014.96546   3284934.56643
                  24350170.1724                                   24350165.4694
                                                                        41.5004
        22.7504
  -8626191.98047  -6681217.27746
                  22614794.4614                                   22614790.9964
                                                                        47.5004
        36.2504
  -8977925.71947  -6956941.42244
                  23779543.1644                                   23779538.3164
                                                                        43.0004
        25.2504
 -15418403.59447 -12003627.26245
                  22456603.4614                                   22456598.6484
                                                                        47.7504
        35.2504
 09 10 29  0 53 30.0000000  0  9G02G08G05G10G13G21G29G16G07
   5560167.91047   4354316.98045
                  23143521.0864                                   23143515.8754
                                                                        44.2504
        32.0004
   -979694.65247   -717664.51644
                  23641281.7974                                   23641279.3054
                                                                        44.5004
        28.0004
 -20569694.26648 -15976823.91847
                  20564261.8054                                   20564257.5554
                                                                        49.7504
        43.5004
 -16354009.49648 -12698395.60946
                  20464686.6724                                   20464682.9654
                                                                        49.5004
        41.2504
   4270737.39846   3352924.19543
                  23648585.7504                                   23648581.1804
                                                                        41.2504
        22.0004
   3974646.86746   3142050.34844
                  24315277.0164                                   24315272.2384
                                                                        41.5004
        24.0004
  -8650994.81247  -6700544.17645
                  22610074.3984                                   22610070.8404
                                                                        47.5004
        35.5004
  -9027190.24647  -6995329.36744
                  23770167.5314                                   23770163.8244
                                                                        43.5004
        25.0004
 -15523072.88748 -12085187.75445
                  22436684.9224                                   22436680.3364
                                                                        48.2504
        34.0004
 09 10 29  0 54  0.0000000  0 10G02G08G05G10G13G21G29G16G07G15
   5586404.82447   4374761.32845
                  23148513.7344                                   23148508.2114
                                                                        44.0004
        30.5004
  -1155959.25447   -855013.44944
                  23607740.7194                                   23607736.9924
                                                                        44.0004
        27.0004
 -20662006.69948 -16048755.69147
                  20546695.5004                                   20546691.4534
                                                                        49.2504
        43.7504
 -16418796.28948 -12748878.84046
                  20452358.4694                                   20452354.0474
                                                                        49.0004
        41.5004
   4294419.74646   3371377.93443
                  23653092.1024                                   23653087.2194
                                                                        40.7504
        21.5004
   3791467.12547   2999312.85944
                  24280419.3054                                   24280414.0314
                                                                        43.0004
        25.0004
  -8675273.01247  -6719462.29345
                  22605454.0164                                   22605450.7194
                                                                        47.2504
        35.7504
  -9075863.86347  -7033256.83244
                  23760905.9384                                   23760901.6174
                                                                        43.7504
        25.7504
 -15627109.73848 -12166255.43445
                  22416887.5864                                   22416882.9844
                                                                        48.7504
        35.0004
   9154707.52057   7156574.72754
                  24473540.5784                                   24473537.8914
                                                                        43.2504
        29.0004
 09 10 29  0 54 30.0000000  0 10G02G08G05G10G13G21G29G16G07G15
   5612903.07847   4395409.27045
                  23153556.5554                                   23153550.7934
                                                                        43.2504
        31.0004
  -1331878.86747   -992093.60544
                  23574263.7424                                   23574260.5434
                                                                        44.2504
        27.0004
 -20753763.62148 -16120254.59847
                  20529234.7424                                   20529230.6644
                                                                        49.7504
        43.7504
 -16483009.79748 -12798915.34046
                  20440138.7194                                   20440135.0234
                                                                        50.2504
        41.2504
   4318372.99646   3390042.75843
                  23657650.5944                                   23657645.8244
                                                                        40.2504
        22.2504
   3608475.91047   2856722.31344
                  24245597.2504                                   24245592.0784
                                                                        42.0004
        25.0004
  -8699030.50047  -6737974.64146
                  22600933.6414                                   22600929.8794
                                                                        47.7504
        36.0004
  -9123950.05147  -7070726.57444
                  23751754.8754                                   23751751.0704
                                                                        44.0004
        24.0004
 -15730515.58648 -12246831.42645
                  22397209.8754                                   22397205.2814
                                                                        48.0004
        34.5004
   8956648.40646   7002242.95744
                  24435850.2734                                   24435848.4024
                                                                        41.5004
        27.0004
 09 10 29  0 55  0.0000000  0 10G02G08G05G10G13G21G29G16G07G15
   5639653.27047   4416253.49245
                  23158646.8204                                   23158641.0394
                                                                        43.5004
        30.2504
  -1507458.00047  -1128908.43744
                  23540851.9844                                   23540848.7344
                                                                        43.7504
        29.0004
 -20844972.15248 -16191326.18047
                  20511878.0864                                   20511874.1884
                                                                        50.5004
        43.0004
 -16546657.37948 -12848510.85546
                  20428027.1174                                   20428023.2624
                                                                        50.0004
        41.7504
   4342584.98046   3408909.26243
                  23662258.2114                                   23662253.3014
                                                                        40.7504
        22.5004
   3425668.13746   2714274.69544
                  24210810.2034                                   24210805.3834
                                                                        41.5004
        24.0004
  -8722276.55148  -6756088.48846
                  22596509.9844                                   22596506.3244
                                                                        48.0004
        36.2504
  -9171457.27747  -7107745.14544
                  23742714.7274                                   23742710.4694
                                                                        44.0004
        25.7504
 -15833296.65248 -12326920.56645
                  22377651.2974                                   22377646.8284
                                                                        48.0004
        33.7504
   8758715.47346   6848009.64144
                  24398185.2114                                   24398182.6254
                                                                        41.7504
        26.7504
 09 10 29  0 55 30.0000000  0 10G02G08G05G10G13G21G29G16G07G15
   5666656.50047   4437294.93845
                  23163785.0704                                   23163779.8834
                                                                        45.2504
        30.5004
  -1682689.68447  -1265452.52744
                  23507506.2814                                   23507503.2154
                                                                        44.7504
        27.2504
 -20935628.20748 -16261967.24647
                  20494626.9614                                   20494622.7234
                                                                        50.2504
        43.0004
 -16609736.03548 -12897663.08246
                  20416023.9304                                   20416020.2704
                                                                        50.2504
        41.0004
   4367058.97746   3427979.81343
                  23666914.6334                                   23666911.0554
                                                                        41.5004
        22.7504
   3243049.60246   2571974.53543
                  24176058.2274                                   24176053.3984
                                                                        40.5004
        22.7504
  -8745009.34847  -6773802.37545
                  22592183.9694                                   22592180.2854
                                                                        47.7504
        35.5004
  -9218383.00447  -7144310.67644
                  23733785.0944                                   23733780.8634
                                                                        43.5004
        25.5004
 -15935448.32848 -12406519.28545
                  22358212.4924                                   22358208.1054
                                                                        48.7504
        34.2504
   8560913.72747   6693878.39544
                  24360545.2974                                   24360542.2504
                                                                        44.2504
        26.7504
 09 10 29  0 56  0.0000000  0 10G02G08G05G10G13G21G29G16G07G15
   5693915.05147   4458535.35545
                  23168972.6724                                   23168966.9534
                                                                        44.2504
        31.0004
  -1857566.16447  -1401719.87944
                  23474228.8204                                   23474224.8244
                                                                        42.5004
        27.0004
 -21025726.43048 -16332173.62147
                  20477481.6954                                   20477477.6094
                                                                        51.2504
        43.7504
 -16672241.66848 -12946368.80146
                  20404129.4694                                   20404125.1724
                                                                        51.2504
        41.0004
   4391795.39546   3447254.88743
                  23671621.7974                                   23671618.2154
                                                                        40.7504
        22.5004
   3060627.93446   2429827.75444
                  24141344.9384                                   24141340.2074
                                                                        41.7504
        25.2504
  -8767225.80547  -6791113.92245
                  22587956.6334                                   22587952.5664
                                                                        47.5004
        35.7504
  -9264723.62547  -7180420.22344
                  23724967.1804                                   23724962.1764
                                                                        42.7504
        25.2504
 -16036964.69948 -12485622.95745
                  22338894.5234                                   22338889.9344
                                                                        48.7504
        34.5004
   8363251.04747   6539855.50844
                  24322931.8054                                   24322927.6684
                                                                        45.0004
        25.2504
 09 10 29  0 56 30.0000000  0 10G02G08G05G10G13G21G29G16G07G15
   5721427.96147   4479973.91044
                  23174208.1954                                   23174202.4344
                                                                        44.2504
        29.5004
  -2032083.72747  -1537707.53944
                  23441018.6024                                   23441015.4774
                                                                        43.0004
        26.5004
 -21115265.82848 -16401944.58647
                  20460442.9384                                   20460438.9844
                                                                        51.0004
        44.0004
 -16734173.94148 -12994627.70346
                  20392344.2344                                   20392340.5044
                                                                        50.2504
        41.0004
   4416794.85546   3466734.96543
                  23676379.4774                                   23676375.2274
                                                                        40.0004
        22.7504
   2878405.99246   2287836.60243
                  24106668.7344                                   24106664.0004
                                                                        41.5004
        22.5004
  -8788927.16847  -6808024.08246
                  22583826.7734                                   22583823.6724
                                                                        47.5004
        36.0004
  -9310479.69147  -7216074.30944
                  23716259.8204                                   23716255.4574
                                                                        43.5004
        26.7504
 -16137844.27748 -12564230.42245
                  22319697.9224                                   22319693.2544
                                                                        48.0004
        34.7504
   8165730.67647   6385943.44144
                  24285345.1484                                   24285340.0864
                                                                        45.2504
        26.2504
 09 10 29  0 57  0.0000000  0 10G02G08G05G10G13G21G29G16G07G15
   5749196.48847   4501611.73445
                  23179492.9384                                   23179487.0864
                                                                        45.0004
        30.2504
  -2206235.85947  -1673410.41844
                  23407878.9384                                   23407875.3754
                                                                        43.2504
        27.7504
 -21204242.70348 -16471277.22747
                  20443511.3364                                   20443507.4924
                                                                        50.5004
        44.0004
 -16795530.01248 -13042437.60946
                  20380668.1564                                   20380664.3754
                                                                        49.7504
        41.5004
   4442056.16846   3486419.13343
                  23681186.7974                                   23681182.3874
                                                                        40.7504
        22.0004
   2696389.35947   2146005.43043
                  24072033.1024                                   24072027.6914
                                                                        42.2504
        22.7504
  -8810112.16047  -6824531.87945
                  22579795.5394                                   22579791.9414
                                                                        47.2504
        35.5004
  -9355649.25447  -7251271.35944
                  23707664.7504                                   23707660.0434
                                                                        44.0004
        25.2504
 -16238082.79748 -12642338.33245
                  22300622.7584                                   22300618.4844
                                                                        48.5004
        34.7504
   7968358.02047   6232146.51644
                  24247786.4384                                   24247781.8834
                                                                        44.0004
        26.5004
 09 10 29  0 57 30.0000000  0 10G02G08G05G10G13G21G29G16G07G15
   5777216.52347   4523445.51645
                  23184824.2894                                   23184819.1054
                                                                        44.2504
        30.7504
  -2380020.59847  -1808827.05144
                  23374809.0864                                   23374805.6914
                                                                        44.0004
        29.0004
 -21292657.80548 -16540172.09447
                  20426686.6414                                   20426682.5514
                                                                        50.0004
        43.5004
 -16856311.21148 -13089799.55546
                  20369101.8674                                   20369097.9964
                                                                        50.0004
        41.7504
   4467576.25446   3506305.00443
                  23686043.1254                                   23686038.9614
                                                                        41.5004
        21.7504
   2514579.55547   2004335.40243
                  24037435.3444                                   24037430.5594
                                                                        42.2504
        23.2504
  -8830783.25048  -6840639.23045
                  22575861.9144                                   22575858.1524
                                                                        48.0004
        35.2504
  -9400234.53947  -7286013.13344
                  23699180.1724                                   23699175.3014
                                                                        43.5004
        24.5004
 -16337680.35948 -12719946.82845
                  22281670.5704                                   22281665.8094
                                                                        48.5004
        34.7504
   7771134.54346   6078465.90244
                  24210255.1024                                   24210252.5124
                                                                        41.2504
        27.5004
 09 10 29  0 58  0.0000000  0 10G02G08G05G10G13G21G29G16G07G15
   5805488.21947   4545475.34044
                  23190203.9614                                   23190198.2074
                                                                        43.0004
        29.5004
  -2553433.27047  -1943953.76245
                  23341809.3204                                   23341806.0864
                                                                        44.0004
        30.2504
 -21380509.07448 -16608627.63347
                  20409968.8054                                   20409964.3954
                                                                        49.0004
        43.2504
 -16916516.83248 -13136713.02346
                  20357645.3914                                   20357641.2304
                                                                        49.0004
        41.7504
   4493355.09847   3526392.54743
                  23690948.6094                                   23690943.9924
                                                                        43.0004
        21.2504
   2332980.59447   1862829.64544
                  24002878.5394                                   24002873.7114
                                                                        43.2504
        25.5004
  -8850941.36747  -6856346.88745
                  22572025.7274                                   22572022.3484
                                                                        47.0004
        35.2504
  -9444234.92647  -7320299.14544
                  23690807.1174                                   23690802.7274
                                                                        43.7504
        25.2504
 -16436633.99648 -12797053.54745
                  22262839.6804                                   22262835.5634
                                                                        49.2504
        34.5004
   7574064.60246   5924905.01644
                  24172753.4924                                   24172751.3204
                                                                        39.5004
        28.0004
 09 10 29  0 58 30.0000000  0 10G02G08G05G10G13G21G29G16G07G15
   5834007.15647   4567697.81644
                  23195631.0864                                   23195625.9454
                                                                        44.5004
        29.7504
  -2726472.71547  -2078789.66444
                  23308881.0634                                   23308878.2624
                                                                        44.5004
        29.2504
 -21467797.97748 -16676644.96147
                  20393358.1954                                   20393354.2034
                                                                        50.5004
        43.5004
 -16976149.24648 -13183179.85546
                  20346297.2814                                   20346293.5474
                                                                        50.2504
        41.2504
   4519387.28146   3546677.43843
                  23695901.8834                                   23695897.4144
                                                                        41.7504
        21.5004
   2151592.49247   1721488.22344
                  23968361.4844                                   23968356.5474
                                                                        43.2504
        25.5004
  -8870590.23447  -6871657.71946
                  22568286.8834                                   22568283.4654
                                                                        46.5004
        36.0004
  -9487654.18047  -7354132.34444
                  23682544.6484                                   23682540.1564
                                                                        44.5004
        25.5004
 -16534945.32848 -12873659.76245
                  22244132.1334                                   22244127.2704
                                                                        48.5004
        34.2504
   7377148.19547   5771463.74644
                  24135282.0944                                   24135279.3674
                                                                        42.0004
        28.7504
 09 10 29  0 59  0.0000000  0 10G02G08G05G10G13G21G29G16G07G15
   5862771.78547   4590111.76645
                  23201104.2894                                   23201099.8714
                                                                        43.0004
        30.0004
  -2899135.21547  -2213331.85544
                  23276024.9064                                   23276021.3164
                                                                        44.0004
        29.0004
 -21554523.41048 -16744223.22747
                  20376855.0084                                   20376850.4884
                                                                        50.2504
        43.5004
 -17035208.12548 -13229199.74246
                  20335058.9304                                   20335055.2034
                                                                        50.0004
        41.2504
   4545671.80946   3567158.91443
                  23700903.6724                                   23700899.6254
                                                                        39.7504
        20.0004
   1970419.38347   1580314.35544
                  23933885.8984                                   23933880.7624
                                                                        42.5004
        24.2504
  -8889730.84847  -6886572.51645
                  22564644.8674                                   22564640.9924
                                                                        47.5004
        35.7504
  -9530492.50447  -7387512.86744
                  23674393.0234                                   23674387.7424
                                                                        44.5004
        24.5004
 -16632612.53548 -12949764.08245
                  22225546.4304                                   22225541.8984
                                                                        48.5004
        34.5004
   7180388.79347   5618144.80545
                  24097840.5784                                   24097837.2304
                                                                        44.0004
        30.5004
 09 10 29  0 59 30.0000000  0 10G02G08G05G10G13G21G29G16G07G15
   5891778.96147   4612714.64545
                  23206625.2344                                   23206619.7424
                                                                        44.0004
        30.0004
  -3071418.39847  -2347578.43744
                  23243239.8594                                   23243236.3834
                                                                        44.5004
        28.0004
 -21640686.07848 -16811362.97747
                  20360458.8674                                   20360454.8054
                                                                        50.2504
        43.2504
 -17093695.28548 -13274774.16046
                  20323929.4384                                   20323925.5944
                                                                        49.0004
        41.5004
   4572205.68846   3587834.68843
                  23705953.0704                                   23705948.6524
                                                                        40.2504
        21.2504
   1789462.43447   1439308.90244
                  23899450.5084                                   23899445.6054
                                                                        43.5004
        25.0004
  -8908365.88747  -6901093.35545
                  22561098.6334                                   22561095.1134
                                                                        47.7504
        35.2504
  -9572752.09047  -7420442.41844
                  23666351.2034                                   23666346.4104
                                                                        44.7504
        25.0004
 -16729636.03948 -13025366.81245
                  22207083.6174                                   22207078.9264
                                                                        48.5004
        34.5004
   6983787.98447   5464949.39144
                  24060428.1254                                   24060425.0704
                                                                        43.7504
        28.7504
 09 10 29  1  0  0.0000000  0 10G02G08G05G10G13G21G29G16G07G15
   5921028.26247   4635506.27744
                  23212191.7274                                   23212185.7664
                                                                        42.5004
        29.0004
  -3243317.55947  -2481525.75444
                  23210527.8364                                   23210524.7504
                                                                        43.7504
        27.2504
 -21726283.72348 -16878062.43747
                  20344169.9144                                   20344166.2114
                                                                        50.7504
        43.7504
 -17151609.58248 -13319902.18046
                  20312908.5394                                   20312904.8054
                                                                        49.5004
        41.7504
   4598987.14146   3608703.35543
                  23711049.7974                                   23711044.7304
                                                                        40.2504
        21.7504
   1608724.91847   1298474.47344
                  23865056.5944                                   23865052.4924
                                                                        42.5004
        25.5004
  -8926495.90647  -6915220.65645
                  22557648.7194                                   22557645.3754
                                                                        47.0004
        35.5004
  -9614432.91047  -7452920.96143
                  23658419.1254                                   23658414.4224
                                                                        44.7504
        22.7504
 -16826012.65248 -13100465.45745
                  22188743.6484                                   22188739.2664
                                                                        48.5004
        34.2504
   6787349.50447   5311880.48044
                  24023046.9454                                   24023043.2194
                                                                        43.0004
        26.2504
 09 10 29  1  0 30.0000000  0 10G02G08G05G10G13G21G29G16G07G15
   5950516.01247   4658483.76244
                  23217802.3674                                   23217796.8524
                                                                        44.5004
        28.5004
  -3414831.84447  -2615173.30544
                  23177890.2344                                   23177886.0984
                                                                        44.2504
        28.0004
 -21811318.34048 -16944323.16447
                  20327988.8204                                   20327984.6414
                                                                        50.0004
        43.5004
 -17208953.05948 -13364585.41046
                  20301996.6564                                   20301992.8204
                                                                        50.0004
        41.0004
   4626012.70746   3629762.24243
                  23716192.2194                                   23716187.5004
                                                                        39.5004
        22.5004
   1428208.30947   1157812.19544
                  23830705.8674                                   23830701.4964
                                                                        43.5004
        24.5004
  -8944124.84447  -6928957.51245
                  22554293.7424                                   22554290.2344
                                                                        46.5004
        35.0004
  -9655537.82447  -7484950.74244
                  23650597.4694                                   23650592.0554
                                                                        44.7504
        24.2504
 -16921743.88747 -13175061.23445
                  22170526.5394                                   22170521.8794
                                                                        47.7504
        34.0004
   6591074.28146   5158938.75844
                  23985696.5944                                   23985692.7934
                                                                        41.0004
        24.7504
 09 10 29  1  1  0.0000000  0 10G02G08G05G10G13G21G29G16G07G15
   7555659.98847   5909245.28144
                  23523251.1094                                   23523245.4574
                                                                        43.7504
        28.5004
  -2010530.41047  -1520912.42644
                  23445119.9144                                   23445116.6374
                                                                        44.5004
        28.5004
 -20320364.96548 -15782541.28947
                  20611707.6644                                   20611703.5164
                                                                        49.0004
        43.7504
 -15690303.00448 -12181221.74646
                  20590986.1724                                   20590982.0744
                                                                        49.5004
        41.2504
   6228700.54346   4878609.92243
                  24021173.9304                                   24021169.1564
                                                                        40.5004
        22.7504
   2823342.50047   2244929.73844
                  24096190.7424                                   24096186.4574
                                                                        43.2504
        25.7504
  -7385832.32847  -5714703.60245
                  22850826.8444                                   22850823.4884
                                                                        47.0004
        34.5004
  -8120645.48447  -6288930.75443
                  23942677.9384                                   23942672.0984
                                                                        43.7504
        22.5004
 -15441403.89148 -12021549.53545
                  22452225.7344                                   22452221.3164
                                                                        48.7504
        34.0004
   7970392.85247   6233732.51644
                  24248171.9224                                   24248168.6254
                                                                        42.0004
        25.2504
 09 10 29  1  1 30.0000000  0 10G02G08G05G10G13G21G29G16G07G15
   7585615.74647   5932587.44944
                  23528951.3204                                   23528946.5004
                                                                        45.7504
        29.5004
  -2181266.46947  -1653953.50444
                  23412630.0634                                   23412626.8874
                                                                        44.5004
        27.5004
 -20404273.60248 -15847924.66047
                  20595740.4304                                   20595736.4264
                                                                        50.7504
        43.2504
 -15746508.41848 -12225018.16846
                  20580290.5474                                   20580286.4734
                                                                        50.7504
        41.5004
   6256205.25846   4900042.15643
                  24026407.1644                                   24026403.0004
                                                                        40.0004
        21.0004
   2643273.18047   2104615.98044
                  24061925.5784                                   24061920.0274
                                                                        44.5004
        25.0004
  -7402465.99247  -5727664.89145
                  22847662.1564                                   22847658.2154
                                                                        47.5004
        34.5004
  -8160604.59047  -6320067.72343
                  23935073.7114                                   23935068.3094
                                                                        44.0004
        22.5004
 -15535843.11348 -12095138.54345
                  22434254.4614                                   22434250.3134
                                                                        49.0004
        34.2504
   7774449.77047   6081049.62544
                  24210885.4694                                   24210882.5984
                                                                        43.5004
        28.5004
 09 10 29  1  2  0.0000000  0 10G02G08G05G10G13G21G29G16G07G15
   7615801.23047   5956108.64844
                  23534695.6484                                   23534690.1604
                                                                        45.2504
        29.2504
  -2351610.30147  -1786688.91445
                  23380214.7114                                   23380211.4804
                                                                        44.5004
        30.5004
 -20487620.27048 -15912870.10947
                  20579880.0704                                   20579876.2424
                                                                        50.2504
        43.5004
 -15802147.48848 -12268373.28546
                  20569702.5944                                   20569698.7934
                                                                        50.2504
        41.2504
   6283944.73846   4921657.33243
                  24031686.0944                                   24031682.2854
                                                                        40.7504
        21.2504
   2463430.22747   1964478.59844
                  24027702.5394                                   24027697.2704
                                                                        44.7504
        26.2504
  -7418606.32047  -5740241.74645
                  22844590.3134                                   22844586.5824
                                                                        47.5004
        34.7504
  -8199994.00447  -6350760.81644
                  23927578.1174                                   23927573.1294
                                                                        43.5004
        25.2504
 -15629636.83248 -12168224.55145
                  22416406.2664                                   22416401.7034
                                                                        48.0004
        34.2504
   7578675.13747   5928498.06644
                  24173631.2814                                   24173628.0274
                                                                        44.5004
        29.5004
 09 10 29  1  2 30.0000000  0 10G02G08G05G10G13G21G29G16G07G15
   7646212.23447   5979805.52044
                  23540482.7664                                   23540477.3554
                                                                        44.0004
        28.5004
  -2521560.35247  -1919117.50044
                  23347874.0234                                   23347871.4384
                                                                        44.0004
        29.0004
 -20570405.95348 -15977378.43747
                  20564126.3834                                   20564122.5474
                                                                        49.0004
        43.7504
 -15857221.52048 -12311288.08646
                  20559222.7664                                   20559218.7154
                                                                        49.0004
        41.5004
   6311914.78546   4943452.15643
                  24037008.6254                                   24037004.5664
                                                                        39.2504
        20.2504
   2283813.69147   1824517.66844
                  23993522.9384                                   23993517.5394
                                                                        44.5004
        26.5004
  -7434257.24647  -5752437.26245
                  22841612.4384                                   22841608.5744
                                                                        47.5004
        34.5004
  -8238816.80547  -6381012.32043
                  23920190.3364                                   23920185.0704
                                                                        43.5004
        22.2504
 -15722785.71148 -12240808.09045
                  22398680.7114                                   22398676.3834
                                                                        48.7504
        34.5004
   7383070.03547   5776078.54745
                  24136408.8524                                   24136406.2894
                                                                        44.5004
        30.0004
 09 10 29  1  3  0.0000000  0 10G02G08G05G10G13G21G29G16G07G15
   7676846.51647   6003676.32044
                  23546311.9454                                   23546306.9804
                                                                        45.5004
        29.0004
  -2691113.73847  -2051236.98444
                  23315609.4144                                   23315606.0824
                                                                        44.5004
        29.7504
 -20652630.72348 -16041449.69147
                  20548479.6564                                   20548475.3364
                                                                        49.7504
        43.2504
 -15911732.15648 -12353763.90646
                  20548849.3364                                   20548845.1804
                                                                        50.5004
        40.7504
   6340113.28546   4965425.00843
                  24042374.7194                                   24042370.7234
                                                                        40.5004
        18.2504
   2104426.42247   1684735.39144
                  23959386.3444                                   23959381.2504
                                                                        44.2504
        27.0004
  -7449420.63347  -5764252.88745
                  22838726.5234                                   22838722.8634
                                                                        46.7504
        35.0004
  -8277074.57047  -6410823.54343
                  23912909.8054                                   23912904.8914
                                                                        43.2504
        22.7504
 -15815289.00047 -12312888.56245
                  22381078.2894                                   22381073.4454
                                                                        47.5004
        34.0004
   7187636.42647   5623792.72745
                  24099219.1884                                   24099215.6804
                                                                        44.7504
        30.2504
 09 10 29  1  3 30.0000000  0 10G02G08G05G10G13G21G29G16G07G15
   7707700.16047   6027718.11744
                  23552183.4844                                   23552178.2584
                                                                        44.5004
        28.5004
  -2860269.19547  -2183046.40644
                  23283420.3444                                   23283416.7624
                                                                        45.2504
        29.5004
 -20734296.05548 -16105085.02347
                  20532939.1884                                   20532935.2544
                                                                        51.0004
        43.7504
 -15965681.64148 -12395802.52046
                  20538583.3754                                   20538579.6684
                                                                        50.7504
        41.2504
   6368535.98946   4987572.57943
                  24047783.1484                                   24047778.4494
                                                                        40.7504
        20.0004
   1925269.37147   1545132.50044
                  23925293.0944                                   23925288.6024
                                                                        42.7504
        24.5004
  -7464100.25447  -5775691.53945
                  22835933.0554                                   22835929.4574
                                                                        47.0004
        35.0004
  -8314770.77347  -6440197.19943
                  23905736.5704                                   23905732.3404
                                                                        43.2504
        22.5004
 -15907148.05547 -12384467.04345
                  22363597.7664                                   22363593.0984
                                                                        47.5004
        34.2504
   6992375.43847   5471641.35244
                  24062061.8914                                   24062058.4024
                                                                        43.7504
        28.5004
 09 10 29  1  4  0.0000000  0 10G02G08G05G10G13G21G29G16G07G15
   7738771.19547   6051929.11344
                  23558096.2814                                   23558090.6954
                                                                        44.2504
        28.2504
  -3029023.19947  -2314542.98844
                  23251307.3834                                   23251303.8674
                                                                        43.5004
        29.2504
 -20815401.53948 -16168284.11347
                  20517505.3674                                   20517501.3054
                                                                        50.5004
        43.2504
 -16019069.89848 -12437403.72346
                  20528423.8594                                   20528419.9024
                                                                        51.0004
        40.7504
   6397181.07446   5009893.40643
                  24053233.1334                                   24053229.7304
                                                                        39.0004
        20.5004
   1746345.35247   1405711.20744
                  23891245.3134                                   23891240.8014
                                                                        42.2504
        25.7504
  -7478297.85547  -5786754.59045
                  22833231.6564                                   22833228.0084
                                                                        47.0004
        35.0004
  -8351906.07047  -6469133.80543
                  23898669.8524                                   23898665.0944
                                                                        43.0004
        23.0004
 -15998361.69547 -12455542.61345
                  22346240.3134                                   22346235.7664
                                                                        47.0004
        34.5004
   6797289.67647   5319626.43444
                  24024938.4224                                   24024934.5164
                                                                        42.5004
        28.0004
 09 10 29  1  4 30.0000000  0 10G02G08G05G10G13G21G29G16G07G15
   7770058.23847   6076308.47744
                  23564050.5944                                   23564044.7464
                                                                        44.2504
        27.7504
  -3197372.27047  -2445724.03145
                  23219271.4534                                   23219268.1454
                                                                        43.2504
        30.2504
 -20895946.28948 -16231046.32847
                  20502178.1724                                   20502174.3244
                                                                        48.7504
        43.5004
 -16071897.38348 -12478568.01646
                  20518371.1024                                   20518367.0234
                                                                        49.0004
        41.0004
   6426046.33646   5032385.76643
                  24058726.6804                                   24058723.0904
                                                                        39.7504
        20.5004
   1567656.71147   1266473.31344
                  23857241.8284                                   23857237.4924
                                                                        44.0004
        25.0004
  -7492014.98447  -5797443.26645
                  22830620.8134                                   22830617.8484
                                                                        46.5004
        34.7504
  -8388481.70747  -6497634.32044
                  23891709.8754                                   23891705.4304
                                                                        43.5004
        24.2504
 -16088928.96547 -12526114.50845
                  22329006.4694                                   22329001.7034
                                                                        47.5004
        35.0004
   6602382.15246   5167750.49244
                  23987848.7974                                   23987844.9734
                                                                        41.5004
        27.5004
 09 10 29  1  5  0.0000000  0 10G02G08G05G10G13G21G29G16G07G15
   7801557.31347   6100853.02344
                  23570044.7194                                   23570039.2384
                                                                        44.7504
        27.5004
  -3365315.56647  -2576588.90244
                  23187312.4454                                   23187309.5514
                                                                        44.5004
        29.0004
 -20975932.03948 -16293372.89847
                  20486957.4304                                   20486953.1994
                                                                        50.7504
        43.2504
 -16124166.57048 -12519297.22746
                  20508424.5704                                   20508420.7934
                                                                        50.7504
        41.0004
   6455127.49646   5055046.41843
                  24064261.0944                                   24064256.6484
                                                                        41.5004
        20.2504
   1389204.03547   1127419.30544
                  23823284.1954                                   23823279.2664
                                                                        45.0004
        28.7504
  -7505255.53547  -5807760.57445
                  22828101.8134                                   22828098.3984
                                                                        47.0004
        34.5004
  -8424501.21947  -6525701.49644
                  23884855.4454                                   23884851.2034
                                                                        43.2504
        25.2504
 -16178851.19547 -12596183.80145
                  22311894.4304                                   22311889.6214
                                                                        47.5004
        34.7504
   6407653.41446   5016013.85544
                  23950792.6094                                   23950789.1454
                                                                        41.7504
        29.0004
 09 10 29  1  5 30.0000000  0 10G02G08G05G10G13G21G29G16G07G15
   7833268.30547   6125562.72344
                  23576078.7034                                   23576073.6094
                                                                        42.2504
        27.5004
  -3532847.29747  -2707133.10244
                  23155432.2194                                   23155429.6374
                                                                        44.7504
        29.5004
 -21055356.25448 -16355261.91047
                  20471843.5634                                   20471839.2074
                                                                        50.0004
        43.5004
 -16175875.97748 -12559590.25446
                  20498584.5164                                   20498580.7894
                                                                        50.0004
        40.7504
   6484424.51646   5077875.25043
                  24069836.5314                                   24069832.0514
                                                                        41.5004
        21.5004
   1210992.87547    988553.50044
                  23789371.5474                                   23789366.3794
                                                                        45.7504
        28.5004
  -7518019.32447  -5817706.39145
                  22825672.6484                                   22825669.0944
                                                                        46.2504
        35.0004
  -8459963.68747  -6553334.56244
                  23878107.6414                                   23878102.7074
                                                                        44.5004
        25.2504
 -16268125.26248 -12665748.02745
                  22294906.0314                                   22294901.8834
                                                                        48.0004
        34.2504
   6213108.23447   4864420.22744
                  23913771.8984                                   23913768.6054
                                                                        42.5004
        29.0004
 09 10 29  1  6  0.0000000  0 10G02G08G05G10G13G21G29G16G07G15
   7865186.10247   6150433.53144
                  23582152.8134                                   23582147.5594
                                                                        44.5004
        27.7504
  -3699967.44147  -2837356.53544
                  23123630.7034                                   23123627.2274
                                                                        45.0004
        28.7504
 -21134221.59048 -16416715.41447
                  20456836.0004                                   20456831.6914
                                                                        51.0004
        43.2504
 -16227029.35548 -12599450.07846
                  20488850.3914                                   20488846.5164
                                                                        51.2504
        40.7504
   6513932.47746   5100868.46143
                  24075451.8204                                   24075447.4614
                                                                        39.7504
        21.0004
   1033022.45347    849875.25844
                  23755505.3914                                   23755499.7664
                                                                        45.5004
        27.5004
  -7530311.27047  -5827284.54745
                  22823333.6254                                   22823330.2384
                                                                        46.5004
        34.7504
  -8494873.16047  -6580536.78944
                  23871464.5084                                   23871459.9574
                                                                        44.2504
        25.0004
 -16356753.70348 -12734809.18045
                  22278040.3284                                   22278035.8204
                                                                        48.0004
        34.5004
   6018746.48047   4712969.59044
                  23876786.5164                                   23876782.9384
                                                                        43.2504
        28.7504
 09 10 29  1  6 30.0000000  0 10G02G08G05G10G13G21G29G16G07G15
   7897310.31347   6175465.39544
                  23588265.9844                                   23588260.3594
                                                                        44.7504
        28.2504
  -3866672.27747  -2967256.44544
                  23091908.0394                                   23091904.2384
                                                                        43.7504
        29.0004
 -21212526.84448 -16477732.46947
                  20441935.0634                                   20441930.7424
                                                                        50.0004
        44.0004
 -16277626.23848 -12638876.25446
                  20479222.0864                                   20479218.5634
                                                                        50.7504
        40.0004
   6543650.36746   5124025.25042
                  24081106.6254                                   24081101.9924
                                                                        39.0004
        17.7504
    855296.35547    711387.38744
                  23721684.8204                                   23721680.0904
                                                                        45.5004
        27.0004
  -7542132.38747  -5836495.81245
                  22821084.4224                                   22821080.6254
                                                                        46.7504
        35.0004
  -8529230.71147  -6607308.93444
                  23864926.3444                                   23864921.7814
                                                                        45.0004
        25.0004
 -16444734.77048 -12803365.84445
                  22261298.8754                                   22261294.0474
                                                                        49.0004
        34.2504
   5824571.49247   4561664.46145
                  23839836.1174                                   23839832.7424
                                                                        43.2504
        31.0004
 09 10 29  1  7  0.0000000  0 10G02G08G05G10G13G21G29G16G07G15
   7929635.10947   6200653.55944
                  23594417.2894                                   23594411.9844
                                                                        44.2504
        27.7504
  -4032961.55547  -3096832.52344
                  23060264.4694                                   23060260.6804
                                                                        44.5004
        29.7504
 -21290275.05548 -16538315.52047
                  20427139.8054                                   20427136.1564
                                                                        49.7504
        43.5004
 -16327670.27348 -12677871.58246
                  20469699.0864                                   20469695.2544
                                                                        49.2504
        41.2504
   6573572.45346   5147341.11742
                  24086799.8674                                   24086796.1884
                                                                        37.5004
        17.7504
    677813.99647    573089.43844
                  23687910.9304                                   23687905.4844
                                                                        44.5004
        26.5004
  -7553488.21547  -5845344.52345
                  22818923.1334                                   22818919.5594
                                                                        46.5004
        33.7504
  -8563040.76247  -6633654.44544
                  23858492.8524                                   23858487.8094
                                                                        45.0004
        24.2504
 -16532070.99648 -12871420.05145
                  22244678.8754                                   22244674.1764
                                                                        48.7504
        35.0004
   5630582.65647   4410504.36745
                  23802920.8054                                   23802917.5204
                                                                        44.5004
        30.0004
 09 10 29  1  7 30.0000000  0 10G02G08G05G10G13G21G29G16G07G15
   7962159.21947   6225996.73844
                  23600606.2584                                   23600601.3284
                                                                        42.5004
        26.0004
  -4198830.59847  -3226081.13345
                  23028700.5634                                   23028696.7934
                                                                        44.5004
        30.7504
 -21367464.72348 -16598463.32847
                  20412451.2734                                   20412447.0634
                                                                        48.7504
        43.5004
 -16377160.61348 -12716435.45746
                  20460281.4774                                   20460277.4774
                                                                        48.7504
        41.0004
   6603698.18446   5170815.73043
                  24092533.5704                                   24092529.3834
                                                                        39.0004
        18.2504
    500579.43047    434984.57844
                  23654183.7344                                   23654178.6024
                                                                        44.5004
        25.5004
  -7564378.94147  -5853830.82445
                  22816851.1254                                   22816846.9774
                                                                        46.2504
        33.7504
  -8596303.35947  -6659573.35544
                  23852163.2734                                   23852158.2584
                                                                        45.0004
        25.2504
 -16618760.65248 -12938970.42645
                  22228182.5084                                   22228177.6214
                                                                        48.0004
        35.0004
   5436783.93847   4259492.39845
                  23766042.6484                                   23766039.1884
                                                                        44.0004
        30.2504
 09 10 29  1  8  0.0000000  0 10G02G08G05G10G13G21G29G16G07G15
   7994881.15647   6251494.68044
                  23606832.3984                                   23606827.1294
                                                                        42.5004
        26.0004
  -4364277.89147  -3355001.05545
                  22997216.5394                                   22997213.3554
                                                                        44.5004
        30.0004
 -21444096.74648 -16658176.59847
                  20397868.9454                                   20397864.4414
                                                                        49.5004
        43.5004
 -16426099.62948 -12754569.72346
                  20450968.4534                                   20450964.5784
                                                                        50.0004
        41.0004
   6634023.85546   5194446.14143
                  24098304.4454                                   24098299.7584
                                                                        41.0004
        19.0004
    323593.96947    297073.82444
                  23620504.7504                                   23620499.2734
                                                                        43.2504
        24.0004
  -7574807.92647  -5861957.29345
                  22814865.8204                                   22814862.5164
                                                                        46.5004
        33.2504
  -8629021.52747  -6685068.05144
                  23845937.1564                                   23845932.4064
                                                                        44.5004
        25.0004
 -16704804.34448 -13006017.44945
                  22211808.8594                                   22211804.3134
                                                                        48.0004
        34.2504
   5243176.84847   4108629.84444
                  23729199.7274                                   23729196.3874
                                                                        43.0004
        29.5004
 09 10 29  1  8 30.0000000  0 10G02G08G05G10G13G21G29G16G07G15
   8027795.80947   6277142.62144
                  23613096.2894                                   23613091.1684
                                                                        43.5004
        27.0004
  -4529301.94947  -3483591.18445
                  22965813.6804                                   22965810.2034
                                                                        44.5004
        30.0004
 -21520172.51248 -16717456.38347
                  20383391.9304                                   20383387.8244
                                                                        50.2504
        43.5004
 -16474489.52748 -12792276.13346
                  20441760.2344                                   20441756.2774
                                                                        51.2504
        40.7504
   6664545.21546   5218228.95743
                  24104112.5474                                   24104108.0434
                                                                        41.5004
        20.2504
    146858.33647    159357.74644
                  23586873.0704                                   23586867.6524
                                                                        43.7504
        25.2504
  -7584779.15247  -5869727.07445
                  22812968.9774                                   22812964.8714
                                                                        47.2504
        34.0004
  -8661198.25047  -6710140.82443
                  23839813.7734                                   23839809.5984
                                                                        43.5004
        23.2504
 -16790203.04748 -13072561.87145
                  22195558.1804                                   22195553.3204
                                                                        48.0004
        34.7504
   5049762.08647   3957917.19144
                  23692394.1644                                   23692391.3244
                                                                        42.2504
        29.2504
 09 10 29  1  9  0.0000000  0 10G02G08G05G10G13G21G29G16G07G15
   8060900.75847   6302938.64544
                  23619396.4924                                   23619390.6214
                                                                        44.5004
        27.5004
  -4693899.73847  -3611849.22344
                  22934491.6484                                   22934488.3134
                                                                        44.0004
        29.2504
 -21595691.51648 -16776302.31247
                  20369021.1644                                   20369017.1644
                                                                        49.2504
        44.0004
 -16522330.65248 -12829554.93046
                  20432656.5944                                   20432652.8524
                                                                        49.0004
        40.7504
   6695261.00846   5242163.30143
                  24109957.2114                                   24109952.7344
                                                                        40.7504
        22.2504
    -29624.01247     21839.02344
                  23553289.8054                                   23553284.7974
                                                                        44.2504
        27.5004
  -7594294.09447  -5877141.32045
                  22811158.2974                                   22811154.2074
                                                                        46.2504
        34.7504
  -8692834.69147  -6734792.55543
                  23833794.2194                                   23833789.3874
                                                                        44.2504
        23.2504
 -16874956.29348 -13138603.39545
                  22179429.9384                                   22179425.1724
                                                                        48.0004
        34.2504
   4856542.44147   3807356.54345
                  23655625.6564                                   23655622.4264
                                                                        44.5004
        30.0004
 09 10 29  1  9 30.0000000  0 10G02G08G05G10G13G21G29G16G07G15
   8094192.30147   6328880.10544
                  23625730.7114                                   23625725.9264
                                                                        43.5004
        27.5004
  -4858070.02747  -3739774.08245
                  22903251.4384                                   22903247.9104
                                                                        44.7504
        30.0004
 -21670656.23448 -16834716.32847
                  20354755.6954                                   20354752.0124
                                                                        49.5004
        44.0004
 -16569626.38748 -12866408.75046
                  20423656.2114                                   20423652.2194
                                                                        50.2504
        41.2504
   6726166.33246   5266245.34443
                  24115837.9614                                   24115834.1804
                                                                        38.5004
        21.5004
   -205853.46147   -115482.62144
                  23519754.6024                                   23519750.0824
                                                                        45.7504
        28.2504
  -7603357.51247  -5884203.71545
                  22809433.4304                                   22809429.6454
                                                                        46.5004
        34.0004
  -8723935.09847  -6759026.66443
                  23827875.6804                                   23827870.9184
                                                                        43.0004
        22.7504
 -16959066.05147 -13204143.48845
                  22163424.3834                                   22163419.9804
                                                                        47.7504
        34.7504
   4663518.32447   3656948.23045
                  23618894.6094                                   23618890.7664
                                                                        44.0004
        30.5004
 09 10 29  1 10  0.0000000  0  9G02G08G05G10G21G29G16G07G15
   8127670.60547   6354967.10544
                  23632101.9384                                   23632096.7274
                                                                        43.7504
        28.0004
  -5021808.07847  -3867362.16445
                  22872092.3524                                   22872089.2274
                                                                        45.0004
        31.2504
 -21745064.18048 -16892696.54747
                  20340596.5234                                   20340592.6994
                                                                        48.5004
        43.7504
 -16616375.32448 -12902836.52746
                  20414760.1954                                   20414756.1884
                                                                        48.5004
        40.7504
   -381825.16847   -252603.41844
                  23486268.2664                                   23486263.2384
                                                                        45.0004
        28.0004
  -7611969.27747  -5890914.20345
                  22807794.7734                                   22807790.8014
                                                                        45.2504
        33.7504
  -8754498.96547  -6782842.68743
                  23822059.4694                                   23822055.0664
                                                                        42.5004
        22.7504
 -17042529.50848 -13269179.94145
                  22147541.8524                                   22147537.1414
                                                                        48.0004
        34.7504
   4470694.57847   3506695.98044
                  23582201.2424                                   23582197.1954
                                                                        44.2504
        29.5004
 09 10 29  1 10 30.0000000  0  9G02G08G05G10G21G29G16G07G15
   8161332.67247   6381197.41044
                  23638507.3674                                   23638502.4104
                                                                        44.0004
        27.5004
  -5185111.55947  -3994611.58245
                  22841016.7894                                   22841013.6524
                                                                        45.7504
        31.0004
 -21818916.51248 -16950243.83647
                  20326542.5004                                   20326538.6564
                                                                        49.0004
        43.2504
 -16662579.07848 -12938839.45746
                  20405967.8834                                   20405964.0394
                                                                        49.5004
        40.7504
   -557537.24647   -389521.88744
                  23452831.5474                                   23452826.6294
                                                                        45.5004
        28.5004
  -7620132.25047  -5897274.96545
                  22806240.9384                                   22806237.7034
                                                                        46.7504
        34.0004
  -8784528.32447  -6806242.18743
                  23816344.8594                                   23816340.8634
                                                                        42.5004
        22.7504
 -17125347.32048 -13333713.30945
                  22131782.0704                                   22131777.6094
                                                                        48.7504
        34.0004
   4278072.79347   3356601.22745
                  23545546.7504                                   23545542.5234
                                                                        43.7504
        30.2504
 09 10 29  1 11  0.0000000  0  9G02G08G05G10G21G29G16G07G15
   9770598.54347   7635170.82044
                  23944740.3834                                   23944735.5984
                                                                        42.5004
        26.0004
  -3772548.70347  -2893913.27345
                  23109818.9144                                   23109814.7504
                                                                        45.0004
        30.5004
 -20316786.95348 -15779753.27047
                  20612388.5004                                   20612384.1254
                                                                        50.5004
        43.2504
 -15132813.27048 -11746814.14546
                  20697072.8834                                   20697068.8284
                                                                        50.2504
        40.5004
    842442.05147    701371.08244
                  23719238.5084                                   23719233.4414
                                                                        45.0004
        28.2504
  -6052424.83247  -4675684.77745
                  23104566.2814                                   23104562.6844
                                                                        46.7504
        34.7504
  -7238601.02047  -5601623.55143
                  24110524.7424                                   24110521.0004
                                                                        42.5004
        23.7504
 -15632092.50048 -12170138.09045
                  22415939.2274                                   22415934.5474
                                                                        48.2504
        34.0004
   5661084.96147   4434273.11345
                  23808725.6954                                   23808721.3404
                                                                        44.7504
        30.5004
 09 10 29  1 11 30.0000000  0  9G02G08G05G10G21G29G16G07G15
   9804629.71147   7661688.60544
                  23951216.2034                                   23951210.7704
                                                                        43.7504
        27.2504
  -3934965.97347  -3020472.14844
                  23078911.3674                                   23078908.2624
                                                                        46.0004
        29.2504
 -20389518.84048 -15836427.47747
                  20598548.1254                                   20598543.9804
                                                                        50.5004
        43.0004
 -15177920.59848 -11781962.70746
                  20688489.0084                                   20688485.1454
                                                                        50.5004
        40.5004
    667265.20747    564869.63344
                  23685902.7344                                   23685897.9574
                                                                        44.5004
        26.5004
  -6059688.63347  -4681344.87145
                  23103183.6334                                   23103180.3794
                                                                        45.7504
        34.0004
  -7267558.69946  -5624187.97743
                  24105014.5234                                   24105010.5354
                                                                        41.5004
        23.7504
 -15713609.26648 -12233657.64545
                  22400427.1804                                   22400422.6334
                                                                        48.5004
        34.7504
   5468882.44547   4284505.05145
                  23772150.0084                                   23772146.6094
                                                                        43.7504
        30.0004
 09 10 29  1 12  0.0000000  0  9G02G08G05G10G21G29G16G07G15
   9838840.03947   7688345.89844
                  23957726.3984                                   23957721.4184
                                                                        44.5004
        26.5004
  -4096937.47747  -3146683.70345
                  23048089.5944                                   23048085.9494
                                                                        45.2504
        30.2504
 -20461692.43748 -15892666.62947
                  20584813.8364                                   20584809.8054
                                                                        48.2504
        43.5004
 -15222483.04748 -11816686.69546
                  20680009.4694                                   20680005.0124
                                                                        48.5004
        41.0004
    492358.15647    428578.47344
                  23652619.6954                                   23652614.4104
                                                                        44.7504
        27.7504
  -6066508.14847  -4686658.78945
                  23101886.0704                                   23101882.8984
                                                                        46.0004
        33.5004
  -7295985.54746  -5646338.80943
                  24099604.9064                                   24099600.9384
                                                                        41.2504
        22.7504
 -15794477.09048 -12296671.53545
                  22385038.7034                                   22385034.0904
                                                                        48.7504
        34.7504
   5276891.24247   4134901.58245
                  23735615.5314                                   23735611.6644
                                                                        44.5004
        31.2504
 09 10 29  1 12 30.0000000  0  9G02G08G05G10G21G29G16G07G15
   9873226.65647   7715140.55544
                  23964270.0634                                   23964264.6884
                                                                        43.0004
        27.7504
  -4258461.61347  -3272546.66045
                  23017352.7894                                   23017349.4734
                                                                        46.2504
        31.0004
 -20533308.99248 -15948471.73447
                  20571186.0394                                   20571181.4304
                                                                        51.7504
        43.0004
 -15266502.44548 -11850987.52346
                  20671632.4694                                   20671628.3674
                                                                        51.0004
        40.2504
    317721.68047    292498.09844
                  23619387.3754                                   23619382.2464
                                                                        45.5004
        27.7504
  -6072886.53547  -4691628.97745
                  23100672.6334                                   23100669.4574
                                                                        46.7504
        33.7504
  -7323884.02346  -5668077.92243
                  24094296.0864                                   24094291.4654
                                                                        41.7504
        22.5004
 -15874696.90248 -12359180.48445
                  22369772.9844                                   22369768.5354
                                                                        48.2504
        34.2504
   5085113.05947   3985464.13345
                  23699121.1094                                   23699117.5784
                                                                        43.5004
        31.5004
 09 10 29  1 13  0.0000000  0  9G02G08G05G10G21G29G16G07G15
   9907784.12547   7742068.41844
                  23970846.4144                                   23970841.2734
                                                                        44.0004
        28.5004
  -4419538.77047  -3398061.31645
                  22986700.6954                                   22986697.3554
                                                                        45.2504
        31.2504
 -20604371.79748 -16003845.35247
                  20557662.9224                                   20557658.9574
                                                                        50.5004
        43.2504
 -15309982.73848 -11884868.26246
                  20663358.6254                                   20663354.8714
                                                                        49.7504
        40.5004
    143355.73047    156628.53144
                  23586206.5394                                   23586201.5044
                                                                        46.5004
        27.2504
  -6078829.17247  -4696259.59445
                  23099541.1954                                   23099537.8284
                                                                        45.7504
        33.2504
  -7351258.66846  -5689408.82443
                  24089087.2734                                   24089082.5824
                                                                        41.0004
        22.5004
 -15954271.82048 -12421186.91045
                  22354630.1884                                   22354626.0004
                                                                        48.5004
        34.5004
   4893547.04347   3836192.00445
                  23662667.4064                                   23662663.4494
                                                                        43.7504
        30.7504
 09 10 29  1 13 30.0000000  0  9G02G08G05G10G21G29G16G07G15
   9942507.98447   7769125.91844
                  23977453.7814                                   23977448.9964
                                                                        43.5004
        27.2504
  -4580168.07447  -3523227.00045
                  22956133.5634                                   22956130.7424
                                                                        45.5004
        31.0004
 -20674882.95348 -16058789.09447
                  20544245.2504                                   20544241.2114
                                                                        50.7504
        43.2504
 -15352927.47748 -11918331.68746
                  20655186.4224                                   20655182.4344
                                                                        50.0004
        40.7504
    -30740.12147     20969.43044
                  23553077.1564                                   23553072.0394
                                                                        46.7504
        28.2504
  -6084341.16047  -4700554.66445
                  23098492.5004                                   23098489.3594
                                                                        45.7504
        33.2504
  -7378113.93747  -5710335.03143
                  24083976.5944                                   24083972.1134
                                                                        42.5004
        21.7504
 -16033203.86348 -12482692.39545
                  22339610.2034                                   22339605.5594
                                                                        48.7504
        33.5004
   4702193.35247   3687085.27745
                  23626253.9534                                   23626249.8834
                                                                        44.5004
        31.0004
 09 10 29  1 14  0.0000000  0  9G02G08G05G10G21G29G16G07G15
   9977392.32047   7796308.25844
                  23984092.2344                                   23984087.1054
                                                                        43.5004
        25.2504
  -4740350.17647  -3648044.14845
                  22925652.2344                                   22925648.9184
                                                                        44.2504
        30.7504
 -20744846.42648 -16113306.09047
                  20530931.5394                                   20530927.2974
                                                                        50.7504
        43.2504
 -15395341.09848 -11951381.28146
                  20647115.3204                                   20647112.0824
                                                                        51.0004
        40.5004
   -204566.64847   -114479.81644
                  23519999.5004                                   23519994.3014
                                                                        46.0004
        29.5004
  -6089427.73847  -4704518.22345
                  23097525.0084                                   23097521.2154
                                                                        46.2504
        33.7504
  -7404455.37147  -5730860.82843
                  24078964.6414                                   24078959.2424
                                                                        42.5004
        22.5004
 -16111496.34448 -12543699.50845
                  22324711.7274                                   22324706.9774
                                                                        49.5004
        34.0004
   4511051.39547   3538143.50845
                  23589881.0634                                   23589876.4264
                                                                        44.5004
        30.7504
 09 10 29  1 14 30.0000000  0  9G02G08G05G10G21G29G16G07G15
  10012435.42247   7823614.49644
                  23990761.1024                                   23990755.6024
                                                                        42.7504
        24.0004
  -4900082.40647  -3772510.77745
                  22895256.2584                                   22895252.9924
                                                                        45.0004
        31.7504
 -20814261.59048 -16167395.82047
                  20517722.2344                                   20517717.8324
                                                                        49.5004
        43.5004
 -15437224.57448 -11984017.75846
                  20639145.1954                                   20639141.5904
                                                                        50.0004
        40.7504
   -378120.96947   -249716.99644
                  23486973.2274                                   23486968.4654
                                                                        46.0004
        29.0004
  -6094091.05947  -4708151.96145
                  23096637.1094                                   23096633.5984
                                                                        46.2504
        33.0004
  -7430284.38347  -5750987.27743
                  24074048.7194                                   24074044.3364
                                                                        42.5004
        22.5004
 -16189149.20348 -12604208.22745
                  22309934.6174                                   22309930.2464
                                                                        49.2504
        34.5004
   4320123.35947   3389368.39145
                  23553548.1884                                   23553544.4774
                                                                        45.0004
        31.5004
 09 10 29  1 15  0.0000000  0  9G02G08G05G10G21G29G16G07G15
  10047636.09447   7851043.60944
                  23997459.7034                                   23997453.8164
                                                                        43.7504
        25.5004
  -5059360.73047  -3896623.73845
                  22864946.8444                                   22864943.2704
                                                                        46.0004
        31.5004
 -20883128.13348 -16221058.05147
                  20504617.2814                                   20504613.1804
                                                                        51.5004
        43.5004
 -15478577.66448 -12016240.96946
                  20631275.8834                                   20631272.1844
                                                                        51.0004
        40.7504
   -551399.76647   -384739.44944
                  23453999.0164                                   23453994.3634
                                                                        46.2504
        28.2504
  -6098332.69947  -4711457.12945
                  23095830.4694                                   23095826.1454
                                                                        46.7504
        33.0004
  -7455602.07447  -5770715.32043
                  24069231.5634                                   24069226.8914
                                                                        42.5004
        22.5004
 -16266161.33248 -12664217.69545
                  22295279.7114                                   22295274.9494
                                                                        48.0004
        34.2504
   4129412.69147   3240762.68445
                  23517257.2974                                   23517253.1334
                                                                        43.5004
        31.2504
 09 10 29  1 15 30.0000000  0  9G02G08G05G10G21G29G16G07G15
  10082991.15247   7878593.21143
                  24004187.5634                                   24004181.8834
                                                                        42.5004
        23.2504
  -5218183.62147  -4020381.87145
                  22834723.7344                                   22834719.9414
                                                                        45.2504
        32.5004
 -20951447.24248 -16274293.74647
                  20491616.7504                                   20491612.4804
                                                                        50.7504
        43.0004
 -15519402.32048 -12048052.38746
                  20623507.5314                                   20623503.3444
                                                                        51.0004
        40.5004
   -724401.39547   -519545.88744
                  23421078.5314                                   23421073.3364
                                                                        46.0004
        28.7504
  -6102156.28147  -4714436.52745
                  23095102.9304                                   23095098.5434
                                                                        46.2504
        33.0004
  -7480411.73047  -5790047.44543
                  24064509.8204                                   24064505.6024
                                                                        43.2504
        23.0004
 -16342533.86348 -12723728.76645
                  22280746.5004                                   22280741.9614
                                                                        48.7504
        34.0004
   3938920.62947   3092327.30545
                  23481007.7664                                   23481003.7854
                                                                        44.2504
        30.5004
 09 10 29  1 16  0.0000000  0  9G02G08G05G10G21G29G16G07G15
  10118496.85546   7906259.88343
                  24010943.3754                                   24010938.5274
                                                                        41.2504
        22.2504
  -5376549.49247  -4143783.84045
                  22804587.8444                                   22804584.0044
                                                                        45.7504
        31.7504
 -21019220.20748 -16327103.86347
                  20478720.0314                                   20478715.6604
                                                                        49.5004
        43.7504
 -15559701.51248 -12079454.39146
                  20615838.7274                                   20615834.8594
                                                                        50.0004
        40.7504
   -897124.98847   -654135.68744
                  23388209.6884                                   23388205.0864
                                                                        45.7504
        29.5004
  -6105565.16447  -4717092.78945
                  23094454.2194                                   23094450.2234
                                                                        45.7504
        33.0004
  -7504716.07447  -5808985.84843
                  24059885.1094                                   24059880.4574
                                                                        43.0004
        23.5004
 -16418268.05148 -12782742.43445
                  22266334.7344                                   22266330.3284
                                                                        48.5004
        34.7504
   3748648.68847   2944063.55545
                  23444799.3754                                   23444796.2154
                                                                        42.5004
        31.5004
 09 10 29  1 16 30.0000000  0  9G02G08G05G10G21G29G16G07G15
  10154153.69547   7934044.50444
                  24017728.9614                                   24017723.8954
                                                                        43.2504
        27.2504
  -5534452.69947  -4266825.30945
                  22774539.5474                                   22774536.3874
                                                                        45.0004
        32.0004
 -21086444.49648 -16379486.41847
                  20465927.7034                                   20465923.3674
                                                                        48.7504
        43.0004
 -15599473.10948 -12110445.26646
                  20608270.1094                                   20608266.3954
                                                                        48.7504
        40.2504
  -1069564.94547   -788504.45744
                  23355395.4534                                   23355390.7894
                                                                        46.5004
        28.0004
  -6108558.82847  -4719425.50845
                  23093883.9614                                   23093880.5394
                                                                        45.5004
        33.0004
  -7528514.19947  -5827529.82443
                  24055356.6564                                   24055352.0594
                                                                        43.0004
        22.5004
 -16493360.59448 -12841256.11345
                  22252045.0864                                   22252040.3634
                                                                        49.2504
        33.7504
   3558601.95347   2795975.26645
                  23408635.4384                                   23408631.4344
                                                                        44.0004
        32.2504
 09 10 29  1 17  0.0000000  0  9G02G08G05G10G21G29G16G07G15
  10189958.90247   7961944.69944
                  24024542.1954                                   24024537.8324
                                                                        44.0004
        29.2504
  -5691890.87147  -4389504.36345
                  22744580.1884                                   22744576.7814
                                                                        45.0004
        31.5004
 -21153120.83248 -16431442.00847
                  20453239.4614                                   20453235.2624
                                                                        49.7504
        43.5004
 -15638718.59848 -12141026.23446
                  20600802.2664                                   20600798.4144
                                                                        50.2504
        40.0004
  -1241719.68047   -922650.98844
                  23322635.6884                                   23322630.9454
                                                                        45.5004
        28.5004
  -6111140.06647  -4721436.91045
                  23093392.7894                                   23093389.7934
                                                                        44.2504
        32.5004
  -7551808.94947  -5845681.53543
                  24050924.0864                                   24050919.1844
                                                                        42.7504
        23.0004
 -16567812.69948 -12899270.76645
                  22237877.5474                                   22237872.7304
                                                                        48.2504
        33.7504
   3368782.23447   2648063.82845
                  23372514.0164                                   23372509.9184
                                                                        44.7504
        31.7504
 09 10 29  1 17 30.0000000  0  8G08G05G10G21G29G16G07G15
  -5848861.54747  -4511819.15245
                  22714709.4064                                   22714705.8094
                                                                        44.0004
        31.0004
 -21219249.45348 -16482970.88347
                  20440656.0634                                   20440651.6844
                                                                        50.5004
        43.2504
 -15677439.03148 -12171197.95346
                  20593434.0554                                   20593430.2234
                                                                        50.7504
        40.5004
  -1413586.43047  -1056573.14544
                  23289930.6174                                   23289925.6454
                                                                        46.5004
        29.2504
  -6113311.62547  -4723129.06645
                  23092979.6334                                   23092976.5474
                                                                        46.0004
        33.0004
  -7574602.10246  -5863442.36743
                  24046585.5554                                   24046581.5514
                                                                        41.2504
        23.2504
 -16641624.24648 -12956786.27345
                  22223831.6884                                   22223827.0944
                                                                        49.2504
        34.5004
   3179191.79747   2500330.99645
                  23336436.4064                                   23336431.9064
                                                                        45.2504
        32.0004
 09 10 29  1 18  0.0000000  0  8G08G05G10G21G29G16G07G15
  -6005361.47747  -4633767.13345
                  22684928.2504                                   22684924.8444
                                                                        43.7504
        30.0004
 -21284830.21148 -16534072.78947
                  20428176.2734                                   20428171.7704
                                                                        48.5004
        43.2504
 -15715635.75448 -12200961.60946
                  20586165.4144                                   20586161.6294
                                                                        48.2504
        40.0004
  -1585162.41847  -1190268.77044
                  23257281.2504                                   23257275.8204
                                                                        46.7504
        29.5004
  -6115075.84047  -4724503.80145
                  23092644.3054                                   23092640.7544
                                                                        45.2504
        33.0004
  -7596895.59846  -5880813.91443
                  24042343.6174                                   24042339.5164
                                                                        40.5004
        22.7504
 -16714795.11748 -13013802.49645
                  22209907.9614                                   22209902.8524
                                                                        48.2504
        34.5004
   2989833.56647   2352779.11745
                  23300402.3524                                   23300398.1524
                                                                        45.2504
        32.7504
 09 10 29  1 18 30.0000000  0  8G08G05G10G21G29G16G07G15
  -6161382.90247  -4755342.26645
                  22655238.9064                                   22655235.2504
                                                                        45.0004
        31.2504
 -21349857.99248 -16584743.74247
                  20415801.9064                                   20415797.2424
                                                                        49.7504
        42.7504
 -15753304.18748 -12230313.58646
                  20578997.3834                                   20578993.4144
                                                                        50.0004
        40.7504
  -1756440.06647  -1323731.89544
                  23224687.5314                                   23224682.5904
                                                                        46.5004
        29.5004
  -6116429.28947  -4725558.46145
                  23092386.7424                                   23092382.9924
                                                                        45.7504
        33.5004
  -7618685.79346  -5897793.23844
                  24038197.2974                                   24038193.0164
                                                                        41.0004
        24.5004
 -16787320.08648 -13070315.43045
                  22196106.6334                                   22196102.1604
                                                                        48.5004
        34.0004
   2800715.44147   2205414.32445
                  23264414.6254                                   23264409.8524
                                                                        44.0004
        31.2504
 09 10 29  1 19  0.0000000  0  8G08G05G10G21G29G16G07G15
  -6316922.97347  -4876542.30945
                  22625640.4614                                   22625636.5514
                                                                        45.2504
        32.5004
 -21414333.28948 -16634984.16447
                  20403532.3674                                   20403527.7584
                                                                        49.7504
        43.0004
 -15790445.58248 -12259254.93046
                  20571929.4774                                   20571925.6094
                                                                        49.7504
        41.0004
  -1927416.96547  -1456960.63744
                  23192151.5314                                   23192147.1844
                                                                        46.2504
        29.2504
  -6117374.81247  -4726295.23045
                  23092206.7344                                   23092203.0204
                                                                        47.2504
        32.7504
  -7639975.11346  -5914382.31643
                  24034146.1564                                   24034141.3634
                                                                        41.2504
        22.0004
 -16859199.52348 -13126325.37945
                  22182428.0944                                   22182424.2034
                                                                        48.2504
        34.5004
   2611839.46547   2058238.23445
                  23228472.1484                                   23228468.7344
                                                                        43.7504
        31.0004
 09 10 29  1 19 30.0000000  0  8G08G05G10G21G29G16G07G15
  -6471981.89147  -4997367.43045
                  22596133.6334                                   22596129.6844
                                                                        45.5004
        31.7504
 -21478259.18748 -16684796.56247
                  20391367.6024                                   20391363.4224
                                                                        49.7504
        43.0004
 -15827063.44948 -12287788.34446
                  20564961.3524                                   20564957.5784
                                                                        50.0004
        41.0004
  -2098092.89147  -1589954.84044
                  23159673.2194                                   23159668.6524
                                                                        46.7504
        29.2504
  -6117917.24647  -4726717.93745
                  23092103.2424                                   23092099.7664
                                                                        45.5004
        32.7504
  -7660768.44547  -5930584.87143
                  24030188.9844                                   24030184.3404
                                                                        42.0004
        21.7504
 -16930436.03947 -13181834.34445
                  22168872.4064                                   22168868.3134
                                                                        47.0004
        34.2504
   2423205.17647   1911250.53545
                  23192576.5314                                   23192572.8794
                                                                        43.5004
        31.0004
 09 10 29  1 20  0.0000000  0  8G08G05G10G21G29G16G07G15
  -6626559.30947  -5117817.34445
                  22566718.6334                                   22566715.2074
                                                                        45.2504
        31.5004
 -21541638.94548 -16734183.41047
                  20379307.0394                                   20379302.2544
                                                                        48.5004
        42.7504
 -15863161.84448 -12315916.94146
                  20558092.0704                                   20558088.3794
                                                                        49.5004
        40.5004
  -2268467.85547  -1722714.53144
                  23127251.7974                                   23127246.8364
                                                                        46.2504
        29.5004
  -6118061.63747  -4726830.39845
                  23092075.9844                                   23092071.7424
                                                                        45.7504
        32.2504
  -7681070.14547  -5946404.34043
                  24026326.0704                                   24026321.2464
                                                                        42.2504
        22.2504
 -17001032.86347 -13236844.85545
                  22155438.5084                                   22155433.8404
                                                                        47.7504
        33.7504
   2234812.72747   1764451.27045
                  23156726.9844                                   23156722.5394
                                                                        45.5004
        32.5004
 09 10 29  1 20 30.0000000  0  8G08G05G10G21G29G16G07G15
  -5205229.38747  -4010287.51645
                  22837188.6954                                   22837185.4344
                                                                        46.0004
        33.0004
 -20029052.16848 -15555544.38347
                  20667142.6564                                   20667138.7234
                                                                        50.5004
        43.0004
 -14323322.62148 -11116042.25046
                  20851113.6644                                   20851110.0864
                                                                        50.7504
        40.5004
   -863116.25047   -627635.35544
                  23394681.5554                                   23394676.6334
                                                                        45.5004
        29.5004
  -4542392.52047  -3499036.27045
                  23391915.5784                                   23391911.8794
                                                                        44.0004
        31.2504
  -6125463.54347  -4734243.34843
                  24322348.3524                                   24322343.2854
                                                                        42.5004
        22.0004
 -15495569.55548 -12063756.55945
                  22441918.2974                                   22441913.9414
                                                                        48.0004
        33.2504
   3622089.10247   2845445.84845
                  23420716.6884                                   23420712.8284
                                                                        46.2504
        32.2504
