     2.11           OBSERVATION DATA    G (GPS)             RINEX VERSION / TYPE
teqc  2019Feb25                         20221121 12:28:00UTCPGM / RUN BY / DATE
OSX ker:10.11.6|Core i5|gcc 4.3 -m64|OSX ker:10.10+|=+      COMMENT
BIT 2 OF LLI FLAGS DATA COLLECTED UNDER A/S CONDITION       COMMENT
04712770                                                    MARKER NAME
2770                                                        MARKER NUMBER
-Unknown-           -Unknown-                               OBSERVER / AGENCY
0220400471          TRIMBLE R7          2.30                REC # / TYPE / VERS
-Unknown-           TRM39105.00     NONE                    ANT # / TYPE
  1449460.7955 -1709239.9096  5952442.5011                  APPROX POSITION XYZ
        0.0000        0.0000        0.0000                  ANTENNA: DELTA H/E/N
     1     1                                                WAVELENGTH FACT L1/2
    20    L1    L2    L5    L6    L7    L8    C1    P1    C2# / TYPES OF OBSERV
          P2    C5    C6    C7    C8    S1    S2    S5    S6# / TYPES OF OBSERV
          S7    S8                                          # / TYPES OF OBSERV
    30.0000                                                 INTERVAL
    15                                                      LEAP SECONDS
Forced Modulo Decimation to 30 seconds                      COMMENT
 SNR is mapped to RINEX snr flag value [0-9]                COMMENT
  L1 & L2: min(max(int(snr_dBHz/6), 0), 9)                  COMMENT
teqc edited: Beidou # 1 - 37 excluded                       COMMENT
  2009    10     4     0     0    0.0000000     GPS         TIME OF FIRST OBS
                                                            END OF HEADER
 09 10  4  0  0  0.0000000  0  7G02G04G12G13G23G30G31
 -16305145.05948 -12637172.99646
                  20692060.4614                                   20692055.0234
                                                                        51.2504
        41.7504
  -8287615.82848  -6415493.28946
                  20619505.1254                                   20619502.4884
                                                                        52.0004
        41.7504
  -2490363.05947  -1920408.12944
                  23826887.6334                                   23826883.8754
                                                                        43.2504
        28.0004
 -18605998.21548 -14425475.99645
                  21815415.1804                                   21815411.4884
                                                                        49.5004
        34.0004
 -10897623.70348  -8438873.11745
                  21716854.5394                                   21716848.5434
                                                                        49.0004
        35.5004
  -7945953.08647  -6149013.44144
                  22676071.1484                                   22676069.1054
                                                                        45.0004
        29.2504
  -8218116.39146  -6364563.40644
                  23748675.2034                                   23748671.4264
                                                                        40.5004
        27.2504
 09 10  4  0  0 30.0000000  0  8G02G04G12G13G29G23G30G31
 -16436938.86348 -12739869.46946
                  20666981.0164                                   20666975.7544
                                                                        51.0004
        41.7504
  -8335573.15648  -6452862.58247
                  20610379.2504                                   20610376.0434
                                                                        52.5004
        42.0004
  -2488158.93047  -1918690.62544
                  23827306.6884                                   23827303.4804
                                                                        43.7504
        28.7504
 -18759996.67248 -14545474.80545
                  21786110.2274                                   21786106.4734
                                                                        49.7504
        34.0004
   -243853.79756   -149802.02754
                  24264875.7974                                   24264873.9224
                                                                        40.7504
        25.2504
 -10967211.89848  -8493097.70745
                  21703612.2734                                   21703606.8674
                                                                        49.7504
        35.5004
  -7985457.81247  -6179796.28944
                  22668553.6414                                   22668551.0664
                                                                        44.5004
        29.5004
  -8264015.48047  -6400328.94144
                  23739940.5634                                   23739937.0164
                                                                        42.7504
        27.0004
 09 10  4  0  1  0.0000000  0  8G02G04G12G13G29G23G30G31
 -16568197.04748 -12842148.60547
                  20642003.2504                                   20641997.8014
                                                                        51.0004
        42.0004
  -8382969.91848  -6489795.09847
                  20601359.8834                                   20601356.5904
                                                                        52.2504
        42.0004
  -2485584.60247  -1916684.69544
                  23827797.2974                                   23827793.6914
                                                                        44.2504
        29.2504
 -18913421.63748 -14665026.70345
                  21756914.2734                                   21756910.3094
                                                                        49.7504
        34.5004
   -432241.98446   -296598.00044
                  24229026.7114                                   24229025.2194
                                                                        41.7504
        27.0004
 -11036142.31648  -8546809.70745
                  21690495.4224                                   21690489.8874
                                                                        48.2504
        35.2504
  -8024324.35947  -6210081.82044
                  22661157.0164                                   22661155.1684
                                                                        44.7504
        29.0004
  -8309335.26646  -6435643.09044
                  23731316.1174                                   23731313.2234
                                                                        40.5004
        27.7504
 09 10  4  0  1 30.0000000  0  8G02G04G12G13G29G23G30G31
 -15123499.22748 -11716410.21147
                  20916920.4454                                   20916915.0084
                                                                        50.7504
        42.7504
  -6854391.02048  -5298694.62946
                  20892238.6644                                   20892235.4654
                                                                        52.0004
        41.0004
   -907227.99647   -686796.44545
                  24128148.3364                                   24128145.6604
                                                                        43.7504
        30.0004
 -17490851.44148 -13556530.44145
                  22027620.3204                                   22027616.7424
                                                                        49.5004
        34.0004
    955053.12546    784411.10944
                  24493020.3674                                   24493018.7274
                                                                        40.0004
        27.2504
  -9528998.65248  -7372412.05145
                  21977295.2194                                   21977289.3094
                                                                        48.5004
        35.5004
  -6487138.56647  -5012274.59044
                  22953673.5164                                   22953671.5164
                                                                        43.5004
        28.0004
  -6778661.12546  -5242909.98844
                  24022593.7424                                   24022590.6484
                                                                        40.0004
        27.5004
 09 10  4  0  2  0.0000000  0  8G02G04G12G13G29G23G30G31
 -15253692.60248 -11817859.69547
                  20892145.2894                                   20892140.2894
                                                                        51.0004
        42.5004
  -6900680.64148  -5334764.44147
                  20883430.2584                                   20883427.1024
                                                                        53.2504
        42.0004
   -903932.16047   -684228.26645
                  24128775.9064                                   24128772.3674
                                                                        45.0004
        31.0004
 -17643133.66048 -13675191.90245
                  21998641.8054                                   21998638.2384
                                                                        49.5004
        33.5004
    767181.88746    638018.10244
                  24457269.4774                                   24457268.2154
                                                                        40.5004
        25.0004
  -9596626.13348  -7425108.82845
                  21964426.1414                                   21964420.5354
                                                                        49.5004
        35.7504
  -6524745.12547  -5041578.34444
                  22946517.0474                                   22946515.0474
                                                                        45.5004
        29.0004
  -6822837.83247  -5277333.48044
                  24014187.2664                                   24014184.5514
                                                                        42.2504
        27.5004
 09 10  4  0  2 30.0000000  0  8G02G04G12G13G29G23G30G31
 -15383347.40248 -11918889.55547
                  20867472.9224                                   20867467.7114
                                                                        50.7504
        42.0004
  -6946414.44948  -5370401.10947
                  20874726.9534                                   20874723.9224
                                                                        52.7504
        42.0004
   -900276.02747   -681379.36344
                  24129471.6094                                   24129468.1174
                                                                        45.2504
        29.7504
 -17794837.08248 -13793402.33245
                  21969774.1484                                   21969770.0354
                                                                        50.0004
        35.0004
    579576.34446    491832.08243
                  24421568.4534                                   24421567.5274
                                                                        39.5004
        23.5004
  -9663599.35548  -7477295.78945
                  21951681.6414                                   21951675.8794
                                                                        48.7504
        35.5004
  -6561720.30547  -5070389.99244
                  22939480.5634                                   22939478.8484
                                                                        43.0004
        28.5004
  -6866441.49246  -5311310.49244
                  24005889.9304                                   24005886.3634
                                                                        41.0004
        27.5004
 09 10  4  0  3  0.0000000  0  8G02G04G12G13G29G23G30G31
 -15512458.94948 -12019495.95747
                  20842903.9384                                   20842898.5434
                                                                        51.0004
        42.0004
  -6991590.96148  -5405603.64847
                  20866130.2584                                   20866127.1134
                                                                        53.5004
        42.2504
   -896259.50847   -678249.61744
                  24130236.2424                                   24130232.1024
                                                                        44.5004
        28.0004
 -17945956.56248 -13911157.76245
                  21941016.5864                                   21941013.1294
                                                                        50.2504
        34.7504
    392242.34046    345857.63344
                  24385920.0234                                   24385918.8014
                                                                        39.2504
        24.0004
  -9729916.32048  -7528971.35245
                  21939061.9774                                   21939056.2074
                                                                        48.7504
        34.5004
  -6598063.86347  -5098709.49244
                  22932565.2194                                   22932562.7074
                                                                        42.5004
        29.5004
  -6909470.69147  -5344839.80944
                  23997702.1644                                   23997698.8524
                                                                        43.7504
        27.0004
 09 10  4  0  3 30.0000000  0  8G02G04G12G13G29G23G30G31
 -15641022.12548 -12119675.00447
                  20818438.8834                                   20818433.9384
                                                                        51.2504
        42.0004
  -7036206.80148  -5440369.28146
                  20857640.1954                                   20857637.0554
                                                                        53.5004
        41.5004
   -891881.12947   -674837.88344
                  24131068.4614                                   24131065.2664
                                                                        44.7504
        27.5004
 -18096485.76648 -14028453.24245
                  21912372.0084                                   21912367.7704
                                                                        50.0004
        35.5004
    205186.17247    200099.50044
                  24350324.6094                                   24350322.9964
                                                                        42.0004
        25.0004
  -9795573.21947  -7580132.53945
                  21926567.5864                                   21926562.1844
                                                                        47.5004
        35.2504
  -6633773.73447  -5126535.34445
                  22925770.0784                                   22925767.0124
                                                                        44.7504
        30.0004
  -6951922.92647  -5377919.56644
                  23989624.0394                                   23989620.3204
                                                                        43.7504
        27.5004
 09 10  4  0  4  0.0000000  0  8G02G04G12G13G29G23G30G31
 -15769034.52348 -12219424.80147
                  20794078.9064                                   20794073.3444
                                                                        52.5004
        42.5004
  -7080262.58648  -5474698.45746
                  20849256.5784                                   20849253.3324
                                                                        52.2504
        41.0004
   -887143.30147   -671146.10244
                  24131969.6804                                   24131966.5084
                                                                        43.7504
        27.2504
 -18246421.90648 -14145286.58645
                  21883840.2584                                   21883836.3094
                                                                        50.0004
        35.0004
     18411.12947     54560.34444
                  24314783.0164                                   24314780.6804
                                                                        42.0004
        26.5004
  -9860570.43048  -7630779.82845
                  21914199.0474                                   21914193.7344
                                                                        48.7504
        34.7504
  -6668851.37147  -5153868.50845
                  22919094.1724                                   22919091.8874
                                                                        44.5004
        30.0004
  -6993799.14546  -5410550.49244
                  23981655.2814                                   23981651.6914
                                                                        40.7504
        27.7504
 09 10  4  0  4 30.0000000  0  8G02G04G12G13G29G23G30G31
 -15896495.05548 -12318744.58247
                  20769823.8444                                   20769818.6094
                                                                        50.7504
        42.5004
  -7123759.86348  -5508592.37146
                  20840979.4614                                   20840976.6094
                                                                        53.0004
        41.5004
   -882049.45747   -667176.87544
                  24132939.7194                                   24132935.7424
                                                                        44.2504
        27.0004
 -18395762.93448 -14261656.20345
                  21855421.2424                                   21855417.4774
                                                                        49.0004
        35.2504
   -168080.26646    -90757.60543
                  24279294.3834                                   24279293.0554
                                                                        41.7504
        23.7504
  -9924909.37148  -7680914.19945
                  21901956.3834                                   21901950.8954
                                                                        49.0004
        34.5004
  -6703298.96547  -5180710.72744
                  22912539.5634                                   22912537.1954
                                                                        45.0004
        29.5004
  -7035101.07847  -5442733.88744
                  23973795.8134                                   23973792.4924
                                                                        43.5004
        28.2504
 09 10  4  0  5  0.0000000  0  8G02G04G12G13G29G23G30G31
 -16023404.14148 -12417634.71947
                  20745673.7194                                   20745668.9384
                                                                        52.0004
        42.2504
  -7166701.44948  -5542053.34046
                  20832807.7424                                   20832804.7704
                                                                        53.2504
        41.7504
   -876603.91847   -662933.60244
                  24133975.8984                                   24133972.2274
                                                                        44.2504
        27.7504
 -18544508.34048 -14377561.70345
                  21827116.0314                                   21827112.3244
                                                                        49.0004
        34.7504
   -354287.34846   -235853.96143
                  24243860.6174                                   24243858.6724
                                                                        40.7504
        22.5004
  -9988592.49248  -7730537.64545
                  21889837.6954                                   21889832.5234
                                                                        49.0004
        35.7504
  -6737120.25847  -5207064.90645
                  22906103.5084                                   22906101.5634
                                                                        45.2504
        30.7504
  -7075832.21147  -5474472.45744
                  23966045.0554                                   23966041.3324
                                                                        43.2504
        26.5004
 09 10  4  0  5 30.0000000  0  8G02G04G12G13G29G23G30G31
 -16149763.66448 -12516096.71547
                  20721628.6174                                   20721623.2624
                                                                        52.0004
        43.0004
  -7209091.91848  -5575084.87547
                  20824740.9534                                   20824738.2544
                                                                        53.2504
        42.0004
   -870812.81247   -658421.06644
                  24135078.3444                                   24135074.2584
                                                                        43.5004
        29.0004
 -18692659.07048 -14493003.83645
                  21798923.8204                                   21798920.5594
                                                                        49.2504
        34.7504
   -540210.98846   -380729.41044
                  24208480.2584                                   24208479.1214
                                                                        41.5004
        24.7504
 -10051623.18748  -7779652.50045
                  21877843.4064                                   21877838.0554
                                                                        48.5004
        35.2504
  -6770321.05547  -5232935.58645
                  22899785.2504                                   22899783.3284
                                                                        44.7504
        30.7504
  -7115997.44947  -5505770.03144
                  23958401.4144                                   23958397.9574
                                                                        42.2504
        26.7504
 09 10  4  0  6  0.0000000  0  8G02G04G12G13G29G23G30G31
 -16275569.73848 -12614127.41847
                  20697688.4534                                   20697683.2114
                                                                        51.5004
        42.2504
  -7250929.83648  -5607685.84446
                  20816779.7504                                   20816777.0594
                                                                        52.5004
        41.7504
   -864676.39547   -653639.47344
                  24136246.0944                                   24136242.6214
                                                                        44.5004
        29.0004
 -18840210.53948 -14607978.99645
                  21770845.7584                                   21770842.2584
                                                                        49.0004
        35.0004
   -725845.91447   -525379.88744
                  24173155.4844                                   24173153.5314
                                                                        42.7504
        26.5004
 -10114000.01248  -7828257.71145
                  21865973.3914                                   21865967.8594
                                                                        48.0004
        35.5004
  -6802900.98847  -5258322.51645
                  22893585.5314                                   22893583.1994
                                                                        44.5004
        30.0004
  -7155596.00447  -5536626.10244
                  23950866.7814                                   23950862.6604
                                                                        42.7504
        26.0004
 09 10  4  0  6 30.0000000  0  9G02G04G12G13G29G10G23G30G31
 -16400819.49248 -12711724.53947
                  20673854.1724                                   20673849.0354
                                                                        51.0004
        43.2504
  -7292215.49648  -5639856.46146
                  20808923.3914                                   20808920.5394
                                                                        53.2504
        41.2504
   -858196.77047   -648590.44144
                  24137479.3054                                   24137475.6294
                                                                        45.2504
        29.2504
 -18987159.99248 -14722485.18745
                  21742882.2664                                   21742878.5314
                                                                        49.2504
        34.7504
   -911188.68047   -669802.75444
                  24137885.3134                                   24137884.2544
                                                                        42.5004
        27.5004
   1311124.83256   1065219.81654
                  24097574.1334                                   24097572.2464
                                                                        40.5004
        25.0004
 -10175722.71548  -7876353.02345
                  21854228.0554                                   21854222.4494
                                                                        48.5004
        35.0004
  -6834861.05947  -5283226.49644
                  22887504.1564                                   22887501.3984
                                                                        46.2504
        29.2504
  -7194628.26247  -5567040.86344
                  23943438.6724                                   23943435.0784
                                                                        42.0004
        26.0004
 09 10  4  0  7  0.0000000  0  9G02G04G12G13G29G10G23G30G31
 -16525511.91848 -12808887.44947
                  20650125.8914                                   20650120.5044
                                                                        51.2504
        42.5004
  -7332949.85548  -5671597.49647
                  20801171.9454                                   20801168.9884
                                                                        53.7504
        42.0004
   -851376.68447   -643276.11744
                  24138776.8834                                   24138773.7624
                                                                        44.2504
        29.0004
 -19133504.43048 -14836519.73845
                  21715033.7664                                   21715030.0044
                                                                        49.5004
        35.2504
  -1096236.78947   -813995.97744
                  24102671.9534                                   24102670.2464
                                                                        42.0004
        25.2504
   1106838.06347    906035.35944
                  24058700.3284                                   24058697.1254
                                                                        43.0004
        26.0004
 -10236793.00448  -7923940.25445
                  21842606.8364                                   21842601.1564
                                                                        48.7504
        35.0004
  -6866202.98047  -5307648.74244
                  22881539.3914                                   22881536.9344
                                                                        45.7504
        29.2504
  -7233095.73447  -5597015.48444
                  23936118.7504                                   23936114.9574
                                                                        42.2504
        26.2504
 09 10  4  0  7 30.0000000  0  9G02G04G12G13G29G10G23G30G31
 -16649653.78148 -12905621.36747
                  20626502.4064                                   20626497.1214
                                                                        51.5004
        42.7504
  -7373142.64148  -5702916.55546
                  20793523.3364                                   20793520.4454
                                                                        53.0004
        41.2504
   -844227.11347   -637705.03144
                  24140137.4924                                   24140134.3594
                                                                        44.0004
        28.0004
 -19279250.47348 -14950088.05145
                  21687299.3984                                   21687295.8914
                                                                        49.0004
        35.0004
  -1280995.61747   -957963.81244
                  24067513.3524                                   24067511.3754
                                                                        42.0004
        25.0004
    902719.46147    746981.89143
                  24019857.6484                                   24019854.0514
                                                                        43.2504
        22.2504
 -10297219.53148  -7971025.84845
                  21831107.9384                                   21831102.1174
                                                                        48.5004
        34.2504
  -6896937.38747  -5331597.64544
                  22875691.0234                                   22875688.8164
                                                                        44.5004
        28.0004
  -7271008.77347  -5626557.96144
                  23928904.0234                                   23928900.5004
                                                                        42.5004
        26.5004
 09 10  4  0  8  0.0000000  0  9G02G04G12G13G29G10G23G30G31
 -16773241.72348 -13001923.64147
                  20602984.5634                                   20602979.0664
                                                                        51.7504
        42.5004
  -7412792.79748  -5733812.73846
                  20785978.2034                                   20785975.1294
                                                                        53.2504
        41.0004
   -836748.95347   -631877.91444
                  24141559.8984                                   24141557.3674
                                                                        42.0004
        26.0004
 -19424393.46948 -15063186.45345
                  21659679.6094                                   21659675.6134
                                                                        50.0004
        35.0004
  -1465461.11346  -1101703.20744
                  24032410.6644                                   24032408.8364
                                                                        40.7504
        26.0004
    698773.33647    588062.86344
                  23981047.7584                                   23981044.7344
                                                                        44.2504
        25.2504
 -10357001.07848  -8017608.94545
                  21819731.6334                                   21819726.0274
                                                                        48.7504
        34.2504
  -6927064.43047  -5355073.24244
                  22869958.2814                                   22869955.3634
                                                                        43.2504
        28.0004
  -7308367.05947  -5655668.26644
                  23921794.5554                                   23921791.1254
                                                                        42.0004
        25.7504
 09 10  4  0  8 30.0000000  0  9G02G04G12G13G29G10G23G30G31
 -16896270.68048 -13097790.34447
                  20579572.9144                                   20579567.6414
                                                                        52.5004
        42.7504
  -7451898.43048  -5764284.65646
                  20778536.6484                                   20778533.7774
                                                                        53.2504
        41.5004
   -828941.66847   -625794.35944
                  24143045.6174                                   24143042.7154
                                                                        42.0004
        27.5004
 -19568928.46148 -15175811.11345
                  21632175.5704                                   21632171.6804
                                                                        49.2504
        35.2504
  -1649626.07846  -1245208.03144
                  23997364.8284                                   23997363.2734
                                                                        41.5004
        26.7504
    495005.68847    429282.90644
                  23942272.0084                                   23942269.1254
                                                                        42.5004
        24.5004
 -10416134.96148  -8063687.21545
                  21808478.5394                                   21808473.2034
                                                                        50.0004
        34.5004
  -6956582.90647  -5378074.68444
                  22864340.7894                                   22864338.3554
                                                                        44.5004
        28.7504
  -7345168.77747  -5684344.94144
                  23914791.2584                                   23914787.7344
                                                                        42.5004
        25.2504
 09 10  4  0  9  0.0000000  0  9G02G04G12G13G29G10G23G30G31
 -17018738.37948 -13193219.69947
                  20556267.9774                                   20556262.8364
                                                                        52.0004
        43.0004
  -7490459.50448  -5794332.25446
                  20771198.6414                                   20771195.6134
                                                                        52.5004
        41.5004
   -820807.25047   -619455.85944
                  24144593.4774                                   24144589.9694
                                                                        42.5004
        26.2504
 -19712851.82848 -15287959.15645
                  21604787.5944                                   21604783.8634
                                                                        49.5004
        34.5004
  -1833488.69947  -1388477.66444
                  23962377.8054                                   23962375.2344
                                                                        42.0004
        27.2504
    291418.98846    270644.00044
                  23903530.2894                                   23903528.2234
                                                                        40.7504
        24.7504
 -10474621.54748  -8109261.20745
                  21797349.2894                                   21797343.1954
                                                                        49.2504
        34.5004
  -6985494.32047  -5400603.10944
                  22858838.9844                                   22858836.6844
                                                                        44.0004
        26.7504
  -7381414.49646  -5712588.28944
                  23907894.2344                                   23907890.5984
                                                                        41.0004
        25.2504
 09 10  4  0  9 30.0000000  0  9G02G04G12G13G29G10G23G30G31
 -17140636.94948 -13288205.54347
                  20533071.5554                                   20533066.3984
                                                                        51.5004
        42.5004
  -7528470.53948  -5823951.24646
                  20763965.5864                                   20763962.4614
                                                                        52.2504
        41.5004
   -812341.55547   -612859.20744
                  24146204.5234                                   24146200.3794
                                                                        44.2504
        27.2504
 -19856155.05948 -15399623.98045
                  21577517.9774                                   21577514.3554
                                                                        49.0004
        35.5004
  -2017038.47346  -1531503.38744
                  23927448.8674                                   23927447.2074
                                                                        40.7504
        28.0004
     88022.78146    112153.53944
                  23864825.2894                                   23864823.0474
                                                                        41.5004
        27.0004
 -10532454.87548  -8154326.19545
                  21786344.0084                                   21786338.5204
                                                                        49.2504
        34.0004
  -7013793.73847  -5422654.67644
                  22853453.9304                                   22853451.6054
                                                                        44.0004
        28.0004
  -7417099.45746  -5740394.76644
                  23901103.7344                                   23901099.8244
                                                                        40.0004
        27.5004
 09 10  4  0 10  0.0000000  0  9G02G04G12G13G29G10G23G30G31
 -17261966.94548 -13382748.31647
                  20509983.0704                                   20509977.8014
                                                                        52.5004
        42.5004
  -7565935.06648  -5853144.37546
                  20756836.0394                                   20756833.2504
                                                                        51.5004
        41.0004
   -803549.79347   -606008.47744
                  24147877.9454                                   24147874.0634
                                                                        44.5004
        29.0004
 -19998838.14848 -15510805.59845
                  21550366.2114                                   21550362.6604
                                                                        49.7504
        34.5004
  -2200275.50846  -1674285.53944
                  23892580.3674                                   23892578.1954
                                                                        39.7504
        26.0004
   -115182.86347    -46188.43044
                  23826157.0784                                   23826153.9454
                                                                        43.0004
        27.7504
 -10589638.39148  -8198884.87145
                  21775462.2194                                   21775456.8244
                                                                        49.2504
        34.0004
  -7041485.72747  -5444232.85544
                  22848184.7274                                   22848182.2114
                                                                        45.5004
        28.7504
  -7452227.59046  -5767767.31244
                  23894418.8524                                   23894415.7034
                                                                        40.0004
        27.0004
 09 10  4  0 10 30.0000000  0  9G02G04G12G13G29G10G23G30G31
 -15807304.05548 -12249244.67647
                  20786796.3674                                   20786790.6954
                                                                        52.0004
        42.5004
  -6027434.22748  -4654312.61346
                  21049602.9694                                   21049600.2734
                                                                        52.7504
        41.5004
    780983.87147    628693.07844
                  24449404.5634                                   24449400.8094
                                                                        44.0004
        28.2504
 -18565475.50848 -14393899.60545
                  21823126.2504                                   21823122.0044
                                                                        49.5004
        35.5004
   -807772.00046   -589217.91844
                  24157564.8524                                   24157562.4804
                                                                        39.5004
        26.0004
   1257229.58647   1023223.93444
                  24087318.4454                                   24087316.1374
                                                                        43.0004
        29.5004
  -9070752.00848  -7015337.14145
                  22064497.0634                                   22064491.7504
                                                                        48.7504
        34.7504
  -5493152.86347  -4237739.71544
                  23142822.2584                                   23142820.3524
                                                                        44.5004
        29.0004
  -5911380.47747  -4567107.26644
                  24187632.5164                                   24187629.0984
                                                                        42.2504
        26.5004
 09 10  4  0 11  0.0000000  0  9G02G04G12G13G29G10G23G30G31
 -15927497.26648 -12342901.66847
                  20763923.9224                                   20763918.3484
                                                                        52.2504
        42.0004
  -6063813.79748  -4682660.30146
                  21042680.2584                                   21042677.4574
                                                                        53.5004
        41.2504
    790414.87947    636041.89544
                  24451199.1564                                   24451195.5864
                                                                        43.5004
        27.2504
 -18706916.55948 -14504113.39145
                  21796210.8674                                   21796206.8794
                                                                        49.5004
        35.0004
   -990379.49246   -731509.42244
                  24122815.9224                                   24122813.6524
                                                                        39.0004
        24.0004
   1054406.80947    865180.27744
                  24048722.4384                                   24048719.8014
                                                                        42.7504
        26.2504
  -9126642.28548  -7058888.02045
                  22053861.3204                                   22053855.8134
                                                                        48.7504
        34.0004
  -5519641.26647  -4258379.97344
                  23137781.6334                                   23137779.6094
                                                                        44.5004
        29.5004
  -5945404.41047  -4593619.45744
                  24181158.2504                                   24181154.3674
                                                                        42.2504
        26.5004
 09 10  4  0 11 30.0000000  0  9G02G04G12G13G29G10G23G30G31
 -16047125.20348 -12436118.23847
                  20741159.6484                                   20741154.0124
                                                                        52.5004
        42.7504
  -6099657.41448  -4710590.34046
                  21035859.3914                                   21035856.1644
                                                                        51.2504
        41.5004
    800156.45747    643632.70744
                  24453052.7344                                   24453049.7774
                                                                        42.0004
        27.0004
 -18847738.25048 -14613844.55945
                  21769413.2814                                   21769409.3444
                                                                        49.5004
        35.0004
  -1172672.73446   -873555.98844
                  24088126.2034                                   24088123.8874
                                                                        40.0004
        26.2504
    851774.21546    707284.81344
                  24010162.6564                                   24010159.8984
                                                                        41.0004
        25.0004
  -9181892.54748  -7101940.18745
                  22043347.1884                                   22043341.4104
                                                                        49.0004
        34.7504
  -5545536.02047  -4278557.69144
                  23132854.5864                                   23132852.0824
                                                                        44.7504
        29.7504
  -5978883.65246  -4619707.16044
                  24174787.2664                                   24174783.8054
                                                                        40.0004
        26.0004
 09 10  4  0 12  0.0000000  0  9G02G04G12G13G29G10G23G30G31
 -16166181.87948 -12528889.59847
                  20718503.6884                                   20718498.1644
                                                                        51.5004
        42.0004
  -6134962.43748  -4738100.71546
                  21029141.0394                                   21029137.7704
                                                                        52.7504
        41.7504
    810210.09047    651466.67244
                  24454966.0164                                   24454963.4264
                                                                        42.5004
        27.2504
 -18987934.58248 -14723088.46545
                  21742734.7734                                   21742731.2074
                                                                        49.2504
        35.0004
  -1354645.48446  -1015352.82444
                  24053498.0314                                   24053496.2584
                                                                        41.5004
        29.0004
    649338.13746    549542.41044
                  23971639.9224                                   23971637.3364
                                                                        41.2504
        24.5004
  -9236499.88748  -7144491.46945
                  22032955.8444                                   22032950.6024
                                                                        48.2504
        33.2504
  -5570835.60547  -4298271.68745
                  23128040.6094                                   23128037.6564
                                                                        45.0004
        30.5004
  -6011815.71546  -4645368.52344
                  24168520.2424                                   24168516.7854
                                                                        40.2504
        26.2504
 09 10  4  0 12 30.0000000  0  9G02G04G12G13G29G10G23G30G31
 -16284665.82848 -12621214.74647
                  20695957.0864                                   20695951.8014
                                                                        52.2504
        43.5004
  -6169729.73048  -4765192.10546
                  21022524.8984                                   21022521.7974
                                                                        53.0004
        40.7504
    820573.12947    659541.69544
                  24456937.6024                                   24456935.1724
                                                                        42.2504
        27.0004
 -19127502.93448 -14831843.03545
                  21716175.8284                                   21716171.8094
                                                                        49.7504
        35.7504
  -1536294.64846  -1156897.46944
                  24018931.3754                                   24018929.4104
                                                                        41.2504
        27.2504
    447101.31646    391955.34444
                  23933155.8524                                   23933153.2624
                                                                        41.2504
        25.2504
  -9290464.77748  -7186542.12945
                  22022686.9534                                   22022681.4884
                                                                        48.7504
        33.5004
  -5595541.83247  -4317523.30945
                  23123338.2974                                   23123336.1414
                                                                        45.5004
        30.2504
  -6044202.23447  -4670604.76244
                  24162357.5554                                   24162354.0744
                                                                        42.7504
        28.5004
 09 10  4  0 13  0.0000000  0  9G02G04G12G13G29G10G23G30G31
 -16402575.96148 -12713092.78547
                  20673519.6024                                   20673514.4344
                                                                        52.0004
        43.0004
  -6203960.72748  -4791865.64146
                  21016011.2734                                   21016008.3014
                                                                        52.2504
        41.2504
    831242.53947    667855.49644
                  24458968.7274                                   24458965.1054
                                                                        42.7504
        27.2504
 -19266440.98448 -14940106.35245
                  21689736.6254                                   21689732.7114
                                                                        50.0004
        35.7504
  -1717617.60546  -1298187.98844
                  23984426.3674                                   23984424.6724
                                                                        40.0004
        27.2504
    245065.83647    234525.14144
                  23894710.0704                                   23894707.6484
                                                                        42.7504
        28.0004
  -9343788.10548  -7228092.81645
                  22012540.0004                                   22012534.6174
                                                                        49.0004
        34.0004
  -5619657.03947  -4336314.39844
                  23118749.5234                                   23118747.2934
                                                                        44.7504
        29.2504
  -6076044.85246  -4695417.17244
                  24156297.5704                                   24156294.5434
                                                                        41.7504
        27.5004
 09 10  4  0 13 30.0000000  0  9G02G04G12G13G29G10G23G30G31
 -16519913.61348 -12804524.69947
                  20651190.7194                                   20651185.3834
                                                                        52.7504
        42.5004
  -6237659.37548  -4818124.34846
                  21009598.2274                                   21009595.5004
                                                                        52.2504
        41.5004
    842213.18447    676404.13344
                  24461056.5944                                   24461052.8244
                                                                        43.7504
        26.2504
 -19404750.70748 -15047880.16445
                  21663417.2274                                   21663413.3594
                                                                        50.0004
        35.5004
  -1898614.72746  -1439224.70744
                  23949983.2734                                   23949982.1994
                                                                        40.5004
        27.0004
     43231.50447     77251.67644
                  23856302.3914                                   23856299.4964
                                                                        43.5004
        28.2504
  -9396474.13748  -7269146.94945
                  22002514.3204                                   22002508.4884
                                                                        49.0004
        34.0004
  -5643186.45747  -4354649.07044
                  23114272.1644                                   23114269.6724
                                                                        45.2504
        27.7504
  -6107348.59846  -4719809.72744
                  24150340.5784                                   24150337.6524
                                                                        41.0004
        27.5004
 09 10  4  0 14  0.0000000  0  9G02G04G12G13G29G10G23G30G31
 -16636676.25048 -12895508.50847
                  20628971.8444                                   20628966.2664
                                                                        52.2504
        42.7504
  -6270825.89548  -4843968.37146
                  21003287.3284                                   21003284.4654
                                                                        52.2504
        41.0004
    853482.64847    685185.52044
                  24463201.0314                                   24463197.1094
                                                                        43.5004
        26.0004
 -19542428.51248 -15155161.54745
                  21637218.2344                                   21637214.2424
                                                                        50.0004
        35.2504
  -2079282.35946  -1580004.80544
                  23915604.1094                                   23915601.6684
                                                                        40.2504
        26.5004
   -158398.51647    -79862.62144
                  23817933.3134                                   23817930.6914
                                                                        42.7504
        27.5004
  -9448522.87948  -7309704.50445
                  21992609.6954                                   21992604.3794
                                                                        48.7504
        34.5004
  -5666131.08647  -4372528.07844
                  23109906.3524                                   23109903.5084
                                                                        44.0004
        27.0004
  -6138114.15246  -4743783.04344
                  24144486.3054                                   24144483.6134
                                                                        41.5004
        27.0004
 09 10  4  0 14 30.0000000  0  9G02G04G12G13G29G10G23G30G31
 -16752863.13348 -12986043.76247
                  20606862.1644                                   20606856.7304
                                                                        52.2504
        43.0004
  -6303461.60948  -4869398.79746
                  20997076.6334                                   20997073.8874
                                                                        53.0004
        41.0004
    865048.75847    694198.03944
                  24465402.1954                                   24465397.7234
                                                                        42.0004
        26.0004
 -19679472.43748 -15261949.07045
                  21611139.3914                                   21611135.4964
                                                                        49.7504
        35.0004
  -2259617.30946  -1720525.54344
                  23881287.1484                                   23881284.6954
                                                                        40.7504
        25.0004
   -359821.95747   -236815.91444
                  23779603.4924                                   23779601.2854
                                                                        43.0004
        28.0004
  -9499935.16448  -7349766.03945
                  21982826.5944                                   21982820.9384
                                                                        49.0004
        34.5004
  -5688493.20747  -4389953.09044
                  23105650.2504                                   23105648.1174
                                                                        44.0004
        26.7504
  -6168343.28547  -4767338.30944
                  24138734.7734                                   24138731.1954
                                                                        42.0004
        26.5004
 09 10  4  0 15  0.0000000  0  9G02G04G12G13G29G10G23G30G31
 -16868477.34448 -13076132.76647
                  20584861.3674                                   20584856.1254
                                                                        52.2504
        42.5004
  -6335572.69148  -4894420.36346
                  20990966.2894                                   20990963.4774
                                                                        53.2504
        41.0004
    876903.29746    703435.34844
                  24467657.4924                                   24467653.8204
                                                                        40.5004
        26.2504
 -19815885.20348 -15368244.84046
                  21585181.1174                                   21585177.3244
                                                                        50.2504
        36.0004
  -2439621.92647  -1860788.87144
                  23847033.3364                                   23847031.3674
                                                                        42.0004
        26.0004
   -561041.04747   -393610.00444
                  23741313.0554                                   23741309.9734
                                                                        43.0004
        26.5004
  -9550717.09848  -7389336.34045
                  21973162.9144                                   21973157.7464
                                                                        48.7504
        35.0004
  -5710280.51647  -4406930.23044
                  23101504.1954                                   23101501.4774
                                                                        44.0004
        26.5004
  -6198042.73447  -4790480.97744
                  24133082.4064                                   24133079.6484
                                                                        42.5004
        25.5004
 09 10  4  0 15 30.0000000  0  9G02G04G12G13G29G10G23G30G31
 -16983515.94948 -13165773.24647
                  20562970.3284                                   20562965.1094
                                                                        52.2504
        42.5004
  -6367158.76248  -4919032.89846
                  20984955.3984                                   20984952.7894
                                                                        52.7504
        41.0004
    889045.39146    712896.67244
                  24469968.4694                                   24469964.9384
                                                                        40.7504
        26.0004
 -19951662.97348 -15474045.73446
                  21559343.6334                                   21559339.8444
                                                                        50.2504
        36.0004
  -2619291.72347  -2000791.20344
                  23812843.4844                                   23812841.2814
                                                                        43.0004
        28.0004
   -762051.90647   -550241.76244
                  23703061.6254                                   23703059.0354
                                                                        42.2504
        26.5004
  -9600868.10548  -7428415.07845
                  21963619.1954                                   21963614.2114
                                                                        49.2504
        34.5004
  -5731493.30147  -4423459.70744
                  23097466.9144                                   23097465.3754
                                                                        43.2504
        26.5004
  -6227212.25446  -4813210.60944
                  24127531.7034                                   24127528.5704
                                                                        41.2504
        25.5004
 09 10  4  0 16  0.0000000  0  9G02G04G12G13G29G10G23G30G31
 -17097978.52348 -13254964.92247
                  20541188.6884                                   20541183.6054
                                                                        52.2504
        42.5004
  -6398221.78548  -4943237.84046
                  20979044.4924                                   20979041.5434
                                                                        52.7504
        40.7504
    901471.58646    722579.38344
                  24472332.3444                                   24472329.9304
                                                                        39.7504
        26.5004
 -20086804.75048 -15579351.05545
                  21533626.7344                                   21533623.2114
                                                                        50.0004
        35.7504
  -2798624.98047  -2140531.25844
                  23778717.4774                                   23778715.6174
                                                                        42.0004
        28.0004
   -962852.80947   -706709.89844
                  23664850.1094                                   23664847.2034
                                                                        42.0004
        26.5004
  -9650390.10948  -7467003.63745
                  21954195.8834                                   21954190.6684
                                                                        49.5004
        35.0004
  -5752134.98047  -4439544.12544
                  23093539.6174                                   23093537.0474
                                                                        44.2504
        25.2504
  -6255854.41046  -4835529.12143
                  24122081.4224                                   24122078.4344
                                                                        41.2504
        23.0004
 09 10  4  0 16 30.0000000  0  9G02G04G12G13G29G10G23G30G31
 -17211864.12948 -13343707.10247
                  20519517.0784                                   20519511.6644
                                                                        51.7504
        43.0004
  -6428763.50048  -4967036.60246
                  20973232.3834                                   20973229.5314
                                                                        53.0004
        40.7504
    914178.67246    732480.92244
                  24474751.4534                                   24474747.8014
                                                                        41.2504
        26.5004
 -20221309.15648 -15684159.69546
                  21508031.7114                                   21508028.0274
                                                                        49.5004
        36.2504
  -2977619.37146  -2280007.29744
                  23744655.6254                                   23744654.4264
                                                                        41.7504
        27.5004
  -1163442.11347   -863013.19144
                  23626679.3984                                   23626676.7934
                                                                        42.0004
        26.7504
  -9699284.54748  -7505103.16845
                  21944891.7424                                   21944886.1374
                                                                        49.5004
        34.7504
  -5772207.97747  -4455185.42244
                  23089720.1174                                   23089717.7384
                                                                        44.5004
        27.5004
  -6283971.82446  -4857438.82444
                  24116730.6724                                   24116727.6134
                                                                        40.7504
        24.5004
 09 10  4  0 17  0.0000000  0  8G02G04G13G29G10G23G30G31
 -17325172.40648 -13431999.37947
                  20497955.2504                                   20497949.9734
                                                                        51.2504
        42.5004
  -6458786.07848  -4990430.80146
                  20967519.2734                                   20967516.4614
                                                                        53.0004
        41.2504
 -20355175.27348 -15788470.97346
                  21482557.7344                                   21482554.0084
                                                                        49.5004
        36.0004
  -3156272.84046  -2419217.49644
                  23710658.6024                                   23710657.1884
                                                                        41.7504
        27.5004
  -1363818.33647  -1019150.45744
                  23588549.3204                                   23588546.3284
                                                                        42.0004
        28.2504
  -9747553.52748  -7542715.36345
                  21935706.1094                                   21935701.1374
                                                                        49.0004
        35.0004
  -5791715.90247  -4470386.50444
                  23086008.0944                                   23086005.8364
                                                                        44.2504
        27.7504
  -6311567.08646  -4878941.59443
                  24111479.9144                                   24111476.5044
                                                                        41.7504
        22.7504
 09 10  4  0 17 30.0000000  0  8G02G04G13G29G10G23G30G31
 -17437902.27348 -13519840.95347
                  20476503.7424                                   20476498.6214
                                                                        52.0004
        42.7504
  -6488290.85948  -5013421.55146
                  20961904.9614                                   20961901.5004
                                                                        52.7504
        40.7504
 -20488401.14148 -15892283.44546
                  21457205.6564                                   21457201.8484
                                                                        50.7504
        36.7504
  -3334583.31247  -2558160.57444
                  23676727.7344                                   23676725.3874
                                                                        42.2504
        28.0004
  -1563978.96546  -1175119.73444
                  23550459.9144                                   23550457.2384
                                                                        41.5004
        29.0004
  -9795198.42648  -7579841.19545
                  21926639.6724                                   21926634.4454
                                                                        48.7504
        34.0004
  -5810661.05547  -4485148.99644
                  23082403.0314                                   23082400.5474
                                                                        44.2504
        28.5004
  -6338642.02347  -4900038.88743
                  24106327.1334                                   24106323.6604
                                                                        42.0004
        22.5004
 09 10  4  0 18  0.0000000  0  8G02G04G13G29G10G23G30G31
 -17550048.12148 -13607227.43447
                  20455163.2734                                   20455157.7814
                                                                        52.0004
        43.0004
  -6517275.04348  -5036006.59446
                  20956389.4844                                   20956386.2504
                                                                        52.2504
        40.7504
 -20620980.71548 -15995592.28545
                  21431976.9144                                   21431973.0314
                                                                        50.5004
        35.2504
  -3512543.84847  -2696831.11744
                  23642862.9774                                   23642860.5904
                                                                        43.0004
        28.0004
  -1763917.31246  -1330915.77744
                  23512412.5394                                   23512409.7424
                                                                        41.7504
        28.2504
  -9842216.28548  -7616478.51645
                  21917692.3284                                   21917686.8554
                                                                        49.2504
        33.7504
  -5829041.88747  -4499471.72344
                  23078905.5944                                   23078902.8164
                                                                        44.0004
        28.5004
  -6365194.41846  -4920728.99243
                  24101274.9064                                   24101271.2384
                                                                        41.0004
        22.5004
 09 10  4  0 18 30.0000000  0  8G02G04G13G29G10G23G30G31
 -17661607.77348 -13694157.09047
                  20433934.2194                                   20433928.6174
                                                                        52.0004
        43.0004
  -6545739.09448  -5058186.40646
                  20950972.8524                                   20950969.8754
                                                                        52.5004
        41.0004
 -20752911.18048 -16098395.28546
                  21406871.4064                                   21406867.3754
                                                                        50.7504
        36.0004
  -3690150.60947  -2835226.02044
                  23609065.8284                                   23609062.8524
                                                                        44.2504
        27.7504
  -1963630.45747  -1486536.34044
                  23474408.8524                                   23474405.3164
                                                                        42.0004
        27.2504
  -9888607.62148  -7652627.68445
                  21908864.4614                                   21908859.0474
                                                                        49.0004
        33.5004
  -5846859.53147  -4513355.52044
                  23075514.5554                                   23075511.7544
                                                                        44.0004
        29.0004
  -6391225.72747  -4941013.12144
                  24096322.1174                                   24096317.4534
                                                                        43.7504
        26.7504
 09 10  4  0 19  0.0000000  0  8G02G04G13G29G10G23G30G31
 -17772581.75048 -13780630.32847
                  20412816.7114                                   20412811.0784
                                                                        52.7504
        43.2504
  -6573686.16448  -5079963.34046
                  20945654.9694                                   20945651.7704
                                                                        52.2504
        40.2504
 -20884192.66848 -16200692.63346
                  21381889.2734                                   21381885.2704
                                                                        50.5004
        36.5004
  -3867402.07447  -2973343.79744
                  23575335.4144                                   23575332.6604
                                                                        44.5004
        28.0004
  -2163117.97346  -1641981.07844
                  23436446.5084                                   23436444.0394
                                                                        41.5004
        26.5004
  -9934374.90648  -7688290.37145
                  21900155.1174                                   21900149.5944
                                                                        49.2504
        33.7504
  -5864118.62147  -4526804.13344
                  23072230.2114                                   23072227.9574
                                                                        44.2504
        28.2504
  -6416739.68746  -4960894.33644
                  24091466.2894                                   24091462.6484
                                                                        41.0004
        26.0004
 09 10  4  0 19 30.0000000  0  8G02G04G13G29G10G23G30G31
 -16307549.61348 -12639046.80547
                  20691602.6024                                   20691597.1914
                                                                        52.0004
        42.2504
  -5025701.27748  -3873741.34846
                  21240226.4774                                   21240223.3834
                                                                        52.5004
        41.0004
 -19439403.34048 -15074882.77746
                  21656823.6884                                   21656819.3634
                                                                        50.5004
        36.0004
  -2468875.09047  -1883582.34444
                  23841466.4064                                   23841463.0944
                                                                        45.0004
        27.7504
   -786955.25847   -569646.48444
                  23698322.2424                                   23698319.4184
                                                                        42.7504
        27.2504
  -8404103.21548  -6495870.92245
                  22191355.9224                                   22191350.7114
                                                                        48.5004
        34.2504
  -4305405.65247  -3312222.63744
                  23368843.2504                                   23368841.2074
                                                                        43.0004
        28.7504
  -4866321.40247  -3752776.31244
                  24386501.7194                                   24386498.1914
                                                                        42.7504
        27.5004
 09 10  4  0 20  0.0000000  0  9G02G04G05G13G29G10G23G30G31
 -16417362.38748 -12724615.14547
                  20670706.3834                                   20670701.0004
                                                                        52.2504
        42.5004
  -5052632.46148  -3894726.72346
                  21235101.9384                                   21235098.6604
                                                                        52.5004
        40.7504
   4467750.37957   3523968.83254
                  24457463.4694                                   24457460.9184
                                                                        42.7504
        26.5004
 -19569394.96148 -15176175.00046
                  21632087.2584                                   21632083.3794
                                                                        50.5004
        36.2504
  -2645423.43047  -2021152.37944
                  23807869.7814                                   23807867.5354
                                                                        44.5004
        27.0004
   -985997.77747   -724744.50444
                  23660445.6254                                   23660443.1564
                                                                        44.7504
        28.7504
  -8448640.85548  -6530575.55945
                  22182880.8594                                   22182875.4064
                                                                        49.0004
        33.5004
  -4321568.72347  -3324817.25044
                  23365767.4614                                   23365765.6524
                                                                        43.0004
        27.5004
  -4890819.31647  -3771865.48044
                  24381839.7424                                   24381836.1994
                                                                        43.5004
        28.5004
 09 10  4  0 20 30.0000000  0  9G02G04G05G13G29G10G23G30G31
 -16526600.68448 -12809735.87147
                  20649918.7114                                   20649913.3634
                                                                        52.5004
        42.7504
  -5079064.90248  -3915323.43446
                  21230071.6804                                   21230068.7854
                                                                        53.0004
        40.2504
   4267962.18447   3368289.82044
                  24419445.3674                                   24419442.1684
                                                                        43.7504
        27.2504
 -19698746.71948 -15276968.62946
                  21607472.3134                                   21607468.5864
                                                                        50.5004
        36.2504
  -2821623.33247  -2158450.90244
                  23774339.8134                                   23774337.6414
                                                                        43.2504
        27.2504
  -1184821.48447   -879672.04344
                  23622610.8444                                   23622607.6294
                                                                        44.0004
        28.2504
  -8492573.19948  -6564808.47345
                  22174520.8984                                   22174515.5704
                                                                        49.5004
        34.0004
  -4337194.96947  -3336993.56244
                  23362793.6414                                   23362791.7814
                                                                        43.5004
        27.0004
  -4914819.41847  -3790566.79744
                  24377272.7344                                   24377269.1884
                                                                        43.2504
        27.2504
 09 10  4  0 21  0.0000000  0  9G02G04G05G13G29G10G23G30G31
 -16635267.85548 -12894411.61347
                  20629240.3134                                   20629234.6524
                                                                        52.2504
        43.0004
  -5105004.81648  -3935536.36346
                  21225135.7194                                   21225132.2934
                                                                        53.0004
        40.0004
   4068313.44147   3212719.43044
                  24381453.9384                                   24381450.0204
                                                                        44.5004
        27.0004
 -19827461.12548 -15377265.57446
                  21582978.4844                                   21582975.0044
                                                                        50.7504
        36.2504
  -2997476.86747  -2295479.53944
                  23740875.7194                                   23740874.1804
                                                                        43.5004
        28.0004
  -1383428.62147  -1034430.74644
                  23584817.3204                                   23584813.9964
                                                                        45.2504
        29.5004
  -8535905.93048  -6598574.15645
                  22166274.5634                                   22166268.9024
                                                                        48.7504
        33.7504
  -4352291.38347  -3348756.96944
                  23359921.1174                                   23359918.6094
                                                                        42.2504
        27.7504
  -4938328.53947  -3808885.54344
                  24372798.3134                                   24372795.5824
                                                                        42.5004
        25.7504
 09 10  4  0 21 30.0000000  0  9G02G04G05G13G29G10G23G30G31
 -16743363.41048 -12978641.88747
                  20608670.2894                                   20608664.8204
                                                                        52.5004
        42.5004
  -5130454.53948  -3955367.32846
                  21220292.6174                                   21220289.6604
                                                                        53.0004
        40.7504
   3868804.84047   3057258.23044
                  24343487.7734                                   24343484.9384
                                                                        43.2504
        28.0004
 -19955537.68448 -15477065.47345
                  21558606.3204                                   21558602.9734
                                                                        50.7504
        35.7504
  -3172982.36347  -2432236.96544
                  23707478.5314                                   23707476.3634
                                                                        44.7504
        28.5004
  -1581818.21547  -1189019.99244
                  23547064.0004                                   23547061.8204
                                                                        43.0004
        28.5004
  -8578641.50848  -6631874.59045
                  22158142.6954                                   22158136.8714
                                                                        49.7504
        33.7504
  -4366861.40247  -3360110.16044
                  23357148.6414                                   23357146.2344
                                                                        43.2504
        27.5004
  -4961350.07846  -3826824.43444
                  24368417.2274                                   24368414.4654
                                                                        40.7504
        25.7504
 09 10  4  0 22  0.0000000  0  9G02G04G05G13G29G10G23G30G31
 -16850881.69948 -13062422.36347
                  20588210.0084                                   20588204.4804
                                                                        52.2504
        43.5004
  -5155410.87948  -3974813.86346
                  21215543.5944                                   21215541.1954
                                                                        53.0004
        40.7504
   3669443.91446   2901912.09444
                  24305550.5314                                   24305548.0274
                                                                        41.0004
        28.0004
 -20082969.75848 -15576363.23845
                  21534357.1804                                   21534353.6214
                                                                        51.5004
        35.5004
  -3348132.05147  -2568717.21145
                  23674148.8444                                   23674146.8754
                                                                        45.0004
        30.0004
  -1779982.50847  -1343433.64844
                  23509355.1804                                   23509352.3014
                                                                        44.0004
        29.2504
  -8620776.30148  -6664706.81245
                  22150124.6954                                   22150119.0354
                                                                        49.7504
        33.5004
  -4380902.89847  -3371051.52344
                  23354477.1334                                   23354474.0234
                                                                        43.2504
        26.0004
  -4983880.97346  -3844381.11744
                  24364129.7734                                   24364127.6334
                                                                        39.7504
        24.5004
 09 10  4  0 22 30.0000000  0  9G02G04G05G13G29G10G23G30G31
 -16957820.85248 -13145751.58247
                  20567860.1644                                   20567854.7114
                                                                        52.5004
        43.2504
  -5179874.40648  -3993876.53946
                  21210888.4774                                   21210885.8244
                                                                        53.0004
        40.5004
   3470233.29347   2746683.14544
                  24267642.3834                                   24267639.1684
                                                                        42.0004
        27.5004
 -20209755.35948 -15675157.28146
                  21510230.6024                                   21510226.9734
                                                                        51.5004
        36.0004
  -3522922.64547  -2704917.56644
                  23640887.0164                                   23640884.6764
                                                                        45.2504
        29.5004
  -1977918.64547  -1497669.52044
                  23471688.6804                                   23471685.9574
                                                                        44.0004
        29.0004
  -8662311.01248  -6697071.50445
                  22142220.6884                                   22142215.1524
                                                                        49.2504
        33.5004
  -4394417.82847  -3381582.51644
                  23351904.7504                                   23351902.1254
                                                                        43.2504
        26.7504
  -5005922.32046  -3861556.30143
                  24359935.4224                                   24359932.5864
                                                                        40.2504
        23.0004
 09 10  4  0 23  0.0000000  0  9G02G04G05G13G29G10G23G30G31
 -17064178.31648 -13228627.60247
                  20547621.0164                                   20547615.4384
                                                                        51.5004
        42.5004
  -5203845.07048  -4012555.09446
                  21206327.1954                                   21206324.1524
                                                                        52.2504
        40.2504
   3271176.47346   2591574.03944
                  24229763.0234                                   24229760.1214
                                                                        41.7504
        28.0004
 -20335890.87948 -15773444.56245
                  21486227.6254                                   21486223.8524
                                                                        51.0004
        35.7504
  -3697349.92247  -2840834.89144
                  23607694.6094                                   23607692.2504
                                                                        45.0004
        29.5004
  -2175622.96547  -1651724.82844
                  23434067.2734                                   23434063.9964
                                                                        43.5004
        28.5004
  -8703246.14148  -6728969.08245
                  22134430.9384                                   22134425.2344
                                                                        48.0004
        34.0004
  -4407407.02047  -3391703.73844
                  23349433.1954                                   23349430.5984
                                                                        43.5004
        27.0004
  -5027474.61346  -3878350.39144
                  24355834.6334                                   24355831.9884
                                                                        41.2504
        24.0004
 09 10  4  0 23 30.0000000  0  9G02G04G05G13G29G10G23G30G31
 -17169953.24648 -13311049.69947
                  20527492.8984                                   20527487.3524
                                                                        52.2504
        43.0004
  -5227324.59048  -4030850.93446
                  21201858.7974                                   21201856.1684
                                                                        52.2504
        40.2504
   3072275.30947   2436586.25444
                  24191913.2894                                   24191910.5394
                                                                        42.5004
        29.5004
 -20461375.14548 -15871224.46946
                  21462348.8914                                   21462345.1914
                                                                        50.7504
        36.0004
  -3871411.75047  -2976467.49244
                  23574572.1254                                   23574568.8914
                                                                        45.0004
        29.2504
  -2373093.18047  -1805597.66844
                  23396489.7894                                   23396486.2194
                                                                        45.2504
        27.2504
  -8743582.71548  -6760400.14845
                  22126755.2344                                   22126750.0164
                                                                        49.0004
        34.0004
  -4419873.63347  -3401417.82044
                  23347060.6644                                   23347057.3834
                                                                        44.0004
        27.2504
  -5048540.05947  -3894765.03543
                  24351826.5234                                   24351823.1454
                                                                        42.0004
        22.2504
 09 10  4  0 24  0.0000000  0  9G02G04G05G13G29G10G23G30G31
 -17275142.64548 -13393015.48847
                  20507476.1954                                   20507470.6524
                                                                        52.0004
        42.7504
  -5250312.21948  -4048763.41046
                  21197484.8524                                   21197482.1254
                                                                        51.5004
        40.0004
   2873533.84847   2281722.88745
                  24154094.1024                                   24154090.4104
                                                                        44.0004
        30.0004
 -20586204.87948 -15968494.32846
                  21438594.5554                                   21438590.8754
                                                                        51.0004
        36.0004
  -4045103.50447  -3111811.70744
                  23541519.2974                                   23541516.3284
                                                                        44.2504
        27.0004
  -2570325.35947  -1959285.03944
                  23358957.9454                                   23358954.5704
                                                                        44.0004
        29.0004
  -8783320.45348  -6791364.56645
                  22119193.2894                                   22119187.8524
                                                                        49.2504
        34.5004
  -4431818.41847  -3410725.29744
                  23344787.3364                                   23344784.8444
                                                                        43.2504
        27.7504
  -5069119.49647  -3910801.09043
                  24347909.9454                                   24347906.2774
                                                                        42.0004
        21.7504
 09 10  4  0 24 30.0000000  0  9G02G04G05G13G29G10G23G30G31
 -17379747.07848 -13474525.49647
                  20487570.5004                                   20487564.8444
                                                                        51.7504
        43.0004
  -5272811.39148  -4066295.32446
                  21193203.5634                                   21193200.5744
                                                                        52.0004
        40.5004
   2674952.59847   2126984.29744
                  24116304.9384                                   24116301.7584
                                                                        43.7504
        29.0004
 -20710380.46948 -16065254.62946
                  21414964.6804                                   21414960.4844
                                                                        51.2504
        36.0004
  -4218423.82047  -3246866.46144
                  23508537.5944                                   23508534.6334
                                                                        43.5004
        28.2504
  -2767318.18747  -2112785.92244
                  23321470.9384                                   23321468.2194
                                                                        43.5004
        29.0004
  -8822462.55948  -6821864.97745
                  22111745.2504                                   22111739.6134
                                                                        49.5004
        33.5004
  -4443245.48847  -3419629.44144
                  23342612.9924                                   23342610.4964
                                                                        43.0004
        27.5004
  -5089216.16047  -3926460.85543
                  24344085.9774                                   24344081.8134
                                                                        43.0004
        22.5004
 09 10  4  0 25  0.0000000  0  9G02G04G05G13G29G10G23G30G31
 -17483766.33648 -13555579.50847
                  20467776.4534                                   20467771.2274
                                                                        52.0004
        43.0004
  -5294824.35248  -4083448.35546
                  21189014.5474                                   21189011.8054
                                                                        52.0004
        40.2504
   2476532.82847   1972371.56344
                  24078546.8364                                   24078544.0434
                                                                        42.5004
        27.7504
 -20833900.78548 -16161504.36346
                  21391459.3984                                   21391456.0314
                                                                        51.2504
        36.0004
  -4391371.09847  -3381630.60244
                  23475626.4064                                   23475624.4804
                                                                        43.5004
        29.7504
  -2964070.63747  -2266099.52745
                  23284030.7034                                   23284027.3954
                                                                        42.5004
        30.0004
  -8861011.05148  -6851902.71545
                  22104409.0004                                   22104403.8714
                                                                        49.0004
        33.0004
  -4454158.34447  -3428132.92644
                  23340535.7424                                   23340533.8714
                                                                        42.0004
        27.5004
  -5108832.85246  -3941746.58243
                  24340353.1644                                   24340348.3364
                                                                        41.7504
        22.5004
 09 10  4  0 25 30.0000000  0  9G02G04G05G13G29G10G23G30G31
 -17587199.82848 -13636177.18747
                  20448093.6884                                   20448088.6134
                                                                        52.5004
        42.7504
  -5316352.49248  -4100223.56646
                  21184917.9614                                   21184915.0594
                                                                        52.5004
        40.7504
   2278276.46147   1817886.13344
                  24040819.5634                                   24040816.4184
                                                                        42.7504
        27.7504
 -20956763.92248 -16257241.88346
                  21368079.7034                                   21368075.8554
                                                                        50.7504
        36.0004
  -4563942.63747  -3516101.91844
                  23442787.5554                                   23442785.4344
                                                                        43.0004
        29.7504
  -3160580.04347  -2419223.67645
                  23246635.5784                                   23246633.2194
                                                                        43.5004
        30.2504
  -8898967.81648  -6881479.36745
                  22097186.3444                                   22097180.7774
                                                                        48.5004
        33.0004
  -4464559.83647  -3436237.98044
                  23338556.9224                                   23338554.4844
                                                                        42.5004
        26.5004
  -5127972.12147  -3956660.30944
                  24336711.7584                                   24336706.8594
                                                                        43.5004
        24.5004
 09 10  4  0 26  0.0000000  0  9G02G04G05G13G29G10G23G30G31
 -17690045.46548 -13716316.60947
                  20428522.7734                                   20428517.4024
                                                                        52.5004
        43.2504
  -5337396.90248  -4116621.82446
                  21180913.4614                                   21180910.2854
                                                                        51.2504
        40.0004
   2080186.32046   1663530.17244
                  24003125.0004                                   24003121.6134
                                                                        41.5004
        28.5004
 -21078968.50048 -16352466.25846
                  21344825.1644                                   21344821.0984
                                                                        51.0004
        37.0004
  -4736135.33647  -3650277.96945
                  23410020.3364                                   23410018.1484
                                                                        43.0004
        30.2504
  -3356843.54347  -2572156.19944
                  23209288.3594                                   23209285.6134
                                                                        43.0004
        29.7504
  -8936333.79348  -6910595.68045
                  22090075.9844                                   22090069.9614
                                                                        48.7504
        32.0004
  -4474452.10546  -3443946.19944
                  23336674.8134                                   23336671.9534
                                                                        41.7504
        26.2504
  -5146635.11346  -3971202.82843
                  24333159.9064                                   24333155.9184
                                                                        40.5004
        23.5004
 09 10  4  0 26 30.0000000  0  9G02G04G05G13G29G10G23G30G31
 -17792301.98448 -13795997.10247
                  20409064.2114                                   20409059.0514
                                                                        52.7504
        42.7504
  -5357958.15248  -4132643.55946
                  21177000.8914                                   21176997.9534
                                                                        51.0004
        39.7504
   1882265.24247   1509305.98445
                  23965461.4304                                   23965458.7624
                                                                        44.0004
        30.2504
 -21200512.41848 -16447175.89846
                  21321696.0084                                   21321692.6644
                                                                        51.0004
        36.5004
  -4907945.72347  -3784156.18745
                  23377325.6254                                   23377323.5634
                                                                        43.7504
        31.0004
  -3552857.83647  -2724894.58245
                  23171987.9064                                   23171984.5554
                                                                        45.2504
        31.0004
  -8973109.76648  -6939252.33245
                  22083077.8984                                   22083071.7734
                                                                        48.7504
        32.7504
  -4483837.00047  -3451259.09444
                  23334888.3054                                   23334885.9694
                                                                        42.5004
        27.2504
  -5164823.46146  -3985375.54744
                  24329698.1094                                   24329695.4534
                                                                        38.7504
        25.0004
 09 10  4  0 27  0.0000000  0  9G02G04G05G13G29G10G23G30G31
 -17893969.67248 -13875218.72747
                  20389717.5634                                   20389712.2274
                                                                        52.0004
        43.0004
  -5378039.59048  -4148291.44546
                  21173179.5164                                   21173176.2624
                                                                        51.2504
        40.2504
   1684514.03147   1355214.18845
                  23927830.4064                                   23927827.7074
                                                                        43.0004
        30.5004
 -21321395.12548 -16541370.21146
                  21298692.5474                                   21298688.9734
                                                                        51.0004
        36.5004
  -5079372.77347  -3917735.76245
                  23344704.6484                                   23344702.1484
                                                                        43.7504
        31.0004
  -3748622.75447  -2877438.64145
                  23134734.9614                                   23134732.1684
                                                                        44.7504
        30.2504
  -9009298.72348  -6967451.55545
                  22076191.2664                                   22076185.6294
                                                                        49.2504
        33.0004
  -4492718.66047  -3458179.84844
                  23333197.6954                                   23333195.7734
                                                                        42.5004
        27.0004
  -5182540.74246  -3999181.19944
                  24326326.3834                                   24326324.1644
                                                                        37.7504
        25.2504
 09 10  4  0 27 30.0000000  0  9G02G04G05G13G29G10G23G30G31
 -17995049.81648 -13953982.56247
                  20370483.0314                                   20370477.6604
                                                                        52.2504
        43.2504
  -5397644.17248  -4163567.71946
                  21169448.8284                                   21169445.9884
                                                                        50.7504
        40.5004
   1486933.05147   1201255.10244
                  23890232.2424                                   23890229.0824
                                                                        43.0004
        29.5004
 -21441617.37548 -16635049.85946
                  21275815.1024                                   21275811.4534
                                                                        50.5004
        36.5004
  -5250415.66047  -4051016.02344
                  23312156.2194                                   23312153.9304
                                                                        43.2504
        29.0004
  -3944137.28947  -3029787.64844
                  23097529.7194                                   23097526.6564
                                                                        44.7504
        29.5004
  -9044904.15648  -6995196.07445
                  22069415.5704                                   22069409.9304
                                                                        49.0004
        32.2504
  -4501101.47747  -3464711.93744
                  23331603.5474                                   23331600.7154
                                                                        43.0004
        26.5004
  -5199790.83246  -4012622.81644
                  24323043.6094                                   24323041.2814
                                                                        40.0004
        24.5004
 09 10  4  0 28  0.0000000  0  9G02G04G05G13G29G10G23G30G31
 -18095538.87148 -14032285.69147
                  20351360.1954                                   20351355.1564
                                                                        52.5004
        43.2504
  -5416771.98448  -4178472.51246
                  21165808.7194                                   21165805.9064
                                                                        51.7504
        40.0004
   1289525.73047   1047431.30944
                  23852666.3364                                   23852663.8634
                                                                        42.5004
        28.5004
 -21561175.65648 -16728212.08646
                  21253064.0944                                   21253060.3094
                                                                        51.2504
        37.0004
  -5421069.88347  -4183993.36745
                  23279681.5554                                   23279679.5514
                                                                        43.7504
        30.0004
  -4139397.14147  -3181938.19144
                  23060373.2584                                   23060369.9884
                                                                        44.0004
        29.5004
  -9079925.92248  -7022485.76645
                  22062751.3594                                   22062745.6954
                                                                        49.0004
        33.0004
  -4508986.32847  -3470855.96544
                  23330102.9304                                   23330099.7584
                                                                        43.5004
        27.0004
  -5216574.01646  -4025700.58244
                  24319850.2194                                   24319847.5234
                                                                        41.0004
        25.2504
 09 10  4  0 28 30.0000000  0  9G02G04G05G13G29G10G23G30G31
 -18195436.62148 -14110128.02747
                  20332350.3134                                   20332345.0634
                                                                        52.7504
        43.5004
  -5435424.69148  -4193007.05946
                  21162259.2114                                   21162256.2734
                                                                        51.0004
        40.7504
   1092294.04347    893744.33244
                  23815134.7344                                   23815131.0554
                                                                        43.7504
        27.0004
 -21680069.26648 -16820856.42646
                  21230439.1804                                   21230435.6334
                                                                        51.2504
        37.2504
  -5591333.03547  -4316666.00844
                  23247281.5634                                   23247279.3834
                                                                        44.0004
        29.5004
  -4334400.57047  -3333888.94945
                  23023264.9924                                   23023262.5704
                                                                        45.0004
        30.5004
  -9114365.77748  -7049321.97745
                  22056197.4304                                   22056191.8244
                                                                        48.5004
        33.2504
  -4516376.35247  -3476614.40644
                  23328696.4614                                   23328692.9144
                                                                        43.0004
        25.5004
  -5232893.17646  -4038416.84444
                  24316744.4924                                   24316742.3874
                                                                        40.2504
        24.5004
 09 10  4  0 29  0.0000000  0  9G02G04G05G13G29G10G23G30G31
 -16719320.40248 -12959907.57047
                  20613245.6884                                   20613240.2624
                                                                        52.5004
        42.7504
  -3878184.25048  -2979572.89846
                  21458592.2734                                   21458589.0204
                                                                        51.0004
        39.5004
   2470665.73447   1967800.22744
                  24077430.2034                                   24077426.8674
                                                                        43.0004
        29.0004
 -20222874.13348 -15685379.68046
                  21507734.0864                                   21507730.2974
                                                                        51.0004
        36.7504
  -4185778.03947  -3221428.47744
                  23514750.3594                                   23514747.5044
                                                                        43.2504
        29.5004
  -2953719.68047  -2258033.69145
                  23285999.9454                                   23285997.5474
                                                                        44.5004
        30.0004
  -7572805.05948  -5848105.77345
                  22349546.4144                                   22349541.1374
                                                                        49.5004
        33.0004
  -2947855.59847  -2254390.42244
                  23627175.7894                                   23627172.4104
                                                                        42.5004
        26.5004
  -3673330.74646  -2823173.39544
                  24613519.5554                                   24613517.2344
                                                                        41.5004
        25.5004
 09 10  4  0 29 30.0000000  0  9G02G04G05G13G29G10G23G30G31
 -16818035.63748 -13036828.52047
                  20594460.8284                                   20594455.7774
                                                                        52.2504
        43.5004
  -3895893.75048  -2993372.46546
                  21455222.2114                                   21455219.2734
                                                                        50.7504
        39.7504
   2273789.60947   1814390.27045
                  24039965.8754                                   24039962.4304
                                                                        44.5004
        30.7504
 -20340436.64548 -15776986.82846
                  21485362.4454                                   21485359.1524
                                                                        51.0004
        36.5004
  -4355253.19547  -3353486.99645
                  23482499.7734                                   23482497.8914
                                                                        43.5004
        30.5004
  -3148204.97747  -2409580.68745
                  23248991.2114                                   23248988.1644
                                                                        45.5004
        30.5004
  -7606088.22348  -5874040.69545
                  22343213.2424                                   22343207.5474
                                                                        49.7504
        33.5004
  -2954267.03946  -2259386.34444
                  23625955.8054                                   23625953.3984
                                                                        41.2504
        25.5004
  -3688730.01647  -2835172.78544
                  24610590.0554                                   24610586.7384
                                                                        43.5004
        27.2504
 09 10  4  0 30  0.0000000  0  9G02G04G05G13G29G10G23G30G31
 -16916163.07048 -13113291.50047
                  20575787.8984                                   20575782.7194
                                                                        52.7504
        43.0004
  -3913138.71948  -3006810.04746
                  21451940.5474                                   21451937.8054
                                                                        51.7504
        39.5004
   2077089.69547   1661117.59045
                  24002535.2974                                   24002531.8364
                                                                        44.7504
        30.0004
 -20457336.46948 -15868077.64846
                  21463117.2664                                   21463113.5164
                                                                        51.0004
        36.7504
  -4524335.42247  -3485239.51245
                  23450325.0554                                   23450322.1844
                                                                        43.2504
        30.7504
  -3342432.22347  -2560926.59445
                  23212030.8754                                   23212027.5124
                                                                        45.7504
        31.5004
  -7638800.32048  -5899530.60545
                  22336988.1414                                   22336982.5354
                                                                        49.5004
        32.5004
  -2960197.72747  -2264007.65244
                  23624827.0394                                   23624824.6994
                                                                        42.0004
        26.5004
  -3703677.66047  -2846820.28544
                  24607745.6484                                   24607741.9534
                                                                        43.2504
        26.5004
 09 10  4  0 30 30.0000000  0  9G02G04G05G13G29G10G23G30G31
 -17013699.30948 -13189293.80947
                  20557227.2194                                   20557221.9414
                                                                        52.7504
        43.2504
  -3929918.25448  -3019884.95346
                  21448747.4614                                   21448744.4494
                                                                        51.7504
        39.5004
   1880570.69947   1507985.92645
                  23965138.7974                                   23965135.5904
                                                                        42.5004
        30.0004
 -20573569.87548 -15958649.26246
                  21440998.9224                                   21440995.4264
                                                                        51.5004
        37.0004
  -4693019.95747  -3616682.08245
                  23418225.2584                                   23418222.8754
                                                                        44.0004
        31.0004
  -3536397.02347  -2712067.97745
                  23175120.4534                                   23175117.3094
                                                                        43.7504
        30.2504
  -7670940.73848  -5924575.07445
                  22330872.0164                                   22330866.4024
                                                                        49.0004
        32.5004
  -2965647.92247  -2268254.47744
                  23623789.7894                                   23623787.5824
                                                                        42.0004
        26.0004
  -3718173.25847  -2858115.45344
                  24604987.1024                                   24604983.4344
                                                                        44.5004
        25.5004
 09 10  4  0 31  0.0000000  0  9G02G04G05G13G29G10G23G30G31
 -17110644.64148 -13264835.60947
                  20538779.4304                                   20538774.1254
                                                                        52.7504
        43.2504
  -3946235.45748  -3032599.64846
                  21445642.2814                                   21445639.3284
                                                                        51.2504
        40.0004
   1684233.38347   1354995.85545
                  23927777.0314                                   23927774.1094
                                                                        42.5004
        30.0004
 -20689136.61748 -16048701.26246
                  21419007.4454                                   21419003.8094
                                                                        50.7504
        37.5004
  -4861304.87547  -3747813.21145
                  23386201.5864                                   23386199.4494
                                                                        43.5004
        31.5004
  -3730098.16447  -2863003.90645
                  23138260.0784                                   23138257.1564
                                                                        44.5004
        30.2504
  -7702512.19148  -5949176.21145
                  22324864.4844                                   22324858.5204
                                                                        49.0004
        32.5004
  -2970621.64547  -2272130.11744
                  23622843.2814                                   23622841.2464
                                                                        43.7504
        27.0004
  -3732220.39847  -2869061.22343
                  24602313.5944                                   24602309.1174
                                                                        43.2504
        22.0004
 09 10  4  0 31 30.0000000  0  9G02G04G05G13G29G10G23G30G31
 -17206996.41048 -13339914.94147
                  20520443.9384                                   20520438.8954
                                                                        52.5004
        43.5004
  -3962089.62548  -3044953.54346
                  21442625.2894                                   21442622.4414
                                                                        51.2504
        39.5004
   1488081.82847   1202150.47745
                  23890450.6724                                   23890447.4964
                                                                        44.0004
        30.5004
 -20804033.83648 -16138231.59846
                  21397142.9924                                   21397139.5944
                                                                        50.7504
        37.0004
  -5029185.59847  -3878629.46545
                  23354254.8054                                   23354252.7464
                                                                        43.2504
        30.5004
  -3923531.15247  -3013730.87945
                  23101451.2274                                   23101447.5744
                                                                        45.0004
        30.5004
  -7733514.42648  -5973333.78945
                  22318964.9144                                   22318958.9924
                                                                        49.0004
        32.2504
  -2975119.83647  -2275635.16444
                  23621987.7584                                   23621985.1134
                                                                        43.5004
        27.0004
  -3745819.30147  -2879657.68443
                  24599726.1884                                   24599721.3444
                                                                        42.7504
        22.0004
 09 10  4  0 32  0.0000000  0  9G02G04G05G13G29G10G23G30G31
 -17302754.96548 -13414531.96547
                  20502221.6884                                   20502216.6134
                                                                        52.5004
        43.0004
  -3977483.66048  -3056948.86746
                  21439695.9224                                   21439693.0704
                                                                        51.0004
        40.0004
   1292117.20747   1049450.82845
                  23853159.6724                                   23853156.7544
                                                                        43.0004
        30.2504
 -20918261.43748 -16227240.15246
                  21375406.5474                                   21375402.7304
                                                                        51.2504
        37.2504
  -5196661.04347  -4009129.86745
                  23322385.1954                                   23322383.5124
                                                                        43.2504
        30.5004
  -4116694.92247  -3164248.12945
                  23064693.9774                                   23064690.2234
                                                                        45.2504
        31.5004
  -7763950.28948  -5997049.99245
                  22313172.6724                                   22313167.3984
                                                                        48.5004
        32.0004
  -2979146.82047  -2278773.07444
                  23621221.7814                                   23621218.6914
                                                                        43.5004
        27.2504
  -3758973.35546  -2889907.53943
                  24597222.5704                                   24597218.0904
                                                                        40.5004
        21.2504
 09 10  4  0 32 30.0000000  0  9G02G04G05G13G29G10G23G30G31
 -17397920.34848 -13488686.85547
                  20484112.6884                                   20484107.3284
                                                                        52.7504
        42.7504
  -3992419.79748  -3068587.38346
                  21436854.0944                                   21436851.0554
                                                                        51.0004
        39.7504
   1096340.78147    896897.81345
                  23815904.9384                                   23815901.0824
                                                                        43.7504
        30.0004
 -21031818.70748 -16315726.30946
                  21353797.2344                                   21353793.3244
                                                                        51.2504
        37.2504
  -5363728.76647  -4139312.52744
                  23290593.3984                                   23290591.5634
                                                                        43.0004
        29.0004
  -4309587.66847  -3314554.19545
                  23027987.1174                                   23027982.9224
                                                                        45.5004
        31.5004
  -7793822.69148  -6020327.16445
                  22307488.3054                                   22307482.6954
                                                                        48.5004
        32.2504
  -2982705.52747  -2281546.07444
                  23620544.6804                                   23620541.2234
                                                                        43.2504
        27.5004
  -3771685.34846  -2899812.94543
                  24594803.0084                                   24594799.3094
                                                                        39.5004
        21.2504
 09 10  4  0 33  0.0000000  0  9G02G04G05G13G29G10G23G30G31
 -17492492.05948 -13562379.07847
                  20466116.1804                                   20466111.1884
                                                                        53.2504
        43.5004
  -4006900.12548  -3079870.71946
                  21434098.4384                                   21434095.0234
                                                                        51.2504
        40.0004
    900754.13347    744492.62145
                  23778685.5634                                   23778682.3554
                                                                        43.5004
        30.5004
 -21144705.16448 -16403689.77046
                  21332315.6884                                   21332311.7464
                                                                        51.2504
        36.7504
  -5530386.78947  -4269175.92645
                  23258879.7274                                   23258877.1454
                                                                        44.0004
        30.0004
  -4502207.64847  -3464647.71945
                  22991332.5164                                   22991329.9144
                                                                        44.2504
        31.2504
  -7823133.28148  -6043166.57045
                  22301911.0004                                   22301904.9224
                                                                        49.2504
        32.2504
  -2985799.65247  -2283957.05944
                  23619955.2194                                   23619952.3674
                                                                        43.2504
        26.0004
  -3783958.02746  -2909376.09843
                  24592467.3444                                   24592464.1804
                                                                        37.2504
        22.0004
 09 10  4  0 33 30.0000000  0  9G02G04G05G13G29G10G23G30G31
 -17586470.81648 -13635609.25047
                  20448232.4534                                   20448227.6294
                                                                        52.5004
        42.7504
  -4020927.59848  -3090801.21546
                  21431429.1334                                   21431425.9844
                                                                        51.0004
        39.5004
    705358.21147    592236.08245
                  23741503.2734                                   23741499.4654
                                                                        43.0004
        30.0004
 -21256920.98048 -16491130.63746
                  21310961.5704                                   21310957.7234
                                                                        51.5004
        37.0004
  -5696634.03947  -4398719.24245
                  23227244.7274                                   23227241.3324
                                                                        44.5004
        31.5004
  -4694553.64147  -3614527.68045
                  22954730.1024                                   22954727.6994
                                                                        45.0004
        31.7504
  -7851885.35948  -6065570.75045
                  22296439.2034                                   22296433.4574
                                                                        49.5004
        32.5004
  -2988433.56247  -2286009.48844
                  23619453.9304                                   23619451.3484
                                                                        43.5004
        25.2504
  -3795795.32046  -2918600.00843
                  24590215.4454                                   24590212.0864
                                                                        40.0004
        22.5004
 09 10  4  0 34  0.0000000  0 10G02G04G05G13G29G10G23G30G31G25
 -17679857.91448 -13708378.35547
                  20430461.4064                                   20430456.5514
                                                                        52.5004
        43.5004
  -4034505.88348  -3101381.71546
                  21428845.0004                                   21428842.3834
                                                                        50.5004
        39.7504
    510153.51647    440128.50445
                  23704356.6094                                   23704353.5354
                                                                        43.0004
        30.5004
 -21368466.89548 -16578049.50046
                  21289735.0084                                   21289731.4454
                                                                        51.2504
        36.5004
  -5862469.89547  -4527942.07845
                  23195686.8204                                   23195684.0594
                                                                        43.5004
        31.2504
  -4886625.18747  -3764193.79345
                  22918180.2114                                   22918177.7034
                                                                        43.5004
        31.2504
  -7880082.78548  -6087542.75445
                  22291073.9224                                   22291068.2504
                                                                        48.0004
        33.2504
  -2990611.59847  -2287706.69544
                  23619039.8134                                   23619036.8674
                                                                        42.2504
        24.0004
  -3807201.50046  -2927488.02344
                  24588045.2114                                   24588042.0204
                                                                        41.5004
        24.0004
   6075992.72756   4771736.46553
                  24191824.5004                                   24191821.0554
                                                                        39.2504
        20.2504
 09 10  4  0 34 30.0000000  0 10G02G04G05G13G29G10G23G30G31G25
 -17772655.38748 -13780688.12147
                  20412802.8054                                   20412797.8594
                                                                        52.2504
        43.2504
  -4047639.14148  -3111615.44546
                  21426346.0784                                   21426343.0354
                                                                        51.0004
        39.5004
    315139.05547    288169.18045
                  23667246.3364                                   23667243.7384
                                                                        44.2504
        30.7504
 -21479344.53148 -16664447.56646
                  21268635.6724                                   21268631.7274
                                                                        51.5004
        36.5004
  -6027894.09847  -4656844.09445
                  23164207.2194                                   23164204.9304
                                                                        45.2504
        31.0004
  -5078422.60947  -3913646.31645
                  22881682.9694                                   22881679.4264
                                                                        45.5004
        31.2504
  -7907729.65648  -6109085.77345
                  22285812.9534                                   22285807.0864
                                                                        49.0004
        32.5004
  -2992339.50847  -2289053.16844
                  23618710.8984                                   23618708.1094
                                                                        44.2504
        24.5004
  -3818180.95747  -2936043.45344
                  24585955.5554                                   24585952.4534
                                                                        42.2504
        25.5004
   5901787.89846   4635992.44143
                  24158673.5634                                   24158671.4694
                                                                        40.0004
        21.0004
 09 10  4  0 35  0.0000000  0  9G02G04G05G13G29G10G23G30G25
 -17864864.57448 -13852539.33647
                  20395255.8364                                   20395250.8054
                                                                        52.2504
        43.0004
  -4060331.52348  -3121505.61746
                  21423930.6804                                   21423927.5864
                                                                        51.0004
        39.2504
    120314.60547    136357.94945
                  23630173.1564                                   23630169.6684
                                                                        44.2504
        31.2504
 -21589555.61748 -16750326.29746
                  21247663.1174                                   21247659.1374
                                                                        51.5004
        37.2504
  -6192906.96147  -4785425.57445
                  23132806.4064                                   23132804.5904
                                                                        44.5004
        31.5004
  -5269946.48847  -4062885.74245
                  22845236.7974                                   22845233.8244
                                                                        45.0004
        31.2504
  -7934830.56648  -6130203.35545
                  22280655.3364                                   22280650.0474
                                                                        49.0004
        32.7504
  -2993622.57847  -2290052.99244
                  23618466.5394                                   23618464.0704
                                                                        42.7504
        25.5004
   5727879.58646   4500479.50843
                  24125580.2034                                   24125577.5004
                                                                        41.2504
        22.5004
 09 10  4  0 35 30.0000000  0  9G02G04G05G13G29G10G23G30G25
 -17956484.33248 -13923931.30947
                  20377821.3284                                   20377816.1134
                                                                        52.5004
        43.5004
  -4072583.78148  -3131052.81246
                  21421599.2584                                   21421596.0744
                                                                        51.2504
        39.2504
    -74317.00047    -15303.03145
                  23593136.0784                                   23593132.6994
                                                                        45.0004
        30.5004
 -21699098.30548 -16835684.26246
                  21226817.9144                                   21226814.2234
                                                                        51.5004
        37.0004
  -6357504.51647  -4913683.27745
                  23101484.0554                                   23101482.3674
                                                                        43.5004
        32.0004
  -5461193.10247  -4211909.08645
                  22808843.7814                                   22808840.5274
                                                                        45.2504
        31.2504
  -7961386.48048  -6150896.26645
                  22275602.1334                                   22275596.3404
                                                                        48.5004
        32.7504
  -2994462.41847  -2290707.39544
                  23618306.3674                                   23618304.6564
                                                                        43.2504
        24.5004
   5554271.47746   4365200.51244
                  24092543.9844                                   24092540.9804
                                                                        41.5004
        24.5004
 09 10  4  0 36  0.0000000  0  9G02G04G05G13G29G10G23G30G25
 -18047507.34048 -13994858.35247
                  20360500.1884                                   20360494.8754
                                                                        53.2504
        43.0004
  -4084390.93748  -3140253.21146
                  21419352.3444                                   21419349.1564
                                                                        51.0004
        38.7504
   -268746.35247   -166806.38745
                  23556137.5394                                   23556134.3404
                                                                        44.2504
        32.0004
 -21807964.44948 -16920515.04746
                  21206101.4694                                   21206097.4964
                                                                        51.0004
        36.5004
  -6521678.11747  -5041610.69545
                  23070243.0944                                   23070241.6214
                                                                        43.7504
        32.2504
  -5652153.23847  -4360709.19145
                  22772505.2664                                   22772502.3364
                                                                        45.2504
        31.7504
  -7987392.65248  -6171160.87545
                  22270653.4454                                   22270647.3754
                                                                        48.7504
        32.2504
  -2994855.43747  -2291013.65244
                  23618231.8054                                   23618229.6454
                                                                        44.2504
        25.7504
   5380973.10547   4230162.74644
                  24059566.2734                                   24059563.3914
                                                                        42.5004
        25.2504
 09 10  4  0 36 30.0000000  0  9G02G04G05G13G29G10G23G30G25
 -18137924.77048 -14065313.46947
                  20343294.0234                                   20343288.8444
                                                                        52.7504
        43.2504
  -4095746.69148  -3149101.82846
                  21417191.2814                                   21417188.3554
                                                                        51.0004
        39.2504
   -462963.65247   -318144.52745
                  23519179.0704                                   23519175.6604
                                                                        43.0004
        31.7504
 -21916145.21548 -17004811.75046
                  21185515.3914                                   21185511.3054
                                                                        51.0004
        37.5004
  -6685417.12947  -5169199.55945
                  23039084.7664                                   23039082.6844
                                                                        43.7504
        31.5004
  -5842816.87547  -4509278.29345
                  22736223.2274                                   22736220.3404
                                                                        44.0004
        31.5004
  -8012842.73048  -6190992.15645
                  22265810.3134                                   22265804.0664
                                                                        48.5004
        31.7504
  -2994796.99647  -2290968.20744
                  23618243.2814                                   23618240.9344
                                                                        44.5004
        26.5004
   5207995.77047   4095375.21143
                  24026649.2894                                   24026646.7344
                                                                        42.0004
        22.7504
 09 10  4  0 37  0.0000000  0  9G02G04G05G13G29G10G23G30G25
 -18227737.68448 -14135297.52047
                  20326203.2974                                   20326198.3134
                                                                        53.0004
        43.2504
  -4106654.38748  -3157601.34446
                  21415115.6644                                   21415112.6454
                                                                        50.0004
        39.0004
   -656968.77347   -469317.32845
                  23482261.0164                                   23482257.5234
                                                                        44.5004
        31.5004
 -22023641.88748 -17088575.43446
                  21165059.6254                                   21165055.6914
                                                                        50.5004
        37.0004
  -6848720.32447  -5296448.81245
                  23008009.2664                                   23008007.3284
                                                                        44.2504
        31.2504
  -6033183.66047  -4657615.98445
                  22699997.4384                                   22699994.4104
                                                                        45.7504
        31.5004
  -8037740.27048  -6210392.87945
                  22261072.5704                                   22261066.7544
                                                                        48.0004
        31.7504
  -2994291.42247  -2290574.35944
                  23618339.9534                                   23618337.2974
                                                                        44.7504
        26.7504
   5035340.49247   3960838.62543
                  23993794.5554                                   23993791.4574
                                                                        42.0004
        22.2504
 09 10  4  0 37 30.0000000  0  9G02G04G05G13G29G10G23G30G25
 -18316948.73448 -14204812.64847
                  20309226.7114                                   20309221.5044
                                                                        53.0004
        43.0004
  -4117118.73448  -3165755.41446
                  21413124.1094                                   21413121.3204
                                                                        50.5004
        38.7504
   -850762.14547   -620325.12545
                  23445382.9774                                   23445379.8134
                                                                        43.2504
        31.5004
 -22130456.01248 -17171807.22346
                  21144733.6564                                   21144729.8094
                                                                        50.0004
        37.2504
  -7011588.25047  -5423358.87545
                  22977016.6724                                   22977014.5004
                                                                        43.5004
        31.2504
  -6223254.08247  -4805722.78545
                  22663828.3134                                   22663825.3634
                                                                        45.0004
        32.5004
  -8062090.40248  -6229367.06245
                  22256438.8524                                   22256432.9654
                                                                        48.0004
        32.0004
  -2993344.27047  -2289836.37944
                  23618520.3364                                   23618517.4104
                                                                        45.5004
        26.7504
   4863007.16446   3826552.92243
                  23961000.4924                                   23960997.2974
                                                                        41.0004
        21.5004
 09 10  4  0 38  0.0000000  0  9G02G04G05G13G29G10G23G30G25
 -18405559.68048 -14273860.13747
                  20292364.8444                                   20292359.4964
                                                                        52.2504
        43.0004
  -4127143.92248  -3173567.26246
                  21411216.7194                                   21411214.2154
                                                                        51.5004
        38.7504
  -1044344.27747   -771168.30545
                  23408546.0474                                   23408542.2664
                                                                        43.5004
        30.2504
 -22236589.67248 -17254508.79746
                  21124536.8444                                   21124532.9534
                                                                        50.7504
        36.7504
  -7174021.22747  -5549930.03545
                  22946106.6804                                   22946103.3094
                                                                        44.7504
        32.0004
  -6413028.02747  -4953598.59445
                  22627715.4534                                   22627712.5274
                                                                        45.7504
        33.2504
  -8085897.30948  -6247917.98045
                  22251908.3674                                   22251902.9734
                                                                        48.2504
        31.2504
  -2991961.23847  -2288758.73044
                  23618782.7894                                   23618780.5004
                                                                        44.5004
        25.5004
   4690996.37946   3692518.62943
                  23928267.8834                                   23928264.6954
                                                                        39.5004
        21.0004
 09 10  4  0 38 30.0000000  0  9G02G04G05G13G29G10G23G30G25
 -16918150.49248 -13114839.98047
                  20575409.4694                                   20575404.5904
                                                                        51.7504
        43.7504
  -2561314.58248  -1953440.49246
                  21709184.0474                                   21709181.1884
                                                                        51.2504
        39.0004
    337709.76647    305756.87145
                  23671541.2504                                   23671538.3554
                                                                        42.5004
        31.5004
 -20766621.41448 -16109078.94146
                  21404262.7664                                   21404258.7734
                                                                        51.0004
        37.0004
  -5760594.36347  -4448558.43445
                  23215072.8754                                   23215069.9534
                                                                        43.7504
        30.7504
  -5027080.31247  -3873639.37945
                  22891453.2974                                   22891449.8444
                                                                        45.5004
        32.7504
  -6533745.50448  -5038449.02345
                  22547273.2734                                   22547267.8524
                                                                        48.0004
        32.5004
  -1414728.66447  -1059746.30944
                  23918920.7194                                   23918917.6684
                                                                        44.2504
        26.0004
   6094732.97346   4786339.38343
                  24195389.7424                                   24195387.3164
                                                                        40.2504
        20.5004
 09 10  4  0 39  0.0000000  0  9G02G04G05G13G29G10G23G30G25
 -17005566.50448 -13182956.30947
                  20558774.6804                                   20558769.5634
                                                                        52.0004
        43.0004
  -2570473.41848  -1960577.28546
                  21707441.2194                                   21707437.9924
                                                                        50.0004
        38.7504
    144549.53547    155242.39545
                  23634784.9224                                   23634781.6174
                                                                        44.5004
        32.5004
 -20871397.55548 -16190722.64146
                  21384324.4534                                   21384320.7234
                                                                        50.2504
        37.5004
  -5922155.92647  -4574450.52745
                  23184328.8054                                   23184325.8794
                                                                        43.2504
        30.5004
  -5216261.00847  -4021052.95345
                  22855452.8204                                   22855449.5664
                                                                        46.2504
        32.2504
  -6556478.46148  -5056162.96545
                  22542947.3674                                   22542942.0784
                                                                        48.5004
        32.5004
  -1412489.23047  -1058001.31644
                  23919346.7664                                   23919343.5594
                                                                        44.7504
        26.0004
   5923368.73047   4652808.77743
                  24162780.1484                                   24162776.9774
                                                                        42.0004
        21.5004
 09 10  4  0 39 30.0000000  0  9G02G04G05G13G29G10G23G30G25
 -17092384.02748 -13250606.32447
                  20542253.9924                                   20542248.3954
                                                                        52.5004
        43.2504
  -2579200.96948  -1967377.95346
                  21705780.0004                                   21705777.3984
                                                                        51.5004
        38.7504
    -48396.04747      4895.19145
                  23598068.7274                                   23598065.7974
                                                                        45.5004
        33.0004
 -20975493.36348 -16271836.22746
                  21364515.3914                                   21364511.6914
                                                                        50.5004
        37.5004
  -6083277.79747  -4699999.98845
                  23153667.4614                                   23153666.0314
                                                                        42.7504
        31.2504
  -5405141.39547  -4168232.48445
                  22819510.5004                                   22819507.3984
                                                                        46.5004
        32.2504
  -6578677.40648  -5073460.81645
                  22538722.8984                                   22538717.6914
                                                                        48.0004
        31.7504
  -1409825.91847  -1055926.03544
                  23919853.3444                                   23919850.9264
                                                                        42.5004
        24.5004
   5752332.69947   4519533.99643
                  24130233.6724                                   24130229.5944
                                                                        43.2504
        22.5004
 09 10  4  0 40  0.0000000  0  9G02G04G05G13G29G10G23G30G25
 -17178603.85248 -13317790.58647
                  20525846.7194                                   20525841.5824
                                                                        52.5004
        43.0004
  -2587500.64548  -1973845.21546
                  21704201.0164                                   21704198.1644
                                                                        51.0004
        38.2504
   -241126.19547   -145284.17245
                  23561393.2424                                   23561390.1134
                                                                        45.7504
        32.5004
 -21078909.21148 -16352419.93446
                  21344835.9144                                   21344832.2894
                                                                        50.7504
        37.5004
  -6243958.79747  -4825205.91045
                  23123091.3524                                   23123089.9144
                                                                        43.2504
        32.5004
  -5593720.12947  -4315176.98045
                  22783624.5944                                   22783621.8484
                                                                        46.0004
        31.5004
  -6600345.26248  -5090344.83645
                  22534599.9384                                   22534593.8164
                                                                        48.2504
        32.2504
  -1406742.89147  -1053523.75043
                  23920439.2504                                   23920437.4104
                                                                        42.5004
        22.5004
   5581626.11747   4386515.85244
                  24097749.4384                                   24097745.5984
                                                                        43.7504
        24.0004
 09 10  4  0 40 30.0000000  0  9G02G04G05G13G29G10G23G30G25
 -17264226.10248 -13384509.21547
                  20509553.2584                                   20509548.1684
                                                                        53.0004
        43.2504
  -2595374.86748  -1979980.96146
                  21702702.4614                                   21702699.4884
                                                                        49.7504
        38.5004
   -433639.45347   -295294.53945
                  23524759.3674                                   23524755.8164
                                                                        45.5004
        32.7504
 -21181645.84448 -16432474.39846
                  21325286.1644                                   21325282.0164
                                                                        49.5004
        37.0004
  -6404197.11347  -4950066.87545
                  23092599.1174                                   23092597.4774
                                                                        43.0004
        32.7504
  -5781995.77347  -4461885.26245
                  22747797.1484                                   22747793.8134
                                                                        45.5004
        32.0004
  -6621484.95748  -5106817.36745
                  22530577.3834                                   22530571.2774
                                                                        48.0004
        32.0004
  -1403243.68047  -1050797.13343
                  23921105.7344                                   23921103.1414
                                                                        42.5004
        22.7504
   5411251.34047   4253756.27343
                  24065327.4064                                   24065324.5984
                                                                        42.5004
        22.7504
 09 10  4  0 41  0.0000000  0  9G02G04G05G13G29G10G23G30G25
 -17349250.11748 -13450761.70347
                  20493374.0004                                   20493368.8284
                                                                        53.2504
        43.5004
  -2602825.17248  -1985786.39546
                  21701284.7664                                   21701282.1564
                                                                        51.0004
        38.5004
   -625933.78547   -445134.24645
                  23488166.2424                                   23488163.2304
                                                                        44.2504
        31.0004
 -21283702.13748 -16511998.74246
                  21305865.1644                                   21305861.2974
                                                                        49.7504
        37.0004
  -6563990.27747  -5074580.98445
                  23062191.2664                                   23062188.8404
                                                                        43.0004
        32.2504
  -5969965.86747  -4608355.45745
                  22712027.6254                                   22712024.2934
                                                                        46.0004
        33.2504
  -6642098.32048  -5122879.77345
                  22526654.3054                                   22526648.7584
                                                                        48.0004
        32.0004
  -1399331.32447  -1047748.55944
                  23921850.5004                                   23921848.0474
                                                                        43.0004
        24.5004
   5241211.41446   4121257.62144
                  24032970.8134                                   24032967.6334
                                                                        41.5004
        24.0004
 09 10  4  0 41 30.0000000  0  9G02G04G05G13G29G10G23G30G25
 -17433676.23448 -13516548.26647
                  20477308.0784                                   20477303.0204
                                                                        52.5004
        42.5004
  -2609854.09848  -1991263.48846
                  21699947.1254                                   21699944.4654
                                                                        51.0004
        38.5004
   -818007.70347   -594802.22745
                  23451615.7194                                   23451612.6454
                                                                        45.0004
        31.5004
 -21385077.57848 -16590992.64546
                  21286574.3134                                   21286570.1994
                                                                        49.2504
        37.5004
  -6723336.15647  -5198746.52345
                  23031868.6954                                   23031866.0274
                                                                        44.0004
        32.7504
  -6157629.13747  -4754586.61745
                  22676316.7114                                   22676313.9104
                                                                        46.2504
        34.0004
  -6662187.83248  -5138533.94945
                  22522831.3914                                   22522826.1914
                                                                        48.0004
        31.0004
  -1395009.27747  -1044380.75444
                  23922673.5084                                   23922670.3204
                                                                        43.2504
        24.5004
   5071508.52346   3989021.62943
                  24000676.5944                                   24000674.4804
                                                                        41.2504
        22.0004
 09 10  4  0 42  0.0000000  0  9G02G04G05G13G29G10G23G30G25
 -17517504.18748 -13581868.75447
                  20461356.2114                                   20461350.5944
                                                                        52.0004
        42.7504
  -2616463.30148  -1996413.51646
                  21698689.7504                                   21698686.8484
                                                                        50.5004
        38.7504
  -1009858.91047   -744296.74245
                  23415108.2504                                   23415104.1844
                                                                        45.5004
        32.0004
 -21485772.30548 -16669456.05546
                  21267412.5554                                   21267408.5744
                                                                        49.5004
        37.2504
  -6882232.88347  -5322562.17245
                  23001631.7424                                   23001629.1334
                                                                        43.7504
        31.7504
  -6344983.59847  -4900577.18445
                  22640664.1094                                   22640661.3794
                                                                        45.5004
        33.7504
  -6681755.52747  -5153781.45345
                  22519107.4924                                   22519102.1484
                                                                        47.5004
        31.0004
  -1390280.80947  -1040696.18443
                  23923572.7814                                   23923569.8594
                                                                        42.2504
        23.7504
   4902145.33646   3857050.30544
                  23968447.9304                                   23968445.6684
                                                                        41.5004
        24.5004
 09 10  4  0 42 30.0000000  0  9G02G04G05G13G29G10G23G30G25
 -17600733.51248 -13646722.78947
                  20445518.1484                                   20445512.8014
                                                                        53.0004
        43.0004
  -2622654.46948  -2001237.80946
                  21697511.4384                                   21697508.5274
                                                                        50.0004
        38.7504
  -1201485.20747   -893615.92245
                  23378642.9224                                   23378639.5594
                                                                        46.0004
        32.2504
 -21585785.17248 -16747388.08246
                  21248380.4384                                   21248376.7974
                                                                        49.0004
        37.2504
  -7040677.25047  -5446025.27745
                  22971480.8674                                   22971478.3484
                                                                        44.2504
        32.0004
  -6532025.77347  -5046324.36745
                  22605071.3054                                   22605068.0394
                                                                        45.2504
        33.5004
  -6700803.84047  -5168624.34445
                  22515483.0864                                   22515477.1334
                                                                        47.0004
        31.2504
  -1385148.87947  -1036697.29744
                  23924549.4454                                   23924546.6684
                                                                        43.0004
        24.7504
   4733124.96947   3725346.10243
                  23936285.0314                                   23936281.7734
                                                                        42.5004
        22.7504
 09 10  4  0 43  0.0000000  0  9G02G04G05G13G29G10G23G30G25
 -17683360.90648 -13711107.78947
                  20429794.8364                                   20429789.2384
                                                                        52.7504
        43.0004
  -2628426.93748  -2005735.89546
                  21696413.1724                                   21696410.1484
                                                                        48.5004
        38.0004
  -1392881.75847  -1042755.97345
                  23342221.3674                                   23342218.2734
                                                                        45.2504
        33.5004
 -21685112.95348 -16824786.31646
                  21229478.8594                                   21229475.7234
                                                                        49.0004
        37.5004
  -7198664.51247  -5569132.19945
                  22941416.5704                                   22941413.6764
                                                                        43.5004
        31.0004
  -6718751.03547  -5191824.51645
                  22569538.6414                                   22569535.5704
                                                                        45.0004
        33.0004
  -6719331.74247  -5183061.62145
                  22511957.4844                                   22511951.2234
                                                                        47.0004
        31.5004
  -1379613.57047  -1032384.09844
                  23925603.1644                                   23925600.0744
                                                                        43.0004
        24.7504
   4564453.05946   3593913.48044
                  23904187.4064                                   23904184.1604
                                                                        41.7504
        24.7504
 09 10  4  0 43 30.0000000  0  9G02G04G05G13G29G10G23G30G25
 -17765387.14848 -13775024.32847
                  20414185.8364                                   20414180.6524
                                                                        51.2504
        43.0004
  -2633783.49248  -2009909.87946
                  21695393.6024                                   21695390.5594
                                                                        50.2504
        38.0004
  -1584047.77347  -1191716.43045
                  23305843.4144                                   23305840.7544
                                                                        45.5004
        33.5004
 -21783755.34448 -16901650.48846
                  21210708.0704                                   21210704.0084
                                                                        49.0004
        36.7504
  -7356193.29747  -5691881.87145
                  22911440.0164                                   22911437.5634
                                                                        44.2504
        31.7504
  -6905158.10547  -5337076.67245
                  22534066.4774                                   22534063.5274
                                                                        45.2504
        32.2504
  -6737342.49647  -5197095.98445
                  22508530.0634                                   22508524.5164
                                                                        46.5004
        30.7504
  -1373679.34446  -1027760.00044
                  23926732.4924                                   23926729.3014
                                                                        41.2504
        27.2504
   4396131.15247   3462753.54343
                  23872157.2504                                   23872153.2894
                                                                        42.0004
        22.0004
 09 10  4  0 44  0.0000000  0  9G02G04G05G13G29G10G23G30G25
 -17846814.21948 -13838474.00447
                  20398690.6094                                   20398685.4804
                                                                        52.2504
        42.7504
  -2638727.86348  -2013762.72346
                  21694453.1094                                   21694449.9144
                                                                        49.7504
        38.0004
  -1774982.92647  -1340497.03545
                  23269509.2974                                   23269506.3754
                                                                        45.5004
        32.7504
 -21881715.41848 -16977982.97746
                  21192067.0554                                   21192063.0164
                                                                        48.5004
        37.0004
  -7513263.16447  -5814273.96145
                  22881551.0004                                   22881548.1214
                                                                        44.7504
        32.2504
  -7091247.10947  -5482081.12545
                  22498654.9694                                   22498651.5314
                                                                        45.2504
        34.0004
  -6754840.21547  -5210730.57445
                  22505200.3284                                   22505194.8404
                                                                        47.5004
        32.0004
  -1367350.98046  -1022828.81644
                  23927936.1254                                   23927933.7424
                                                                        41.7504
        24.5004
   4228160.22746   3331867.11343
                  23840193.1804                                   23840189.6804
                                                                        41.2504
        22.5004
 09 10  4  0 44 30.0000000  0  9G02G04G05G13G29G10G23G30G25
 -17927641.32048 -13901456.16847
                  20383309.7664                                   20383304.5864
                                                                        52.5004
        42.7504
  -2643261.41048  -2017295.37146
                  21693590.2344                                   21693587.5204
                                                                        50.0004
        37.7504
  -1965685.31247  -1489096.30145
                  23233219.9694                                   23233216.7854
                                                                        44.5004
        31.7504
 -21978991.42248 -17053782.42646
                  21173555.8134                                   21173551.9924
                                                                        48.7504
        37.2504
  -7669871.28947  -5936306.21145
                  22851748.6484                                   22851746.4454
                                                                        44.0004
        32.5004
  -7277015.33247  -5626835.56645
                  22463304.2894                                   22463301.4264
                                                                        45.7504
        33.5004
  -6771826.78547  -5223966.90245
                  22501968.2424                                   22501962.1564
                                                                        47.2504
        32.0004
  -1360631.23446  -1017592.64543
                  23929214.6024                                   23929212.7194
                                                                        41.0004
        23.0004
   4060543.27747   3201256.54343
                  23808296.7424                                   23808293.5594
                                                                        42.2504
        22.7504
 09 10  4  0 45  0.0000000  0  9G02G04G05G13G29G10G23G30G25
 -18007867.27348 -13963969.93047
                  20368043.3754                                   20368037.9574
                                                                        52.0004
        42.7504
  -2647384.93048  -2020508.52746
                  21692805.6724                                   21692802.6954
                                                                        50.5004
        38.5004
  -2156150.93047  -1637511.00045
                  23196976.0864                                   23196972.1174
                                                                        46.0004
        32.2504
 -22075581.64148 -17129047.51646
                  21155175.4064                                   21155171.6484
                                                                        49.2504
        37.2504
  -7826014.17647  -6057975.97745
                  22822036.2584                                   22822034.1604
                                                                        44.5004
        33.0004
  -7462459.54747  -5771337.64145
                  22428015.5554                                   22428012.3714
                                                                        46.5004
        34.0004
  -6788303.21947  -5236805.69545
                  22498832.7584                                   22498827.0394
                                                                        47.0004
        31.0004
  -1353522.06646  -1012053.08244
                  23930567.3754                                   23930565.1524
                                                                        39.5004
        24.0004
   3893284.16046   3070924.80143
                  23776467.7034                                   23776465.6644
                                                                        39.5004
        22.7504
 09 10  4  0 45 30.0000000  0  9G02G04G05G13G29G10G23G30G25
 -18087492.62148 -14026015.62947
                  20352891.1094                                   20352885.7664
                                                                        52.2504
        42.5004
  -2651101.44548  -2023404.55546
                  21692098.3524                                   21692095.5904
                                                                        49.2504
        38.0004
  -2346379.62547  -1785741.21145
                  23160776.8754                                   23160773.1094
                                                                        47.0004
        33.2504
 -22171487.80148 -17203779.62546
                  21136924.8364                                   21136920.9184
                                                                        49.2504
        37.5004
  -7981690.91847  -6179282.52345
                  22792411.5004                                   22792409.2584
                                                                        45.5004
        33.2504
  -7647578.20347  -5915585.98845
                  22392788.6884                                   22392785.6844
                                                                        45.7504
        34.0004
  -6804272.56647  -5249249.34045
                  22495793.5944                                   22495788.4734
                                                                        46.5004
        31.0004
  -1346027.51247  -1006213.18743
                  23931993.9064                                   23931991.7934
                                                                        42.0004
        22.0004
   3726384.62946   2940873.33243
                  23744708.0864                                   23744705.5434
                                                                        40.0004
        23.5004
 09 10  4  0 46  0.0000000  0  9G02G04G05G13G29G10G23G30G25
 -18166517.10248 -14087593.12947
                  20337853.1334                                   20337847.8634
                                                                        52.0004
        42.7504
  -2654412.75448  -2025984.75446
                  21691468.1564                                   21691464.9454
                                                                        49.2504
        38.0004
  -2536369.26247  -1933785.23845
                  23124622.8754                                   23124618.9494
                                                                        47.0004
        33.0004
 -22266708.88748 -17277977.89846
                  21118804.8914                                   21118801.0864
                                                                        48.7504
        37.0004
  -8136898.98447  -6300223.83645
                  22762876.7344                                   22762874.6644
                                                                        45.2504
        33.5004
  -7832369.25047  -6059579.02045
                  22357623.9844                                   22357621.0944
                                                                        46.5004
        33.5004
  -6819737.39547  -5261299.89545
                  22492850.9534                                   22492845.4614
                                                                        46.5004
        31.0004
  -1338150.77747  -1000075.41843
                  23933492.6024                                   23933490.0704
                                                                        43.0004
        23.7504
   3559847.14146   2811103.87544
                  23713016.9384                                   23713014.4614
                                                                        40.7504
        25.5004
 09 10  4  0 46 30.0000000  0  9G02G04G05G13G29G10G23G30G25
 -18244941.40648 -14148702.94547
                  20322929.5784                                   20322924.2114
                                                                        52.2504
        42.7504
  -2657321.59848  -2028251.44146
                  21690914.8134                                   21690911.6214
                                                                        50.0004
        37.5004
  -2726117.96547  -2081641.46145
                  23088514.8444                                   23088511.4614
                                                                        47.0004
        33.7504
 -22361244.82448 -17351642.32046
                  21100815.7584                                   21100811.8484
                                                                        49.2504
        36.5004
  -8291636.59047  -6420798.53945
                  22733431.2424                                   22733428.6254
                                                                        46.5004
        34.0004
  -8016830.98447  -6203315.44145
                  22322522.3364                                   22322519.5354
                                                                        46.2504
        33.7504
  -6834700.26247  -5272959.24245
                  22490003.4144                                   22489997.6134
                                                                        46.7504
        30.7504
  -1329895.78547   -993642.93043
                  23935063.9844                                   23935061.3204
                                                                        43.5004
        22.2504
   3393674.19546   2681618.52044
                  23681395.6334                                   23681392.7274
                                                                        41.5004
        26.0004
 09 10  4  0 47  0.0000000  0  9G02G04G05G13G29G10G23G30G25
 -18322764.22748 -14209344.02747
                  20308120.3754                                   20308114.8714
                                                                        51.5004
        42.5004
  -2659828.27048  -2030204.71546
                  21690437.5864                                   21690434.8364
                                                                        49.5004
        37.5004
  -2915622.37947  -2229307.19545
                  23052453.3284                                   23052450.1644
                                                                        46.2504
        33.5004
 -22455094.70348 -17424772.14546
                  21082956.7584                                   21082952.9534
                                                                        49.2504
        37.0004
  -8445900.34047  -6541004.04345
                  22704075.4844                                   22704073.2974
                                                                        45.5004
        33.7504
  -8200960.05147  -6346792.67245
                  22287483.9454                                   22287480.7544
                                                                        46.7504
        33.5004
  -6849162.08247  -5284228.13745
                  22487250.8834                                   22487246.3244
                                                                        46.5004
        31.0004
  -1321264.12947   -986916.88743
                  23936706.5314                                   23936703.3014
                                                                        43.7504
        22.5004
   3227869.55146   2552420.10544
                  23649844.6724                                   23649841.0084
                                                                        41.2504
        26.2504
 09 10  4  0 47 30.0000000  0  9G02G04G05G13G29G10G23G30G25
 -16824565.16848 -13041916.15647
                  20593218.0864                                   20593212.5394
                                                                        52.2504
        42.7504
  -1086517.33248   -804248.19146
                  21989828.9304                                   21989825.8014
                                                                        50.5004
        38.0004
  -1529456.84447  -1149178.15645
                  23316231.6644                                   23316228.7504
                                                                        46.5004
        33.5004
 -20972836.87948 -16269766.03146
                  21365020.8444                                   21365017.0124
                                                                        49.2504
        37.0004
  -7024265.03147  -5433236.25845
                  22974603.9614                                   22974601.2934
                                                                        45.5004
        34.0004
  -6809330.68447  -5262406.12545
                  22552302.1724                                   22552298.6844
                                                                        47.2504
        33.5004
  -5287707.25047  -4067510.08645
                  22784386.3914                                   22784380.7464
                                                                        46.7504
        30.2504
    263157.86347    247697.70744
                  24238211.3674                                   24238208.6134
                                                                        43.5004
        24.2504
   4637858.98447   3651113.18844
                  23918156.8134                                   23918152.5944
                                                                        43.0004
        24.0004
 09 10  4  0 48  0.0000000  0  9G02G04G05G13G29G10G23G30G25
 -16901187.31648 -13101621.71947
                  20578637.3524                                   20578631.9064
                                                                        51.5004
        43.0004
  -1088228.63748   -805581.69146
                  21989503.4144                                   21989500.3094
                                                                        50.5004
        37.7504
  -1718469.84447  -1296461.02345
                  23280263.8134                                   23280260.5354
                                                                        47.5004
        34.0004
 -21065315.99648 -16341827.68046
                  21347422.5004                                   21347418.6884
                                                                        50.2504
        36.7504
  -7177576.73847  -5552699.91045
                  22945429.2814                                   22945426.9654
                                                                        45.2504
        33.5004
  -6992790.38347  -5405361.71945
                  22517390.3834                                   22517387.4104
                                                                        46.0004
        33.7504
  -5301176.89547  -4078005.92644
                  22781823.2814                                   22781817.9344
                                                                        45.0004
        29.5004
    272529.29347    254999.87543
                  24239995.3054                                   24239992.6644
                                                                        42.5004
        23.7504
   4472796.34046   3522492.90244
                  23886746.1954                                   23886742.2974
                                                                        41.7504
        25.0004
 09 10  4  0 48 30.0000000  0  9G02G04G05G13G29G10G23G30G25
 -16977206.99248 -13160857.84047
                  20564171.2734                                   20564166.1374
                                                                        51.7504
        43.0004
  -1089543.46948   -806606.24246
                  21989253.1954                                   21989250.4414
                                                                        50.0004
        37.7504
  -1907232.34847  -1443548.64845
                  23244343.9924                                   23244340.4144
                                                                        46.5004
        33.7504
 -21157107.64148 -16413353.61346
                  21329955.2424                                   21329951.0514
                                                                        50.0004
        37.0004
  -7330407.48047  -5671788.74245
                  22916346.8284                                   22916343.9344
                                                                        43.5004
        33.0004
  -7175910.65247  -5548052.86345
                  22482544.2814                                   22482541.1564
                                                                        46.0004
        34.5004
  -5314152.32047  -4088116.62945
                  22779354.2114                                   22779348.0164
                                                                        47.0004
        30.0004
    282268.75446    262589.04343
                  24241847.8674                                   24241845.7504
                                                                        40.7504
        22.0004
   4308110.25446   3394165.99243
                  23855407.2584                                   23855403.1844
                                                                        41.2504
        22.5004
 09 10  4  0 49  0.0000000  0  9G02G04G05G13G29G10G23G30G25
 -17052625.31248 -13219625.44947
                  20549819.5394                                   20549814.1804
                                                                        52.0004
        42.5004
  -1090464.18048   -807323.74246
                  21989077.9384                                   21989075.4534
                                                                        50.0004
        38.0004
  -2095742.97748  -1590440.05545
                  23208471.4384                                   23208468.2424
                                                                        48.5004
        34.5004
 -21248211.44548 -16484343.59446
                  21312619.0634                                   21312614.8404
                                                                        49.0004
        37.0004
  -7482755.35547  -5790501.38745
                  22887356.0394                                   22887353.2624
                                                                        44.5004
        31.7504
  -7358689.55547  -5690477.99645
                  22447762.1884                                   22447759.4144
                                                                        45.5004
        34.2504
  -5326635.73847  -4097843.91045
                  22776978.3594                                   22776972.9344
                                                                        46.5004
        30.2504
    292372.12146    270461.75843
                  24243770.9304                                   24243768.6844
                                                                        41.7504
        22.0004
   4143803.17246   3266134.48843
                  23824139.8674                                   23824136.4534
                                                                        41.5004
        22.5004
 09 10  4  0 49 30.0000000  0  9G02G04G05G13G29G10G23G30G25
 -17127437.16848 -13277920.47747
                  20535583.4694                                   20535578.3284
                                                                        51.7504
        42.5004
  -1090988.29348   -807732.19546
                  21988978.5634                                   21988975.5514
                                                                        50.2504
        37.5004
  -2283994.73447  -1737129.76645
                  23172648.2034                                   23172644.5204
                                                                        47.2504
        33.2504
 -21338624.64848 -16554795.44946
                  21295413.8834                                   21295409.8284
                                                                        49.5004
        36.7504
  -7634613.50047  -5908832.35945
                  22858458.3444                                   22858455.4104
                                                                        45.2504
        33.0004
  -7541120.50847  -5832632.00045
                  22413046.8364                                   22413044.2624
                                                                        45.7504
        34.5004
  -5338625.35547  -4107186.42644
                  22774697.1254                                   22774690.6844
                                                                        47.0004
        29.2504
    302840.35947    278618.77343
                  24245763.2344                                   24245760.3284
                                                                        42.5004
        22.5004
   3979882.06346   3138403.73443
                  23792946.9614                                   23792943.7584
                                                                        41.0004
        22.5004
 09 10  4  0 50  0.0000000  0  9G02G04G05G13G29G10G23G30G25
 -17201645.04348 -13335744.76647
                  20521462.2194                                   20521457.0204
                                                                        52.2504
        43.0004
  -1091120.08248   -807834.89546
                  21988952.8444                                   21988950.3674
                                                                        50.0004
        37.5004
  -2471988.79348  -1883618.70345
                  23136874.0944                                   23136870.7034
                                                                        48.0004
        33.5004
 -21428348.35248 -16624710.02746
                  21278339.6954                                   21278335.9924
                                                                        49.2504
        36.7504
  -7785982.65247  -6026782.34845
                  22829653.3834                                   22829650.9964
                                                                        45.2504
        32.5004
  -7723203.81247  -5974515.12145
                  22378397.7814                                   22378394.9614
                                                                        46.0004
        34.5004
  -5350126.14547  -4116148.08645
                  22772508.3364                                   22772502.7624
                                                                        45.7504
        30.0004
    313668.04747    287055.96544
                  24247823.5704                                   24247821.2854
                                                                        43.5004
        24.2504
   3816347.42647   3010974.22344
                  23761827.0864                                   23761824.4344
                                                                        42.2504
        26.0004
 09 10  4  0 50 30.0000000  0  8G02G04G05G13G29G10G23G25
 -17275252.73448 -13393101.40647
                  20507455.3524                                   20507449.8524
                                                                        51.5004
        43.0004
  -1090865.32848   -807636.39846
                  21989001.7034                                   21988998.5514
                                                                        49.7504
        37.2504
  -2659726.21547  -2029907.59045
                  23101148.8134                                   23101145.7234
                                                                        47.0004
        33.7504
 -21517385.76248 -16694089.83246
                  21261396.5704                                   21261392.6684
                                                                        48.0004
        36.2504
  -7936863.91447  -6144352.12945
                  22800941.8054                                   22800939.3444
                                                                        44.2504
        33.5004
  -7904940.77347  -6116128.34045
                  22343814.4384                                   22343811.6024
                                                                        46.0004
        34.2504
  -5361143.66447  -4124733.14545
                  22770411.8284                                   22770406.3444
                                                                        44.5004
        30.5004
   3653197.88747   2883844.72744
                  23730781.4844                                   23730778.2934
                                                                        43.5004
        25.0004
 09 10  4  0 51  0.0000000  0  8G02G04G05G13G29G10G23G25
 -17348258.27348 -13449988.86347
                  20493562.7504                                   20493557.3834
                                                                        51.2504
        43.2504
  -1090223.75848   -807136.46946
                  21989123.7894                                   21989121.0044
                                                                        49.0004
        37.2504
  -2847203.48047  -2175993.78145
                  23065473.1884                                   23065469.7384
                                                                        46.5004
        33.7504
 -21605735.59048 -16762933.87146
                  21244584.3594                                   21244580.0664
                                                                        49.7504
        37.0004
  -8087253.12547  -6261538.49645
                  22772324.2974                                   22772321.1604
                                                                        46.2504
        34.2504
  -8086327.40247  -6257468.55945
                  22309298.0164                                   22309295.0164
                                                                        47.2504
        35.0004
  -5371678.61347  -4132942.23045
                  22768406.7504                                   22768401.5554
                                                                        43.5004
        30.0004
   3490438.24647   2757019.01244
                  23699809.6724                                   23699806.1684
                                                                        44.2504
        25.7504
 09 10  4  0 51 30.0000000  0  8G02G04G05G13G29G10G23G25
 -17420661.37948 -13506406.82047
                  20479784.9064                                   20479779.5984
                                                                        51.7504
        42.5004
  -1089197.38748   -806336.68446
                  21989319.0004                                   21989316.4414
                                                                        49.0004
        37.0004
  -3034417.96547  -2321875.21545
                  23029847.5864                                   23029844.2624
                                                                        47.0004
        35.5004
 -21693397.03548 -16831241.49646
                  21227902.8134                                   21227898.6024
                                                                        49.5004
        36.2504
  -8237147.87147  -6378339.59845
                  22743799.6564                                   22743797.4924
                                                                        46.5004
        34.2504
  -8267361.25447  -6398533.89545
                  22274848.0164                                   22274844.6764
                                                                        47.2504
        35.0004
  -5381732.87947  -4140776.70745
                  22766493.6024                                   22766488.0864
                                                                        43.2504
        30.0004
   3328071.27347   2630499.30544
                  23668911.9384                                   23668908.8404
                                                                        44.2504
        27.0004
 09 10  4  0 52  0.0000000  0  8G02G04G05G13G29G10G23G25
 -17492457.99248 -13562352.21147
                  20466122.3834                                   20466116.8444
                                                                        52.5004
        42.5004
  -1087783.66448   -805235.06246
                  21989588.0474                                   21989585.1174
                                                                        48.7504
        36.7504
  -3221363.42247  -2467547.05145
                  22994273.3134                                   22994269.8794
                                                                        47.5004
        34.7504
 -21780366.02748 -16899009.60946
                  21211353.0554                                   21211349.5274
                                                                        49.0004
        37.5004
  -8386541.58247  -6494750.26245
                  22715371.2114                                   22715368.6174
                                                                        47.0004
        34.0004
  -8448035.94547  -6539319.37145
                  22240467.0394                                   22240463.4534
                                                                        47.0004
        34.2504
  -5391304.39547  -4148235.00844
                  22764672.5784                                   22764667.1684
                                                                        44.5004
        29.0004
   3166103.79747   2504290.81344
                  23638090.7894                                   23638087.3324
                                                                        43.7504
        27.0004
 09 10  4  0 52 30.0000000  0  8G02G04G05G13G29G10G23G25
 -17563646.27748 -13617823.63747
                  20452575.6414                                   20452570.5514
                                                                        52.2504
        42.7504
  -1085983.07448   -803832.04346
                  21989930.7034                                   21989927.6294
                                                                        48.0004
        36.7504
  -3408035.97347  -2613006.19945
                  22958750.5084                                   22958746.9804
                                                                        46.2504
        34.5004
 -21866640.98448 -16966236.85546
                  21194935.4534                                   21194931.9184
                                                                        49.5004
        37.7504
  -8535430.48447  -6610767.53945
                  22687038.2584                                   22687035.9614
                                                                        45.7504
        35.0004
  -8628347.55547  -6679821.93745
                  22206154.5314                                   22206151.3914
                                                                        46.7504
        34.5004
  -5400394.15247  -4155317.93045
                  22762942.8204                                   22762937.0704
                                                                        44.5004
        30.2504
   3004540.20747   2378397.03544
                  23607346.2194                                   23607342.4654
                                                                        43.0004
        25.0004
 09 10  4  0 53  0.0000000  0  8G02G04G05G13G29G10G23G25
 -17634231.85548 -13672825.37547
                  20439143.8524                                   20439138.2974
                                                                        52.0004
        43.0004
  -1083802.98448   -802133.29746
                  21990345.6954                                   21990342.7934
                                                                        49.7504
        37.2504
  -3594439.48047  -2758255.71545
                  22923278.3674                                   22923275.2584
                                                                        46.5004
        34.0004
 -21952227.04748 -17032927.32446
                  21178649.1804                                   21178645.2464
                                                                        49.7504
        37.2504
  -8683818.15647  -6726394.29345
                  22658800.8204                                   22658798.9104
                                                                        45.5004
        34.5004
  -8808299.82047  -6820044.52745
                  22171910.2504                                   22171907.8284
                                                                        47.0004
        34.5004
  -5409010.12947  -4162031.73844
                  22761303.2274                                   22761297.5634
                                                                        45.0004
        29.5004
   2843377.81647   2252816.00044
                  23576677.9844                                   23576674.3014
                                                                        42.0004
        25.5004
 09 10  4  0 53 30.0000000  0  8G02G04G05G13G29G10G23G25
 -17704218.93048 -13727360.77347
                  20425825.7034                                   20425820.4104
                                                                        52.0004
        42.5004
  -1081249.19948   -800143.36346
                  21990831.3134                                   21990828.3754
                                                                        48.2504
        36.7504
  -3780575.60547  -2903296.88745
                  22887857.7814                                   22887855.0824
                                                                        46.2504
        34.7504
 -22037128.57048 -17099084.37946
                  21162492.8444                                   21162488.9264
                                                                        49.2504
        37.0004
  -8831705.99647  -6841631.58645
                  22630658.7504                                   22630656.3364
                                                                        45.7504
        33.5004
  -8987893.62147  -6959987.72746
                  22137735.6724                                   22137732.3014
                                                                        46.5004
        36.2504
  -5417158.48847  -4168381.17644
                  22759752.7584                                   22759746.8284
                                                                        45.7504
        29.0004
   2682615.09046   2127546.36343
                  23546085.7034                                   23546082.0704
                                                                        41.7504
        22.5004
 09 10  4  0 54  0.0000000  0  8G02G04G05G13G29G10G23G25
 -17773609.94948 -13781431.67247
                  20412620.8914                                   20412615.6804
                                                                        52.0004
        42.7504
  -1078326.09447   -797865.62946
                  21991387.6094                                   21991384.6644
                                                                        47.5004
        37.0004
  -3966444.85547  -3048130.12545
                  22852488.6644                                   22852485.2544
                                                                        47.0004
        34.7504
 -22121348.05548 -17164709.98046
                  21146466.5944                                   21146462.7854
                                                                        50.0004
        37.2504
  -8979094.14547  -6956479.36745
                  22602611.9774                                   22602609.1884
                                                                        45.5004
        33.5004
  -9167129.73447  -7099652.25045
                  22103627.5474                                   22103625.0164
                                                                        47.0004
        35.7504
  -5424843.52747  -4174369.48044
                  22758290.2664                                   22758284.2234
                                                                        46.2504
        29.5004
   2522252.30547   2002588.38743
                  23515569.5784                                   23515566.1804
                                                                        42.5004
        22.7504
 09 10  4  0 54 30.0000000  0  8G02G04G05G13G29G10G23G25
 -17842405.32048 -13835038.44147
                  20399529.5704                                   20399524.1644
                                                                        50.7504
        43.0004
  -1075036.16848   -795302.08246
                  21992014.0784                                   21992010.8594
                                                                        48.0004
        36.5004
  -4152045.38347  -3192753.84845
                  22817170.2194                                   22817167.1454
                                                                        46.7504
        35.5004
 -22204885.84848 -17229804.37946
                  21130570.0314                                   21130566.0744
                                                                        50.0004
        37.7504
  -9125981.26247  -7070936.82045
                  22574660.2584                                   22574657.4384
                                                                        45.7504
        34.0004
  -9346006.28147  -7239036.58645
                  22069588.8134                                   22069586.0274
                                                                        46.7504
        35.5004
  -5432068.28547  -4179999.09444
                  22756915.2034                                   22756909.2704
                                                                        43.5004
        28.7504
   2362291.52047   1877943.59444
                  23485130.3364                                   23485126.7114
                                                                        42.2504
        24.5004
 09 10  4  0 55  0.0000000  0  8G02G04G05G13G29G10G23G25
 -17910605.25048 -13888181.23447
                  20386551.4144                                   20386546.4264
                                                                        51.5004
        42.7504
  -1071381.48048   -792454.29746
                  21992709.4144                                   21992706.5004
                                                                        49.0004
        36.5004
  -4337375.35547  -3337166.84846
                  22781903.1884                                   22781899.6994
                                                                        47.0004
        36.0004
 -22287741.90248 -17294367.53146
                  21114802.7274                                   21114799.0634
                                                                        50.7504
        37.0004
  -9272365.13347  -7185002.17245
                  22546804.5944                                   22546801.4804
                                                                        45.7504
        33.7504
  -9524521.13347  -7378139.08645
                  22035618.5634                                   22035615.4264
                                                                        47.2504
        35.2504
  -5438835.12947  -4185271.96944
                  22755627.5234                                   22755621.6174
                                                                        44.0004
        28.7504
   2202735.41847   1753614.19144
                  23454767.7424                                   23454764.9304
                                                                        42.5004
        25.5004
 09 10  4  0 55 30.0000000  0  8G02G04G05G13G29G10G23G25
 -17978212.50848 -13940862.18747
                  20373686.3204                                   20373681.0434
                                                                        51.2504
        43.2504
  -1067366.15248   -789325.46546
                  21993473.4694                                   21993470.5594
                                                                        50.2504
        36.7504
  -4522435.14847  -3481369.26645
                  22746687.7194                                   22746684.5904
                                                                        46.7504
        35.7504
 -22369919.00448 -17358401.60946
                  21099164.9064                                   21099160.9384
                                                                        49.7504
        37.2504
  -9418246.10247  -7298675.64845
                  22519044.0784                                   22519041.3204
                                                                        47.0004
        34.0004
  -9702674.73447  -7516960.06246
                  22001716.9534                                   22001714.0864
                                                                        47.5004
        36.2504
  -5445149.09447  -4190191.93744
                  22754426.0234                                   22754420.4694
                                                                        44.5004
        29.5004
   2043583.85547   1629599.94144
                  23424481.9064                                   23424478.9384
                                                                        42.0004
        27.5004
 09 10  4  0 56  0.0000000  0  8G02G04G05G13G29G10G23G25
 -18045229.29348 -13993083.04747
                  20360933.6024                                   20360928.3634
                                                                        51.5004
        43.0004
  -1062994.40648   -785918.87946
                  21994305.4534                                   21994302.9304
                                                                        49.5004
        36.5004
  -4707224.83247  -3625361.19145
                  22711522.7194                                   22711519.6724
                                                                        44.7504
        35.5004
 -22451419.43048 -17421908.36346
                  21083655.7034                                   21083651.6454
                                                                        51.0004
        37.2504
  -9563624.02047  -7411957.10945
                  22491379.3674                                   22491377.0984
                                                                        46.5004
        34.0004
  -9880466.80547  -7655499.28945
                  21967884.2194                                   21967881.2504
                                                                        47.0004
        35.0004
  -5451014.71547  -4194762.58644
                  22753309.5004                                   22753304.4494
                                                                        45.0004
        28.7504
   1884837.64847   1505901.57044
                  23394273.6414                                   23394270.8554
                                                                        42.0004
        27.2504
 09 10  4  0 56 30.0000000  0  8G02G04G05G13G29G10G23G25
 -18111651.68748 -14044840.69947
                  20348293.7274                                   20348288.4224
                                                                        51.2504
        42.5004
  -1058264.08648   -782232.85546
                  21995205.7344                                   21995202.3674
                                                                        49.0004
        36.5004
  -4891738.44947  -3769138.02745
                  22676411.0084                                   22676408.1994
                                                                        45.5004
        35.0004
 -22532239.58248 -17484885.26646
                  21068276.5084                                   21068272.6684
                                                                        51.0004
        37.0004
  -9708492.89147  -7524841.94945
                  22463811.7894                                   22463809.3094
                                                                        46.7504
        34.0004
 -10057891.08247  -7793751.91045
                  21934121.2734                                   21934118.4024
                                                                        47.0004
        35.0004
  -5456430.15247  -4198982.41844
                  22752279.2034                                   22752273.4614
                                                                        44.5004
        28.7504
   1726503.41446   1382524.22744
                  23364144.0864                                   23364140.4104
                                                                        41.7504
        26.7504
 09 10  4  0 57  0.0000000  0  8G02G04G05G13G29G10G23G25
 -16602058.64148 -12868534.37947
                  20635559.4924                                   20635554.4024
                                                                        51.2504
        43.2504
    522241.76248    449330.12546
                  22295965.6954                                   22295962.9064
                                                                        48.5004
        36.0004
  -3500547.98847  -2685093.42645
                  22941145.5784                                   22941142.7194
                                                                        46.0004
        35.2504
 -21036957.01648 -16319729.81646
                  21352819.3444                                   21352815.1134
                                                                        51.5004
        37.2504
  -8277426.49647  -6409725.28945
                  22736134.7114                                   22736132.5314
                                                                        46.5004
        34.5004
  -8659520.45347  -6704112.46546
                  22200222.8674                                   22200219.3404
                                                                        47.7504
        36.0004
  -3885978.34847  -2975253.71544
                  23051126.6254                                   23051121.1374
                                                                        45.7504
        29.0004
   3144008.07846   2487073.30944
                  23633885.6884                                   23633883.0044
                                                                        41.7504
        26.0004
 09 10  4  0 57 30.0000000  0  8G02G04G05G13G29G10G23G25
 -16667294.94148 -12919367.85547
                  20623145.4924                                   20623140.3164
                                                                        51.7504
        42.7504
    527681.02348    453568.46546
                  22297000.7424                                   22296998.2934
                                                                        49.2504
        36.0004
  -3684504.55547  -2828436.12945
                  22906139.7504                                   22906136.6564
                                                                        47.2504
        34.7504
 -21116418.28148 -16381647.63746
                  21337698.0864                                   21337694.1024
                                                                        51.2504
        37.2504
  -8421272.58247  -6521813.14545
                  22708761.4924                                   22708759.5004
                                                                        46.7504
        34.5004
  -8836205.12947  -6841788.84445
                  22166600.7734                                   22166597.6334
                                                                        47.0004
        35.7504
  -3890502.62547  -2978779.12144
                  23050265.5704                                   23050260.2664
                                                                        46.0004
        29.5004
   2986503.21546   2364342.22744
                  23603913.4844                                   23603910.3914
                                                                        41.7504
        26.5004
 09 10  4  0 58  0.0000000  0  8G02G04G05G13G29G10G23G25
 -16731937.68748 -12969738.84447
                  20610844.6024                                   20610839.4344
                                                                        52.7504
        42.5004
    533472.91848    458081.63746
                  22298103.1174                                   22298100.5234
                                                                        49.2504
        36.2504
  -3868179.01648  -2971559.04746
                  22871187.8674                                   22871184.3914
                                                                        48.5004
        36.5004
 -21195200.21148 -16443036.12546
                  21322706.4924                                   21322702.7814
                                                                        51.0004
        36.7504
  -8564603.32847  -6633499.37545
                  22681487.1024                                   22681484.0124
                                                                        46.7504
        34.5004
  -9012515.79747  -6979173.74246
                  22133049.5864                                   22133046.8244
                                                                        47.2504
        36.0004
  -3894584.10947  -2981959.51644
                  23049489.0084                                   23049483.2664
                                                                        47.0004
        29.0004
   2829417.86746   2241938.07844
                  23574020.8754                                   23574018.0664
                                                                        39.5004
        25.0004
 09 10  4  0 58 30.0000000  0  8G02G04G05G13G29G10G23G25
 -16795988.05148 -13019648.20747
                  20598656.0864                                   20598650.8914
                                                                        51.7504
        42.7504
    539614.39548    462867.20746
                  22299271.8284                                   22299268.8404
                                                                        48.7504
        36.2504
  -4051570.23848  -3114461.33645
                  22836289.8444                                   22836286.5474
                                                                        48.5004
        35.0004
 -21273303.54348 -16503895.85546
                  21307843.9384                                   21307839.8554
                                                                        51.5004
        36.7504
  -8707417.58247  -6744783.14845
                  22654309.9844                                   22654307.6024
                                                                        46.5004
        34.5004
  -9188451.09847  -7116266.20346
                  22099570.3524                                   22099567.3404
                                                                        47.7504
        36.2504
  -3898226.11747  -2984797.45744
                  23048796.2344                                   23048789.9964
                                                                        46.5004
        29.0004
   2672753.36346   2119861.79344
                  23544208.5554                                   23544205.3834
                                                                        40.0004
        26.2504
 09 10  4  0 59  0.0000000  0  8G02G04G05G13G29G10G23G25
 -16859447.80948 -13069097.36347
                  20586579.9454                                   20586574.7234
                                                                        51.7504
        43.2504
    546101.88748    467922.42246
                  22300506.0944                                   22300503.2974
                                                                        48.5004
        36.0004
  -4234677.84048  -3257142.73846
                  22801445.5554                                   22801442.3754
                                                                        48.0004
        36.0004
 -21350730.31248 -16564228.44546
                  21293110.0634                                   21293105.8834
                                                                        51.0004
        36.5004
  -8849715.06247  -6855664.27045
                  22627231.7194                                   22627229.2234
                                                                        47.0004
        35.0004
  -9364010.46948  -7253065.68046
                  22066162.3674                                   22066159.5474
                                                                        48.0004
        36.0004
  -3901432.88347  -2987296.22344
                  23048185.3984                                   23048179.6914
                                                                        45.7504
        27.0004
   2516510.96946   1998114.50844
                  23514476.8674                                   23514473.4184
                                                                        41.7504
        25.5004
 09 10  4  0 59 30.0000000  0  8G02G04G05G13G29G10G23G25
 -16922318.26248 -13118087.30947
                  20574616.3134                                   20574611.2194
                                                                        51.5004
        42.5004
    552932.43448    473244.97345
                  22301806.1644                                   22301803.1994
                                                                        48.5004
        35.5004
  -4417500.48047  -3399602.05146
                  22766655.3524                                   22766651.7734
                                                                        46.7504
        36.0004
 -21427482.37548 -16624035.29746
                  21278504.6254                                   21278501.1804
                                                                        51.5004
        36.2504
  -8991494.39147  -6966141.65645
                  22600252.0864                                   22600249.1294
                                                                        46.2504
        34.5004
  -9539193.24247  -7389571.85946
                  22032826.5394                                   22032823.1374
                                                                        47.2504
        36.0004
  -3904207.30147  -2989458.06244
                  23047657.4384                                   23047651.7304
                                                                        44.7504
        27.0004
   2360692.01646   1876697.19944
                  23484825.8364                                   23484822.3364
                                                                        41.7504
        26.7504
 09 10  4  1  0  0.0000000  0  8G02G04G05G13G29G10G23G25
 -16984595.77348 -13166615.21547
                  20562765.3444                                   20562759.8834
                                                                        52.5004
        42.7504
    560108.23448    478836.54346
                  22303171.1804                                   22303168.6994
                                                                        48.0004
        36.0004
  -4600032.04747  -3541834.48446
                  22731921.3364                                   22731917.8754
                                                                        47.5004
        36.2504
 -21503554.68448 -16683312.38746
                  21264028.5164                                   21264024.7624
                                                                        51.0004
        37.0004
  -9132749.47347  -7076210.52345
                  22573372.1804                                   22573369.4574
                                                                        47.0004
        34.7504
  -9713992.52048  -7525779.08245
                  21999563.1954                                   21999559.7234
                                                                        48.0004
        35.5004
  -3906547.98847  -2991281.96144
                  23047212.3674                                   23047206.0744
                                                                        45.5004
        27.2504
   2205303.27347   1755615.08644
                  23455256.5004                                   23455253.2934
                                                                        42.5004
        27.0004
 09 10  4  1  0 30.0000000  0  8G02G04G05G13G29G10G23G25
 -17046283.60248 -13214683.64847
                  20551026.2894                                   20551021.2544
                                                                        52.2504
        42.5004
    567624.37148    484693.28545
                  22304601.8834                                   22304598.4414
                                                                        48.2504
        35.7504
  -4782273.11348  -3683840.46146
                  22697241.7194                                   22697238.8984
                                                                        48.0004
        36.0004
 -21578950.98048 -16742062.67246
                  21249680.6564                                   21249677.2734
                                                                        51.5004
        36.7504
  -9273481.64847  -7185871.96545
                  22546591.3674                                   22546589.1094
                                                                        47.0004
        35.0004
  -9888409.11348  -7661688.07846
                  21966372.7734                                   21966369.2464
                                                                        48.2504
        36.0004
  -3908460.46547  -2992772.14844
                  23046848.0474                                   23046842.0554
                                                                        45.0004
        27.0004
   2050344.19547   1634867.76644
                  23425768.7814                                   23425765.0354
                                                                        43.5004
        27.2504
 09 10  4  1  1  0.0000000  0  8G02G04G05G13G29G10G23G25
 -17107379.10548 -13262290.54347
                  20539400.3674                                   20539394.8984
                                                                        51.0004
        42.5004
    575481.64548    490815.84045
                  22306097.3204                                   22306094.1454
                                                                        48.2504
        35.7504
  -4964219.24248  -3825616.66446
                  22662618.5084                                   22662615.0744
                                                                        48.0004
        36.0004
 -21653669.23848 -16800284.66846
                  21235462.5234                                   21235458.7304
                                                                        51.7504
        36.5004
  -9413685.56647  -7295121.73445
                  22519911.2344                                   22519908.6054
                                                                        46.2504
        35.0004
 -10062438.34048  -7797295.24646
                  21933255.9924                                   21933252.8984
                                                                        48.5004
        36.2504
  -3909943.97347  -2993928.07844
                  23046566.0704                                   23046560.1804
                                                                        45.2504
        29.0004
   1895820.13347   1514459.39844
                  23396363.5554                                   23396359.9224
                                                                        42.2504
        27.0004
 09 10  4  1  1 30.0000000  0  8G02G04G05G13G29G10G23G25
 -17167878.98848 -13309433.31647
                  20527887.3444                                   20527882.1374
                                                                        52.5004
        42.5004
    583681.48048    497205.33246
                  22307657.3054                                   22307654.3204
                                                                        48.5004
        36.2504
  -5145865.10547  -3967158.92646
                  22628052.6804                                   22628049.2194
                                                                        47.5004
        36.2504
 -21727706.49248 -16857976.00046
                  21221373.8204                                   21221369.8954
                                                                        51.7504
        36.7504
  -9553355.94947  -7403955.75045
                  22493333.2344                                   22493330.3204
                                                                        46.5004
        34.5004
 -10236074.60548  -7932596.23446
                  21900214.4774                                   21900211.3324
                                                                        48.7504
        36.5004
  -3910997.75047  -2994749.17244
                  23046365.2344                                   23046359.9264
                                                                        45.0004
        29.0004
   1741736.94146   1394394.56344
                  23367042.6024                                   23367039.5234
                                                                        41.7504
        26.0004
 09 10  4  1  2  0.0000000  0  8G02G04G05G13G29G10G23G25
 -17227789.82848 -13356117.11747
                  20516487.0084                                   20516481.5704
                                                                        51.7504
        42.5004
    592215.98047    503855.54745
                  22309281.2114                                   22309278.4344
                                                                        47.7504
        35.2504
  -5327214.04747  -4108469.80946
                  22593542.9694                                   22593539.5744
                                                                        47.5004
        36.2504
 -21801068.62948 -16915141.27346
                  21207413.2664                                   21207409.3984
                                                                        51.5004
        36.7504
  -9692496.66047  -7512377.04745
                  22466855.0784                                   22466852.5864
                                                                        47.0004
        34.7504
 -10409321.51648  -8067593.80946
                  21867246.5084                                   21867243.5664
                                                                        48.7504
        36.5004
  -3911629.84447  -2995241.69144
                  23046245.0554                                   23046239.3094
                                                                        45.0004
        28.5004
   1588091.27747   1274670.67244
                  23337804.7584                                   23337801.6804
                                                                        42.7504
        27.5004
 09 10  4  1  2 30.0000000  0  8G02G04G05G13G29G10G23G25
 -17287113.13748 -13402343.07447
                  20505198.0004                                   20505192.8164
                                                                        51.2504
        43.0004
    601081.90648    510764.06345
                  22310968.5004                                   22310965.5704
                                                                        48.0004
        35.5004
  -5508265.26247  -4249548.65246
                  22559090.3834                                   22559086.3524
                                                                        47.0004
        36.5004
 -21873757.81648 -16971782.18746
                  21193581.0634                                   21193577.4884
                                                                        51.7504
        37.0004
  -9831107.21147  -7620385.21145
                  22440478.9924                                   22440475.6604
                                                                        47.2504
        34.7504
 -10582178.54748  -8202287.58246
                  21834352.8054                                   21834350.2304
                                                                        48.7504
        36.7504
  -3911844.34047  -2995408.79744
                  23046203.6644                                   23046198.5554
                                                                        43.7504
        28.0004
   1434884.18847   1155288.54344
                  23308649.5474                                   23308647.2274
                                                                        42.5004
        26.7504
 09 10  4  1  3  0.0000000  0  8G02G04G05G13G29G10G23G25
 -17345848.16848 -13448110.61747
                  20494021.2974                                   20494015.9144
                                                                        51.5004
        42.5004
    610278.93448    517930.61745
                  22312719.0004                                   22312715.5554
                                                                        48.7504
        34.2504
  -5689015.78547  -4390393.19546
                  22524694.2344                                   22524691.0634
                                                                        47.5004
        36.2504
 -21945772.95348 -17027897.87546
                  21179877.1094                                   21179873.2114
                                                                        52.0004
        37.5004
  -9969184.05547  -7727977.51245
                  22414203.9534                                   22414200.7664
                                                                        47.5004
        35.0004
 -10754641.82048  -8336674.49246
                  21801534.4304                                   21801531.0474
                                                                        49.2504
        36.7504
  -3911642.07847  -2995251.12944
                  23046243.0944                                   23046237.0594
                                                                        44.0004
        28.0004
   1282119.65647   1036251.27344
                  23279580.1024                                   23279576.6414
                                                                        42.2504
        25.0004
 09 10  4  1  3 30.0000000  0  8G02G04G05G13G29G10G23G25
 -17403993.79348 -13493418.87147
                  20482956.4454                                   20482951.0004
                                                                        51.5004
        42.7504
    619806.19548    525354.48045
                  22314531.4924                                   22314528.3874
                                                                        48.2504
        34.7504
  -5869461.99647  -4531000.61346
                  22490356.5164                                   22490352.9964
                                                                        46.0004
        36.2504
 -22017113.30148 -17083487.74246
                  21166301.5864                                   21166297.4024
                                                                        50.7504
        37.0004
 -10106724.07447  -7835151.57445
                  22388030.4534                                   22388027.8164
                                                                        47.2504
        34.7504
 -10926708.05148  -8470752.07446
                  21768791.1094                                   21768787.7544
                                                                        49.0004
        36.7504
  -3911024.36347  -2994769.77744
                  23046360.2424                                   23046354.4774
                                                                        43.7504
        28.0004
   1129801.57447    917561.91844
                  23250594.8444                                   23250592.0784
                                                                        43.2504
        28.0004
 09 10  4  1  4  0.0000000  0  8G02G04G05G13G29G10G23G25
 -17461553.17648 -13538270.40247
                  20472003.3914                                   20471998.0084
                                                                        50.5004
        42.5004
    629659.32047    533032.23045
                  22316406.3594                                   22316403.4694
                                                                        47.5004
        35.2504
  -6049604.08247  -4671370.99246
                  22456076.7734                                   22456073.2154
                                                                        45.5004
        36.5004
 -22087781.90648 -17138554.18446
                  21152853.7114                                   21152849.7774
                                                                        51.0004
        37.2504
 -10243727.47348  -7941907.50445
                  22361959.8914                                   22361957.2344
                                                                        48.0004
        35.0004
 -11098377.60948  -8604520.53546
                  21736123.5554                                   21736120.3634
                                                                        50.0004
        36.5004
  -3909996.03147  -2993968.43044
                  23046555.8364                                   23046549.9964
                                                                        43.5004
        26.5004
    977929.79747    799220.32444
                  23221695.1254                                   23221691.9224
                                                                        43.0004
        28.2504
 09 10  4  1  4 30.0000000  0  8G02G04G05G13G29G10G23G25
 -17518522.35548 -13582661.94147
                  20461162.3914                                   20461157.2344
                                                                        52.0004
        42.5004
    639839.64848    540964.98045
                  22318343.9064                                   22318340.3874
                                                                        48.0004
        35.2504
  -6229437.05548  -4811500.60546
                  22421855.5394                                   22421852.4694
                                                                        48.0004
        36.7504
 -22157776.46148 -17193095.43446
                  21139533.9384                                   21139530.3324
                                                                        51.0004
        37.0004
 -10380189.07047  -8048241.20745
                  22335992.0474                                   22335989.3324
                                                                        47.7504
        35.5004
 -11269644.47748  -8737975.22346
                  21703532.7894                                   21703529.2894
                                                                        49.2504
        36.5004
  -3908556.03947  -2992846.31244
                  23046829.8914                                   23046823.2934
                                                                        43.7504
        26.7504
    826510.27347    681231.14844
                  23192881.0944                                   23192877.3324
                                                                        44.5004
        28.2504
 09 10  4  1  5  0.0000000  0  8G02G04G05G13G29G10G23G25
 -17574905.97748 -13626597.19947
                  20450433.0234                                   20450427.4804
                                                                        52.0004
        42.7504
    650342.04348    549148.71545
                  22320342.2894                                   22320339.1884
                                                                        49.7504
        35.0004
  -6408961.86347  -4951390.07046
                  22387693.2424                                   22387690.3524
                                                                        47.2504
        38.0004
 -22227099.78148 -17247113.60246
                  21126342.4844                                   21126338.6374
                                                                        51.0004
        37.0004
 -10516110.05948  -8154153.61345
                  22310126.8204                                   22310124.2304
                                                                        48.0004
        35.2504
 -11440510.32048  -8871117.43046
                  21671017.4064                                   21671014.2854
                                                                        49.2504
        36.5004
  -3906710.53947  -2991408.24244
                  23047180.6644                                   23047175.1134
                                                                        43.0004
        27.0004
    675542.09447    563593.66044
                  23164151.6724                                   23164148.8164
                                                                        43.7504
        27.5004
 09 10  4  1  5 30.0000000  0  8G02G04G05G13G29G10G23G25
 -17630701.02048 -13670073.83247
                  20439815.4694                                   20439809.8444
                                                                        51.7504
        42.5004
    661167.89148    557584.49245
                  22322402.2194                                   22322399.3094
                                                                        48.2504
        34.5004
  -6588173.10247  -5091035.18746
                  22353590.5944                                   22353587.1334
                                                                        47.7504
        36.7504
 -22295749.23448 -17300606.65646
                  21113278.7114                                   21113274.8014
                                                                        51.5004
        37.0004
 -10651485.35248  -8259640.78146
                  22284365.7734                                   22284363.7544
                                                                        48.0004
        36.0004
 -11610969.70348  -9003942.93446
                  21638580.0164                                   21638577.2194
                                                                        49.7504
        36.7504
  -3904458.08647  -2989653.02744
                  23047609.7504                                   23047603.4494
                                                                        43.2504
        26.5004
    525030.87147    446312.23444
                  23135510.9614                                   23135507.4964
                                                                        44.5004
        26.7504
 09 10  4  1  6  0.0000000  0  8G02G04G05G13G29G10G23G25
 -17685906.87148 -13713091.40247
                  20429310.1564                                   20429304.5594
                                                                        52.5004
        42.5004
    672316.34448    566271.60245
                  22324523.7114                                   22324520.9384
                                                                        48.2504
        34.5004
  -6767067.51248  -5230433.44946
                  22319547.6884                                   22319544.3364
                                                                        48.0004
        36.2504
 -22363724.34848 -17353574.25046
                  21100343.5634                                   21100339.6524
                                                                        51.0004
        37.0004
 -10786311.84848  -8364700.40645
                  22258709.2274                                   22258706.8364
                                                                        48.7504
        35.5004
 -11781019.25848  -9136449.04746
                  21606221.0234                                   21606218.1564
                                                                        50.2504
        37.0004
  -3901800.03147  -2987581.77744
                  23048115.7664                                   23048109.5864
                                                                        44.0004
        26.7504
    374980.39847    329389.86744
                  23106956.7194                                   23106952.8244
                                                                        43.5004
        26.0004
 09 10  4  1  6 30.0000000  0  8G02G04G05G13G29G10G23G25
 -16165107.05548 -12528052.59047
                  20718708.6254                                   20718703.0044
                                                                        52.2504
        42.0004
   2259200.52348   1802804.71145
                  22626497.8674                                   22626494.8404
                                                                        48.5004
        35.0004
  -5370221.25047  -4141981.77746
                  22585358.5944                                   22585355.2234
                                                                        47.7504
        36.2504
 -20855608.50448 -16178419.02046
                  21387328.3524                                   21387324.7774
                                                                        51.2504
        36.7504
  -9345167.84448  -7241730.99645
                  22532949.9384                                   22532947.7974
                                                                        48.7504
        35.5004
 -10375235.69948  -8041033.28146
                  21873732.7034                                   21873729.8134
                                                                        49.7504
        37.5004
  -2323323.72347  -1757600.20344
                  23348489.4924                                   23348483.8204
                                                                        43.2504
        27.2504
   1800813.31647   1440428.52044
                  23378283.9694                                   23378280.4964
                                                                        43.5004
        25.5004
 09 10  4  1  7  0.0000000  0  8G02G04G05G13G29G10G23G25
 -16219145.27748 -12570160.30147
                  20708425.3444                                   20708420.2344
                                                                        53.0004
        42.0004
   2270978.98848   1811982.65245
                  22628739.5394                                   22628736.5274
                                                                        48.7504
        34.2504
  -5548484.70748  -4280888.34446
                  22551436.8594                                   22551433.0314
                                                                        49.5004
        37.2504
 -20922247.33248 -16230345.36746
                  21374647.5864                                   21374643.5864
                                                                        50.5004
        37.2504
  -9478900.27348  -7345938.09446
                  22507501.2664                                   22507498.7854
                                                                        48.0004
        36.0004
 -10544468.31648  -8172902.84446
                  21841528.6884                                   21841525.4454
                                                                        50.0004
        37.5004
  -2319871.33647  -1754910.02344
                  23349146.6724                                   23349141.1294
                                                                        42.5004
        28.7504
   1651682.05147   1324222.37944
                  23349904.6254                                   23349901.3794
                                                                        43.2504
        27.2504
 09 10  4  1  7 30.0000000  0  8G02G04G05G13G29G10G23G25
 -16272596.67648 -12611810.73847
                  20698254.2194                                   20698248.8954
                                                                        52.2504
        42.5004
   2283073.35548   1821406.79745
                  22631040.9534                                   22631037.7664
                                                                        48.0004
        34.7504
  -5726426.09448  -4419543.94546
                  22517575.6804                                   22517572.0634
                                                                        49.2504
        37.5004
 -20988214.71148 -16281748.49246
                  21362094.0704                                   21362090.5474
                                                                        51.0004
        36.5004
  -9612078.96548  -7449713.66445
                  22482158.4694                                   22482155.8204
                                                                        48.7504
        35.5004
 -10713285.31248  -8304448.54746
                  21809403.9064                                   21809400.9064
                                                                        50.2504
        37.2504
  -2316021.67647  -1751910.28944
                  23349878.7584                                   23349873.5784
                                                                        42.2504
        26.5004
   1503017.72347   1208380.09044
                  23321615.1804                                   23321611.9804
                                                                        42.7504
        26.0004
 09 10  4  1  8  0.0000000  0  8G02G04G05G13G29G10G23G25
 -16325461.35548 -12653003.96147
                  20688194.0314                                   20688188.7304
                                                                        53.0004
        42.2504
   2295481.60948   1831075.57045
                  22633401.6644                                   22633399.2194
                                                                        48.7504
        34.0004
  -5904043.29748  -4557946.95746
                  22483775.8364                                   22483772.5234
                                                                        48.7504
        37.5004
 -21053511.14548 -16332628.83646
                  21349669.1804                                   21349665.3484
                                                                        50.5004
        36.7504
  -9744702.39548  -7553056.55545
                  22456921.2584                                   22456918.1684
                                                                        48.0004
        35.2504
 -10881684.71548  -8435668.82446
                  21777358.6724                                   21777355.6214
                                                                        50.5004
        37.2504
  -2311777.54746  -1748603.16444
                  23350686.1174                                   23350680.9884
                                                                        41.7504
        26.5004
   1354822.67647   1092903.50844
                  23293414.5394                                   23293411.3634
                                                                        43.5004
        28.0004
 09 10  4  1  8 30.0000000  0  9G02G04G05G13G29G10G23G16G25
 -16377743.40648 -12693743.22347
                  20678245.2344                                   20678239.7464
                                                                        51.5004
        42.0004
   2308198.82848   1840985.11345
                  22635822.1954                                   22635819.3164
                                                                        49.5004
        33.5004
  -6081337.34048  -4696098.12546
                  22450038.0164                                   22450035.1564
                                                                        49.5004
        37.7504
 -21118140.84048 -16382989.62546
                  21337370.1644                                   21337366.3054
                                                                        50.7504
        37.2504
  -9876771.64148  -7655967.66045
                  22431788.9144                                   22431786.4264
                                                                        48.7504
        35.5004
 -11049667.33648  -8566564.35946
                  21745392.6024                                   21745389.5044
                                                                        50.5004
        36.5004
  -2307143.92647  -1744992.57844
                  23351568.1564                                   23351562.8204
                                                                        42.2504
        28.0004
  12404986.56656   9678197.27354
                  24423321.3284                                   24423317.2344
                                                                        41.5004
        24.0004
   1207096.25047    977792.04344
                  23265303.2504                                   23265300.2664
                                                                        44.7504
        28.2504
 09 10  4  1  9  0.0000000  0  9G02G04G05G13G29G10G23G16G25
 -16429446.25048 -12734031.15646
                  20668406.4454                                   20668401.1954
                                                                        52.5004
        41.7504
   2321220.18048   1851131.61745
                  22638299.5784                                   22638296.8204
                                                                        48.5004
        33.7504
  -6258308.86348  -4833997.98846
                  22416361.3134                                   22416358.2154
                                                                        49.5004
        37.5004
 -21182107.34848 -16432833.66046
                  21325197.6884                                   21325193.7624
                                                                        51.0004
        36.5004
 -10008287.44548  -7758447.51646
                  22406762.4144                                   22406759.4654
                                                                        49.5004
        36.2504
 -11217234.18748  -8697135.93046
                  21713505.5234                                   21713502.1604
                                                                        50.0004
        37.5004
  -2302126.28147  -1741082.73444
                  23352523.8054                                   23352517.8094
                                                                        44.0004
        27.7504
  12252076.03546   9559046.21143
                  24394223.1644                                   24394219.2734
                                                                        41.5004
        22.7504
   1059838.10547    863045.47744
                  23237280.7194                                   23237277.9734
                                                                        45.0004
        27.5004
 09 10  4  1  9 30.0000000  0  9G02G04G05G13G29G10G23G16G25
 -16480575.43448 -12773872.07847
                  20658676.9924                                   20658671.7234
                                                                        51.7504
        42.5004
   2334538.72348   1861509.68445
                  22640834.0864                                   22640831.1604
                                                                        48.7504
        34.0004
  -6434960.80548  -4971648.82446
                  22382745.8524                                   22382742.2274
                                                                        49.5004
        37.2504
 -21245416.49248 -16482165.44946
                  21313150.6644                                   21313146.2424
                                                                        50.5004
        36.2504
 -10139253.14848  -7860498.67645
                  22381840.2584                                   22381837.6174
                                                                        49.5004
        35.5004
 -11384387.82048  -8827385.46146
                  21681697.3984                                   21681694.1294
                                                                        50.0004
        38.0004
  -2296732.11747  -1736879.45744
                  23353549.6414                                   23353543.6334
                                                                        44.0004
        26.0004
  12099629.68046   9440256.85943
                  24365213.1724                                   24365209.2344
                                                                        39.5004
        21.5004
    913045.42647    748661.61744
                  23209347.6334                                   23209344.2034
                                                                        44.5004
        28.5004
 09 10  4  1 10  0.0000000  0  9G02G04G05G13G29G10G23G16G25
 -16531126.87148 -12813262.77347
                  20649057.6334                                   20649052.1764
                                                                        51.5004
        42.2504
   2348156.78547   1872121.18045
                  22643425.6484                                   22643422.9884
                                                                        47.5004
        34.2504
  -6611289.66848  -5109047.96546
                  22349191.2814                                   22349187.6684
                                                                        49.7504
        38.0004
 -21308064.88748 -16530982.37146
                  21301228.6484                                   21301225.0474
                                                                        50.7504
        36.7504
 -10269662.44948  -7962116.28146
                  22357023.8524                                   22357021.6524
                                                                        48.7504
        36.0004
 -11551122.26648  -8957308.40646
                  21649968.9614                                   21649965.6454
                                                                        49.2504
        38.0004
  -2290959.57047  -1732381.34044
                  23354648.5784                                   23354641.8014
                                                                        43.2504
        25.7504
  11947654.64146   9321834.84443
                  24336291.9224                                   24336289.3984
                                                                        38.2504
        19.2504
    766724.94547    634645.68844
                  23181503.3204                                   23181499.7074
                                                                        45.5004
        28.2504
 09 10  4  1 10 30.0000000  0  9G02G04G05G13G29G10G23G16G25
 -16581098.15248 -12852201.44147
                  20639548.2814                                   20639542.8674
                                                                        51.0004
        42.0004
   2362075.84447   1882967.19945
                  22646074.4694                                   22646071.5354
                                                                        46.2504
        33.7504
  -6787280.92248  -5246183.98446
                  22315701.5944                                   22315697.6804
                                                                        49.7504
        38.0004
 -21370049.96548 -16579282.44146
                  21289433.2034                                   21289429.0944
                                                                        50.2504
        36.5004
 -10399510.53948  -8063296.57846
                  22332315.1644                                   22332312.2544
                                                                        48.7504
        36.0004
 -11717431.62548  -9086900.08646
                  21618320.9844                                   21618317.7304
                                                                        48.5004
        37.5004
  -2284807.64847  -1727587.66844
                  23355818.8674                                   23355812.4024
                                                                        43.0004
        24.0004
  11796156.88746   9203784.70743
                  24307463.7194                                   24307460.2704
                                                                        38.7504
        18.2504
    620882.48447    521002.27744
                  23153750.1334                                   23153746.8834
                                                                        44.5004
        26.5004
 09 10  4  1 11  0.0000000  0  9G02G04G05G13G29G10G23G16G25
 -16630486.76248 -12890686.05947
                  20630149.9304                                   20630144.4884
                                                                        51.5004
        42.2504
   2376297.20747   1894048.78545
                  22648780.9064                                   22648777.3874
                                                                        47.5004
        34.0004
  -6962937.28948  -5383059.03546
                  22282274.8674                                   22282271.9024
                                                                        50.0004
        38.0004
 -21431369.27348 -16627063.76246
                  21277765.0004                                   21277760.8324
                                                                        50.5004
        36.5004
 -10528792.25448  -8164035.57445
                  22307713.3674                                   22307710.9774
                                                                        48.0004
        35.5004
 -11883310.96548  -9216156.73446
                  21586755.2114                                   21586752.1374
                                                                        49.0004
        37.5004
  -2278275.60247  -1722497.75044
                  23357061.7274                                   23357056.1604
                                                                        43.5004
        25.0004
  11645141.79746   9086110.55942
                  24278726.5164                                   24278723.2734
                                                                        39.7504
        17.7504
    475523.25447    407735.35544
                  23126088.7504                                   23126086.0664
                                                                        45.0004
        26.7504
 09 10  4  1 11 30.0000000  0  9G02G04G05G13G29G10G23G16G25
 -16679292.80148 -12928716.72347
                  20620862.4694                                   20620857.0904
                                                                        52.0004
        42.0004
   2390819.35247   1905364.71145
                  22651544.2894                                   22651541.4844
                                                                        47.0004
        33.5004
  -7138255.60548  -5519670.68046
                  22248912.7194                                   22248909.2934
                                                                        50.0004
        38.2504
 -21492022.45348 -16674326.01246
                  21266223.0474                                   21266218.9344
                                                                        50.5004
        36.2504
 -10657505.34048  -8264331.43446
                  22283220.1884                                   22283217.3714
                                                                        48.0004
        36.0004
 -12048757.46148  -9345076.07846
                  21555272.0474                                   21555268.8524
                                                                        49.0004
        37.5004
  -2271365.43747  -1717113.21144
                  23358376.7034                                   23358370.9494
                                                                        43.0004
        26.0004
  11494612.35546   8968814.89143
                  24250082.6564                                   24250077.8054
                                                                        41.0004
        18.2504
    330650.20747    294847.30544
                  23098520.4924                                   23098517.3204
                                                                        44.7504
        27.0004
 09 10  4  1 12  0.0000000  0  9G02G04G05G13G29G10G23G16G25
 -16727514.44548 -12966292.03947
                  20611686.0314                                   20611680.7304
                                                                        51.5004
        42.0004
   2405642.61747   1916915.30545
                  22654365.0394                                   22654361.8364
                                                                        47.7504
        33.5004
  -7313230.66448  -5656014.81646
                  22215616.0004                                   22215613.6174
                                                                        50.0004
        38.5004
 -21552008.49248 -16721068.39546
                  21254808.1644                                   21254804.2894
                                                                        51.0004
        36.0004
 -10785645.56248  -8364180.91846
                  22258836.0394                                   22258833.1804
                                                                        49.0004
        36.5004
 -12213766.69148  -9473654.66846
                  21523871.8444                                   21523868.7774
                                                                        49.0004
        38.2504
  -2264077.33247  -1711434.17244
                  23359763.4224                                   23359758.5514
                                                                        43.7504
        28.0004
  11344573.78247   8851901.69443
                  24221531.4064                                   24221526.1294
                                                                        42.5004
        18.5004
    186268.05147    182341.74644
                  23071045.7424                                   23071042.5044
                                                                        44.0004
        27.0004
 09 10  4  1 12 30.0000000  0  9G02G04G05G13G29G10G23G16G25
 -16775151.97348 -13003412.16046
                  20602620.8834                                   20602615.5984
                                                                        50.5004
        41.7504
   2420765.49647   1928699.34045
                  22657242.6024                                   22657240.2114
                                                                        45.0004
        33.2504
  -7487859.53148  -5792089.24646
                  22182385.5084                                   22182382.3244
                                                                        49.7504
        38.5004
 -21611328.07848 -16767291.42646
                  21243520.1094                                   21243516.0784
                                                                        51.0004
        36.2504
 -10913210.95348  -8463582.50046
                  22234560.8054                                   22234558.3674
                                                                        49.2504
        36.0004
 -12378336.38748  -9601890.77046
                  21492555.5004                                   21492552.2774
                                                                        48.7504
        38.0004
  -2256413.44147  -1705462.34044
                  23361221.8834                                   23361216.7544
                                                                        43.7504
        27.5004
  11195028.67247   8735372.93443
                  24193073.5634                                   24193068.8014
                                                                        42.5004
        19.7504
     42379.31647     70220.66044
                  23043664.2034                                   23043661.4694
                                                                        43.7504
        27.0004
 09 10  4  1 13  0.0000000  0  9G02G04G05G13G29G10G23G16G25
 -16822203.94148 -13040076.04747
                  20593667.0944                                   20593661.8984
                                                                        51.5004
        42.0004
   2436188.27347   1940717.06345
                  22660177.3444                                   22660174.8524
                                                                        46.2504
        32.7504
  -7662137.75448  -5927890.40246
                  22149221.3204                                   22149218.3674
                                                                        49.5004
        38.5004
 -21669980.50048 -16812994.59446
                  21232358.4774                                   21232354.8204
                                                                        51.2504
        37.0004
 -11040197.70748  -8562533.17246
                  22210396.2894                                   22210393.5704
                                                                        49.0004
        36.0004
 -12542461.94548  -9729780.80946
                  21461323.0084                                   21461320.1564
                                                                        49.5004
        38.2504
  -2248373.84047  -1699197.72344
                  23362751.5474                                   23362746.8164
                                                                        44.5004
        28.2504
  11045981.69547   8619232.42243
                  24164711.0084                                   24164706.6094
                                                                        42.7504
        21.0004
   -101011.63747    -41512.50044
                  23016378.3674                                   23016375.0704
                                                                        45.0004
        28.5004
 09 10  4  1 13 30.0000000  0 10G02G04G05G13G29G10G23G16G07G25
 -16868673.19148 -13076285.84447
                  20584824.5004                                   20584818.9144
                                                                        50.5004
        42.0004
   2451906.61347   1952965.07845
                  22663168.8524                                   22663165.8134
                                                                        46.5004
        33.5004
  -7836065.31248  -6063418.30146
                  22116124.2504                                   22116120.9654
                                                                        49.7504
        38.2504
 -21727968.11748 -16858179.73446
                  21221323.8754                                   21221319.9264
                                                                        50.5004
        36.7504
 -11166606.17248  -8661033.23046
                  22186341.2344                                   22186338.4384
                                                                        49.0004
        37.0004
 -12706143.67648  -9857324.97346
                  21430175.6804                                   21430172.8674
                                                                        49.0004
        38.2504
  -2239963.38747  -1692644.10544
                  23364352.8054                                   23364346.6684
                                                                        45.5004
        27.5004
  10897433.33247   8503480.44543
                  24136442.9384                                   24136438.8204
                                                                        42.2504
        23.7504
  12365566.31356   9674680.39553
                  24344082.2584                                   24344078.6414
                                                                        38.7504
        20.2504
   -243904.70747   -152857.76644
                  22989186.7734                                   22989183.6054
                                                                        45.2504
        28.7504
 09 10  4  1 14  0.0000000  0 10G02G04G05G13G29G10G23G16G07G25
 -16914563.29348 -13112044.34847
                  20576091.7584                                   20576086.9844
                                                                        51.0004
        42.0004
   2467915.92247   1965439.81645
                  22666215.2974                                   22666212.5784
                                                                        46.5004
        32.7504
  -8009643.60248  -6198674.08246
                  22083093.4144                                   22083090.1094
                                                                        49.0004
        38.5004
 -21785294.90648 -16902849.94546
                  21210414.9224                                   21210411.1374
                                                                        50.0004
        36.0004
 -11292437.27748  -8759083.43046
                  22162396.2344                                   22162394.1094
                                                                        48.5004
        36.5004
 -12869382.31248  -9984523.87546
                  21399112.4614                                   21399109.0824
                                                                        49.0004
        38.0004
  -2231187.55947  -1685805.80944
                  23366022.6954                                   23366015.6844
                                                                        45.0004
        25.0004
  10749383.17246   8388116.71143
                  24108270.0314                                   24108266.1764
                                                                        41.0004
        22.0004
  12182059.56347   9531688.16844
                  24309163.1414                                   24309159.8954
                                                                        42.0004
        25.2504
   -386300.12947   -263815.22744
                  22962090.2584                                   22962086.6214
                                                                        45.0004
        29.5004
 09 10  4  1 14 30.0000000  0 10G02G04G05G13G29G10G23G16G07G25
 -16959878.41448 -13147354.82446
                  20567468.7974                                   20567463.5474
                                                                        51.7504
        41.7504
   2484211.33647   1978137.56345
                  22669316.2664                                   22669313.9734
                                                                        46.7504
        33.2504
  -8182873.24248  -6333658.17646
                  22050128.6484                                   22050125.1484
                                                                        49.7504
        38.2504
 -21841964.70348 -16947008.23446
                  21199631.0944                                   21199627.0704
                                                                        49.5004
        36.5004
 -11417692.88348  -8856685.19146
                  22138561.0004                                   22138558.7154
                                                                        49.5004
        36.0004
 -13032179.25848 -10111378.64146
                  21368132.9694                                   21368129.9494
                                                                        50.0004
        37.2504
  -2222051.43747  -1678686.66843
                  23367760.8834                                   23367753.9884
                                                                        43.7504
        22.2504
  10601830.34846   8273140.47743
                  24080191.5554                                   24080187.5274
                                                                        41.0004
        22.7504
  11998816.42247   9388901.21144
                  24274292.6564                                   24274289.6644
                                                                        43.7504
        26.5004
   -528199.14847   -374385.87944
                  22935087.1954                                   22935083.9454
                                                                        45.0004
        28.5004
 09 10  4  1 15  0.0000000  0 10G02G04G05G13G29G10G23G16G07G25
 -17004617.55548 -13182216.48846
                  20558955.0864                                   20558949.6644
                                                                        50.7504
        41.7504
   2500792.12147   1991057.64845
                  22672471.6644                                   22672468.6024
                                                                        46.0004
        33.5004
  -8355751.00448  -6468368.06646
                  22017230.8524                                   22017227.8324
                                                                        48.5004
        38.2504
 -21897977.55148 -16990654.57446
                  21188972.3134                                   21188968.5664
                                                                        50.0004
        36.5004
 -11542369.59048  -8953835.85546
                  22114836.2584                                   22114833.3674
                                                                        48.5004
        37.0004
 -13194530.62948 -10237886.17246
                  21337238.6414                                   21337235.3594
                                                                        49.0004
        37.7504
  -2212556.17647  -1671287.77343
                  23369567.1254                                   23369561.9734
                                                                        42.0004
        23.2504
  10454779.01246   8158555.03543
                  24052208.9774                                   24052204.9344
                                                                        40.5004
        22.0004
  11815841.91447   9246323.60544
                  24239473.5634                                   24239470.5004
                                                                        42.7504
        26.7504
   -669598.09847   -484566.87144
                  22908179.6954                                   22908177.0124
                                                                        43.0004
        29.2504
 09 10  4  1 15 30.0000000  0 10G02G04G05G13G29G10G23G16G07G25
 -15473357.78548 -11989027.04747
                  20850343.9774                                   20850338.7194
                                                                        51.0004
        42.0004
   4093078.24247   3231800.10245
                  22975473.2034                                   22975470.7114
                                                                        46.2504
        33.2504
  -6952846.66848  -5375195.81646
                  22284195.0004                                   22284191.6414
                                                                        48.5004
        38.2504
 -20377910.14148 -15806186.44946
                  21478231.4144                                   21478227.6804
                                                                        50.0004
        36.0004
 -10091039.30148  -7822929.09846
                  22391015.2424                                   22391012.3914
                                                                        48.2504
        36.5004
 -11781006.54748  -9136438.76246
                  21606222.9844                                   21606219.8674
                                                                        48.2504
        38.5004
   -627282.28947   -436009.39543
                  23671234.9064                                   23671229.4774
                                                                        42.5004
        23.5004
  11883658.54746   9271967.68443
                  24324114.4694                                   24324111.5904
                                                                        38.2504
        20.0004
  13208567.21546  10331564.06344
                  24504501.0554                                   24504497.6764
                                                                        41.5004
        27.0004
    764932.28947    633249.01644
                  23181161.8984                                   23181158.8164
                                                                        44.7504
        28.2504
 09 10  4  1 16  0.0000000  0 10G02G04G05G13G29G10G23G16G07G25
 -15516939.61748 -12022986.89846
                  20842050.7424                                   20842045.4384
                                                                        51.2504
        41.7504
   4110231.71947   3245166.40245
                  22978737.8364                                   22978735.2544
                                                                        46.5004
        33.0004
  -7125006.35248  -5509346.19946
                  22251433.9534                                   22251430.9734
                                                                        48.7504
        38.5004
 -20432603.82448 -15848804.88746
                  21467823.3594                                   21467820.0984
                                                                        49.5004
        36.5004
 -10214545.43048  -7919167.59046
                  22367512.5554                                   22367509.5904
                                                                        48.0004
        37.0004
 -11942452.71148  -9262240.90246
                  21575500.8054                                   21575497.6174
                                                                        48.5004
        38.2504
   -617068.39847   -428050.53544
                  23673178.5784                                   23673172.9844
                                                                        43.0004
        25.0004
  11737624.83246   9158175.21943
                  24296325.4064                                   24296322.1174
                                                                        39.0004
        20.5004
  13026146.94947  10189418.37944
                  24469787.2114                                   24469783.8714
                                                                        42.2504
        26.0004
    624548.12947    523858.78944
                  23154447.3984                                   23154444.2464
                                                                        44.2504
        28.0004
 09 10  4  1 16 30.0000000  0 10G02G04G05G13G29G10G23G16G07G25
 -15559937.10948 -12056491.45346
                  20833868.7664                                   20833862.8364
                                                                        50.7504
        41.5004
   4127675.75047   3258759.15645
                  22982057.0164                                   22982054.0354
                                                                        46.5004
        32.2504
  -7296797.04748  -5643209.06646
                  22218743.3204                                   22218739.6374
                                                                        48.7504
        38.7504
 -20486632.70748 -15890905.32446
                  21457542.3134                                   21457538.2704
                                                                        50.0004
        36.0004
 -10337457.24648  -8014942.99646
                  22344123.1094                                   22344120.2584
                                                                        49.0004
        36.5004
 -12103436.67648  -9387682.94546
                  21544866.3674                                   21544863.1334
                                                                        48.7504
        38.5004
   -606492.18047   -419809.31644
                  23675191.8674                                   23675186.3794
                                                                        44.5004
        28.0004
  11592110.61746   9044787.52743
                  24268634.6724                                   24268631.8134
                                                                        38.2504
        20.5004
  12844015.65646  10047497.99643
                  24435128.4304                                   24435125.0904
                                                                        41.2504
        23.0004
    484681.47747    414871.80944
                  23127832.1804                                   23127828.5704
                                                                        44.0004
        28.5004
 09 10  4  1 17  0.0000000  0 10G02G04G05G13G29G10G23G16G07G25
 -15602353.52348 -12089543.18747
                  20825796.9144                                   20825792.0594
                                                                        50.0004
        42.0004
   4145405.57847   3272574.57445
                  22985431.0784                                   22985428.3404
                                                                        46.7504
        32.0004
  -7468219.54348  -5776785.01646
                  22186122.7114                                   22186119.3954
                                                                        48.2504
        39.0004
 -20540000.30148 -15932490.46546
                  21447386.5164                                   21447382.4694
                                                                        49.2504
        36.0004
 -10459775.64548  -8110256.03546
                  22320846.9064                                   22320844.2704
                                                                        48.7504
        36.5004
 -12263959.05948  -9512765.30546
                  21514320.1954                                   21514317.0204
                                                                        48.5004
        39.0004
   -595558.60247   -411289.63344
                  23677272.0554                                   23677266.6054
                                                                        45.0004
        28.0004
  11447115.56646   8931804.38743
                  24241043.5314                                   24241039.8324
                                                                        40.0004
        21.5004
  12662173.25046   9905802.62543
                  24400525.1484                                   24400521.0904
                                                                        40.5004
        21.7504
    345331.78547    306287.65244
                  23101314.5944                                   23101311.5314
                                                                        44.5004
        28.2504
 09 10  4  1 17 30.0000000  0 10G02G04G05G13G29G10G23G16G07G25
 -15644191.43448 -12122144.15246
                  20817835.7034                                   20817830.5234
                                                                        51.5004
        41.5004
   4163417.55947   3286609.82045
                  22988858.5864                                   22988855.7934
                                                                        46.2504
        31.7504
  -7639273.04348  -5910073.42246
                  22153572.3524                                   22153569.0824
                                                                        49.0004
        38.2504
 -20592709.63748 -15973562.68046
                  21437356.2894                                   21437352.8324
                                                                        49.5004
        36.0004
 -10581500.51248  -8205106.58246
                  22297682.8054                                   22297680.4494
                                                                        48.2504
        36.5004
 -12424019.18748  -9637487.45746
                  21483861.8984                                   21483858.7234
                                                                        49.7504
        39.0004
   -584271.77747   -402494.68744
                  23679419.9614                                   23679414.4494
                                                                        43.5004
        25.5004
  11302640.50446   8819226.42243
                  24213551.5084                                   24213546.9144
                                                                        40.7504
        20.7504
  12480621.87947   9764334.09843
                  24365977.0234                                   24365972.8404
                                                                        42.2504
        21.2504
    206499.52347    198106.66844
                  23074895.4454                                   23074892.1294
                                                                        44.2504
        28.5004
 09 10  4  1 18  0.0000000  0 10G02G04G05G13G29G10G23G16G07G25
 -15685450.31248 -12154293.93446
                  20809984.2504                                   20809978.9184
                                                                        52.0004
        41.5004
   4181711.68447   3300864.95745
                  22992340.0394                                   22992336.8594
                                                                        46.0004
        32.2504
  -7809953.99248  -6043071.58646
                  22121093.0164                                   22121089.3324
                                                                        48.7504
        39.0004
 -20644760.09048 -16014121.48846
                  21427451.6254                                   21427448.1134
                                                                        49.2504
        36.0004
 -10702628.77048  -8299492.26246
                  22274632.9924                                   22274630.4344
                                                                        49.0004
        36.5004
 -12583613.54348  -9761846.64846
                  21453491.9614                                   21453488.8714
                                                                        49.5004
        38.7504
   -572632.56247   -393425.13343
                  23681634.7504                                   23681629.0984
                                                                        42.5004
        23.5004
  11158689.21946   8707056.56343
                  24186158.4774                                   24186153.8834
                                                                        40.7504
        21.5004
  12299366.31647   9623096.11344
                  24331485.9614                                   24331481.6954
                                                                        43.7504
        24.2504
     68188.75047     90332.08244
                  23048575.7974                                   23048572.7894
                                                                        43.5004
        29.2504
 09 10  4  1 18 30.0000000  0 10G02G04G05G13G29G10G23G16G07G25
 -15726130.44148 -12185992.72746
                  20802243.1094                                   20802237.7814
                                                                        51.5004
        41.5004
   4200286.28147   3315338.67645
                  22995874.2814                                   22995871.9024
                                                                        47.0004
        33.2504
  -7980259.85248  -6175777.43446
                  22088684.7194                                   22088681.2624
                                                                        49.2504
        38.5004
 -20696152.39548 -16054167.46945
                  21417671.4534                                   21417668.2304
                                                                        49.7504
        35.5004
 -10823158.27348  -8393411.36746
                  22251697.0784                                   22251694.7424
                                                                        49.2504
        37.0004
 -12742739.47748  -9885840.85946
                  21423211.3524                                   21423208.2034
                                                                        49.0004
        38.7504
   -560642.78546   -384082.40643
                  23683915.6884                                   23683910.4344
                                                                        41.0004
        22.5004
  11015264.66446   8595297.14543
                  24158865.6414                                   24158860.5004
                                                                        41.0004
        21.5004
  12118409.68447   9482090.96144
                  24297050.5234                                   24297046.4964
                                                                        43.7504
        26.5004
    -69598.30147    -17034.43044
                  23022356.4144                                   23022352.9774
                                                                        43.7504
        29.5004
