     2.11           OBSERVATION DATA    G (GPS)             RINEX VERSION / TYPE
teqc  2019Feb25                         20221121 12:28:40UTCPGM / RUN BY / DATE
OSX ker:10.11.6|Core i5|gcc 4.3 -m64|OSX ker:10.10+|=+      COMMENT
BIT 2 OF LLI FLAGS DATA COLLECTED UNDER A/S CONDITION       COMMENT
04712970                                                    MARKER NAME
2970                                                        MARKER NUMBER
-Unknown-           -Unknown-                               OBSERVER / AGENCY
0220400471          TRIMBLE R7          2.30                REC # / TYPE / VERS
-Unknown-           TRM39105.00     NONE                    ANT # / TYPE
  1449458.4334 -1709242.5729  5952442.7973                  APPROX POSITION XYZ
        0.0000        0.0000        0.0000                  ANTENNA: DELTA H/E/N
     1     1                                                WAVELENGTH FACT L1/2
    20    L1    L2    L5    L6    L7    L8    C1    P1    C2# / TYPES OF OBSERV
          P2    C5    C6    C7    C8    S1    S2    S5    S6# / TYPES OF OBSERV
          S7    S8                                          # / TYPES OF OBSERV
    30.0000                                                 INTERVAL
    15                                                      LEAP SECONDS
Forced Modulo Decimation to 30 seconds                      COMMENT
 SNR is mapped to RINEX snr flag value [0-9]                COMMENT
  L1 & L2: min(max(int(snr_dBHz/6), 0), 9)                  COMMENT
teqc edited: Beidou # 1 - 37 excluded                       COMMENT
  2009    10    24     0     0    0.0000000     GPS         TIME OF FIRST OBS
                                                            END OF HEADER
 09 10 24  0  0  0.0000000  0 10G02G04G05G10G13G23G25G29G16G07
  -7725316.23848  -5974839.21946
                  20676875.2034                                   20676869.4924
                                                                        52.2504
        41.5004
   -484182.72747   -368052.94945
                  23059596.7734                                   23059593.7774
                                                                        46.5004
        30.7504
 -19203894.31648 -14879351.97746
                  21744807.7274                                   21744803.8364
                                                                        50.0004
        39.5004
 -18175375.67648 -14080042.47346
                  21011024.0944                                   21011020.7274
                                                                        51.2504
        40.5004
  -8989058.95348  -6952409.97745
                  21303986.1724                                   21303981.4064
                                                                        49.5004
        35.2504
  -1804289.85947  -1388566.70744
                  23572701.0234                                   23572693.9844
                                                                        42.0004
        24.0004
 -16242930.37147 -12638150.96144
                  22778247.0704                                   22778242.6054
                                                                        43.7504
        29.2504
 -15198613.33648 -11770464.12946
                  22011742.5474                                   22011739.3134
                                                                        50.0004
        37.5004
  -4561873.60946  -3516554.16443
                  23905240.2814                                   23905235.0944
                                                                        40.7504
        22.2504
  -3480982.58646  -2693401.88344
                  24002275.8674                                   24002273.4534
                                                                        38.7504
        25.5004
 09 10 24  0  0 30.0000000  0 10G02G04G05G10G13G23G25G29G16G07
  -7771544.60248  -6010861.34446
                  20668078.4694                                   20668072.1644
                                                                        52.5004
        41.7504
   -471288.61347   -358005.62545
                  23062050.6094                                   23062047.4734
                                                                        47.0004
        30.7504
 -19378707.25448 -15015569.82046
                  21711542.0314                                   21711537.9454
                                                                        50.0004
        40.5004
 -18334447.46148 -14203994.52046
                  20980753.9454                                   20980750.2584
                                                                        51.0004
        40.2504
  -9043921.89548  -6995160.30545
                  21293545.9224                                   21293541.1094
                                                                        49.2504
        35.5004
  -1799674.36747  -1384970.24243
                  23573578.9064                                   23573572.8554
                                                                        42.0004
        22.0004
 -16385221.01647 -12749026.78545
                  22751169.8834                                   22751165.4844
                                                                        43.0004
        30.0004
 -15321835.96948 -11866481.75846
                  21988294.0554                                   21988290.6294
                                                                        49.2504
        38.0004
  -4709541.77046  -3631620.26643
                  23877140.1804                                   23877134.8324
                                                                        41.2504
        21.7504
  -3668292.19546  -2839357.34044
                  23966632.5234                                   23966629.6174
                                                                        38.5004
        26.5004
 09 10 24  0  1  0.0000000  0 10G02G04G05G10G13G23G25G29G16G07
  -7817200.15648  -6046437.12147
                  20659390.7734                                   20659384.6994
                                                                        52.5004
        42.0004
   -458140.88347   -347760.65245
                  23064552.7114                                   23064549.2854
                                                                        46.5004
        30.7504
 -19553120.50448 -15151476.21146
                  21678352.2814                                   21678348.5514
                                                                        50.2504
        40.5004
 -18493013.46948 -14327552.41046
                  20950579.8914                                   20950576.3284
                                                                        52.0004
        40.2504
  -9098138.86348  -7037407.31245
                  21283228.9844                                   21283224.3244
                                                                        49.7504
        35.7504
  -1794722.02347  -1381111.26643
                  23574521.9384                                   23574514.9734
                                                                        42.7504
        22.5004
 -16526968.89547 -12859479.66444
                  22724195.7974                                   22724192.0554
                                                                        43.5004
        29.2504
 -15444445.00848 -11962021.27346
                  21964962.3834                                   21964958.9264
                                                                        49.5004
        38.0004
  -4856661.39546  -3746258.98043
                  23849144.3364                                   23849138.9454
                                                                        40.7504
        21.5004
  -3855273.53146  -2985056.93044
                  23931051.0314                                   23931047.4024
                                                                        41.2504
        24.5004
 09 10 24  0  1 30.0000000  0 10G02G04G05G10G13G23G25G29G16G07
  -6286859.26648  -4853963.73447
                  20950604.7894                                   20950598.6414
                                                                        52.5004
        42.2504
   1130681.19547    890282.50844
                  23366895.2504                                   23366891.7344
                                                                        45.0004
        29.5004
 -18151701.80548 -14059461.62546
                  21945033.2974                                   21945029.6884
                                                                        50.0004
        40.2504
 -17075642.77748 -13223107.71946
                  21220296.5234                                   21220293.2034
                                                                        51.5004
        40.2504
  -7576286.50048  -5851548.31645
                  21572827.4774                                   21572823.3444
                                                                        49.5004
        35.2504
   -214012.52747   -149389.57843
                  23875320.6024                                   23875314.1844
                                                                        42.5004
        23.7504
 -15092744.78547 -11741902.43445
                  22997119.7814                                   22997115.9224
                                                                        43.0004
        30.0004
 -13991010.81648 -10829475.14146
                  22241541.6564                                   22241538.1644
                                                                        49.5004
        37.7504
  -3427801.95346  -2632862.01643
                  24121046.9694                                   24121041.4384
                                                                        40.0004
        21.5004
  -2466495.05147  -1902891.73844
                  24195327.3834                                   24195322.3594
                                                                        43.5004
        24.5004
 09 10 24  0  2  0.0000000  0 10G02G04G05G10G13G23G25G29G16G07
  -6331366.73448  -4888644.89146
                  20942135.2734                                   20942129.1644
                                                                        52.5004
        41.5004
   1144335.68847    900922.34044
                  23369493.3054                                   23369490.4804
                                                                        44.5004
        29.0004
 -18325302.42648 -14194734.80146
                  21911998.3204                                   21911994.2504
                                                                        50.5004
        40.5004
 -17233185.41848 -13345868.20746
                  21190316.9304                                   21190313.9454
                                                                        51.0004
        40.5004
  -7629210.19948  -5892787.55945
                  21562756.5784                                   21562752.1374
                                                                        49.2504
        35.2504
   -208388.05547   -145006.88344
                  23876390.7664                                   23876384.9064
                                                                        43.0004
        25.5004
 -15233396.24647 -11851500.96544
                  22970354.2894                                   22970350.6414
                                                                        42.2504
        29.0004
 -14112381.44148 -10924049.64846
                  22218445.2584                                   22218442.2504
                                                                        49.5004
        38.0004
  -3573811.63346  -2746635.82043
                  24093262.6334                                   24093257.1994
                                                                        41.0004
        22.2504
  -2652806.29347  -2048069.21144
                  24159873.4384                                   24159868.1094
                                                                        43.0004
        24.5004
 09 10 24  0  2 30.0000000  0 10G02G04G05G10G13G23G25G29G16G07
  -6375303.78148  -4922881.57847
                  20933774.3524                                   20933768.2504
                                                                        52.0004
        42.0004
   1158239.22747    911756.20344
                  23372139.2974                                   23372136.4304
                                                                        44.0004
        29.5004
 -18498495.59848 -14329690.49646
                  21879040.6954                                   21879036.6374
                                                                        50.5004
        41.0004
 -17390215.20348 -13468229.07046
                  21160435.4454                                   21160431.6844
                                                                        51.7504
        40.2504
  -7681490.76248  -5933525.65245
                  21552808.1254                                   21552803.4024
                                                                        48.7504
        35.5004
   -202432.87547   -140366.44543
                  23877524.3284                                   23877517.5984
                                                                        42.0004
        22.0004
 -15373498.12147 -11960671.25044
                  22943694.4064                                   22943689.9264
                                                                        42.0004
        29.0004
 -14233132.92648 -11018141.70746
                  22195467.6884                                   22195464.0124
                                                                        50.2504
        38.0004
  -3719265.12146  -2859976.21943
                  24065582.7194                                   24065577.9184
                                                                        38.5004
        21.5004
  -2838779.22347  -2192983.11744
                  24124484.3364                                   24124479.0314
                                                                        44.0004
        25.0004
 09 10 24  0  3  0.0000000  0 10G02G04G05G10G13G23G25G29G16G07
  -6418672.59448  -4956675.49646
                  20925521.6414                                   20925515.8634
                                                                        52.7504
        41.5004
   1172387.92247    922781.11344
                  23374831.4534                                   23374828.5394
                                                                        43.7504
        29.0004
 -18671280.95348 -14464328.42246
                  21846160.8524                                   21846156.5594
                                                                        51.0004
        41.0004
 -17546732.22748 -13590190.37946
                  21130651.4144                                   21130647.5204
                                                                        52.0004
        40.5004
  -7733131.58648  -5973765.25445
                  21542980.8754                                   21542976.3484
                                                                        48.5004
        35.2504
   -196151.27346   -135471.68444
                  23878719.1094                                   23878713.3444
                                                                        41.0004
        24.0004
 -15513050.34847 -12069413.21544
                  22917137.9844                                   22917134.0784
                                                                        43.7504
        28.7504
 -14353265.27748 -11111751.32446
                  22172607.3364                                   22172603.2344
                                                                        51.0004
        37.5004
  -3864161.61346  -2972882.60243
                  24038009.8364                                   24038005.8284
                                                                        39.7504
        21.5004
  -3024412.60947  -2337632.47344
                  24089158.1024                                   24089154.4024
                                                                        44.2504
        24.0004
 09 10 24  0  3 30.0000000  0 10G02G04G05G10G13G23G25G29G16G07
  -6461473.45348  -4990026.86746
                  20917376.9614                                   20917371.2234
                                                                        51.7504
        41.7504
   1186780.65647    933996.17644
                  23377570.9774                                   23377567.6134
                                                                        44.0004
        29.2504
 -18843655.56248 -14598646.29346
                  21813358.9844                                   21813354.5904
                                                                        50.2504
        40.2504
 -17702733.93448 -13711750.15246
                  21100964.8674                                   21100961.5634
                                                                        52.0004
        40.7504
  -7784133.19948  -6013506.73445
                  21533275.9614                                   21533271.4224
                                                                        48.2504
        34.2504
   -189544.91446   -130323.91044
                  23879976.7664                                   23879970.4414
                                                                        40.7504
        24.0004
 -15652050.16847 -12177724.75444
                  22890687.3134                                   22890683.2734
                                                                        43.7504
        29.0004
 -14472776.75848 -11204877.15246
                  22149864.7734                                   22149861.3754
                                                                        50.0004
        38.5004
  -4008498.08246  -3085352.56243
                  24010544.0784                                   24010539.6174
                                                                        38.7504
        22.5004
  -3209702.44547  -2482014.07844
                  24053898.4774                                   24053894.5004
                                                                        42.7504
        26.2504
 09 10 24  0  4  0.0000000  0 10G02G04G05G10G13G23G25G29G16G07
  -6503707.92648  -5022936.87546
                  20909339.8914                                   20909333.8364
                                                                        52.7504
        41.5004
   1201414.71547    945399.25844
                  23380355.7194                                   23380352.2854
                                                                        46.0004
        29.7504
 -19015617.87148 -14732642.87146
                  21780635.1954                                   21780631.6054
                                                                        49.5004
        40.5004
 -17858218.80948 -13832907.18446
                  21071377.0704                                   21071373.4534
                                                                        52.0004
        40.5004
  -7834497.96547  -6052752.01245
                  21523691.3364                                   21523687.1994
                                                                        47.5004
        34.2504
   -182616.61347   -124925.29744
                  23881294.4614                                   23881289.1254
                                                                        42.0004
        25.0004
 -15790496.49247 -12285605.00044
                  22864341.8984                                   22864337.7734
                                                                        44.0004
        29.5004
 -14591666.38748 -11297518.43046
                  22127240.8364                                   22127237.2504
                                                                        49.7504
        38.5004
  -4152273.09046  -3197385.03543
                  23983185.1414                                   23983179.8984
                                                                        39.5004
        22.5004
  -3394646.48846  -2626126.21944
                  24018704.6954                                   24018701.5234
                                                                        41.5004
        24.5004
 09 10 24  0  4 30.0000000  0 10G02G04G05G10G13G23G25G29G16G07
  -6545375.35948  -5055405.00446
                  20901410.8984                                   20901404.9654
                                                                        52.2504
        41.2504
   1216290.70747    956990.88744
                  23383186.9774                                   23383183.2304
                                                                        45.0004
        29.7504
 -19187164.64848 -14866315.68446
                  21747991.3134                                   21747987.2624
                                                                        49.5004
        40.5004
 -18013183.24648 -13953658.66846
                  21041888.6484                                   21041884.6524
                                                                        52.5004
        40.2504
  -7884225.14547  -6091500.47345
                  21514228.7504                                   21514224.3164
                                                                        47.2504
        34.7504
   -175367.11347   -119276.36343
                  23882674.5234                                   23882668.2304
                                                                        43.5004
        23.0004
 -15928385.36747 -12393050.87544
                  22838102.6484                                   22838098.2934
                                                                        44.5004
        28.7504
 -14709931.27348 -11389672.89546
                  22104735.5314                                   22104732.2894
                                                                        50.0004
        38.2504
  -4295483.05546  -3308977.18443
                  23955933.1024                                   23955928.3874
                                                                        40.0004
        22.7504
  -3579238.96547  -2769964.31644
                  23983577.8524                                   23983574.5554
                                                                        42.5004
        26.5004
 09 10 24  0  5  0.0000000  0 10G02G04G05G10G13G23G25G29G16G07
  -6586481.20748  -5087435.53947
                  20893588.4384                                   20893582.6994
                                                                        52.5004
        42.0004
   1231402.00847    968765.84044
                  23386061.9534                                   23386059.3014
                                                                        45.0004
        29.7504
 -19358298.08648 -14999666.43046
                  21715425.8914                                   21715422.1134
                                                                        50.5004
        40.0004
 -18167630.33248 -14074007.07046
                  21012498.1724                                   21012494.2384
                                                                        52.0004
        41.0004
  -7933320.40248  -6129756.52045
                  21504886.2664                                   21504881.7234
                                                                        48.0004
        34.0004
   -167802.70347   -113382.00443
                  23884114.0394                                   23884106.9024
                                                                        44.0004
        22.2504
 -16065719.10547 -12500064.18044
                  22811968.9614                                   22811964.6604
                                                                        45.0004
        29.0004
 -14827575.18048 -11481343.48046
                  22082349.0084                                   22082345.1804
                                                                        49.7504
        38.5004
  -4438129.85246  -3420130.53943
                  23928788.2584                                   23928784.0664
                                                                        41.2504
        23.0004
  -3763481.39847  -2913529.72744
                  23948518.1804                                   23948514.3634
                                                                        44.0004
        27.2504
 09 10 24  0  5 30.0000000  0 10G02G04G05G10G13G23G25G29G16G07
  -6627028.11748  -5119030.54747
                  20885872.7504                                   20885867.0554
                                                                        52.2504
        42.0004
   1246745.12547    980721.40244
                  23388982.2734                                   23388979.1454
                                                                        44.5004
        28.5004
 -19529017.57448 -15132694.56246
                  21682938.7274                                   21682935.4304
                                                                        48.7504
        41.2504
 -18321559.58648 -14193951.91846
                  20983206.6024                                   20983202.1954
                                                                        52.5004
        40.5004
  -7981787.34447  -6167523.04345
                  21495663.2114                                   21495658.9414
                                                                        46.7504
        35.0004
   -159928.10547   -107245.89543
                  23885613.0944                                   23885605.2974
                                                                        44.0004
        21.7504
 -16202497.86347 -12606645.03544
                  22785941.0864                                   22785936.3244
                                                                        44.7504
        29.2504
 -14944598.03548 -11572530.12546
                  22060080.6484                                   22060077.1134
                                                                        50.5004
        38.2504
  -4580213.23446  -3530844.83244
                  23901750.4064                                   23901745.8134
                                                                        41.7504
        24.0004
  -3947372.67647  -3056821.55944
                  23913524.5634                                   23913520.6414
                                                                        44.0004
        27.5004
 09 10 24  0  6  0.0000000  0 10G02G04G05G10G13G23G25G29G16G07
  -6667016.77048  -5150190.55546
                  20878263.1484                                   20878257.4184
                                                                        53.0004
        41.2504
   1262318.57447    992856.49244
                  23391945.1174                                   23391942.5664
                                                                        44.0004
        28.0004
 -19699320.56248 -15265398.19946
                  21650531.4304                                   21650527.2894
                                                                        50.2504
        40.7504
 -18474968.74248 -14313491.48446
                  20954013.4064                                   20954009.6414
                                                                        52.5004
        40.7504
  -8029626.77047  -6204800.56645
                  21486559.5864                                   21486555.5124
                                                                        47.7504
        35.2504
   -151745.14547   -100869.48843
                  23887170.5394                                   23887163.1454
                                                                        43.2504
        22.5004
 -16338719.39847 -12712791.69544
                  22760018.6724                                   22760014.2734
                                                                        44.5004
        29.5004
 -15060997.81648 -11663231.25846
                  22037930.2194                                   22037926.8754
                                                                        50.5004
        38.5004
  -4721730.48046  -3641117.99644
                  23874820.8524                                   23874815.9264
                                                                        41.0004
        25.0004
  -4130909.30147  -3199837.03544
                  23878599.0634                                   23878595.0474
                                                                        44.7504
        28.0004
 09 10 24  0  6 30.0000000  0 10G02G04G05G10G13G23G25G29G16G07
  -6706448.42648  -5180916.52046
                  20870759.7034                                   20870753.9224
                                                                        53.0004
        41.0004
   1278120.73447   1005169.82444
                  23394952.3834                                   23394949.6844
                                                                        45.0004
        28.7504
 -19869205.24648 -15397775.85946
                  21618203.3284                                   21618199.3794
                                                                        50.0004
        40.0004
 -18627856.43048 -14432624.75846
                  20924919.6564                                   20924915.8484
                                                                        52.2504
        40.5004
  -8076840.07448  -6241590.16045
                  21477575.6564                                   21477571.1604
                                                                        48.0004
        34.7504
   -143256.40246    -94254.87543
                  23888784.9224                                   23888778.3834
                                                                        40.0004
        21.0004
 -16474381.82047 -12818502.68044
                  22734202.9534                                   22734198.7384
                                                                        44.2504
        28.7504
 -15176774.00448 -11753446.46946
                  22015898.8984                                   22015895.0594
                                                                        50.7504
        37.7504
  -4862680.04746  -3750948.82044
                  23847998.7974                                   23847993.5394
                                                                        41.5004
        24.2504
  -4314088.01647  -3342573.59444
                  23843740.9384                                   23843736.7934
                                                                        45.0004
        27.2504
 09 10 24  0  7  0.0000000  0 10G02G04G05G10G13G23G25G29G16G07
  -6745324.49648  -5211209.55546
                  20863362.0004                                   20863356.1054
                                                                        53.0004
        41.2504
   1294149.11347   1017659.45344
                  23398002.5164                                   23397999.3794
                                                                        45.0004
        29.2504
 -20038669.94548 -15529826.25046
                  21585955.0084                                   21585951.0514
                                                                        51.0004
        41.0004
 -18780220.94548 -14551350.33646
                  20895925.9924                                   20895922.2854
                                                                        52.7504
        40.5004
  -8123429.08648  -6277893.25845
                  21468709.9924                                   21468705.4384
                                                                        48.0004
        34.2504
   -134463.98046    -87403.68743
                  23890457.3204                                   23890451.8094
                                                                        38.5004
        21.2504
 -16609483.46147 -12923776.69144
                  22708494.0084                                   22708489.5434
                                                                        45.2504
        29.5004
 -15291925.62948 -11843175.00446
                  21993985.8364                                   21993982.4414
                                                                        50.2504
        38.0004
  -5003059.44547  -3860335.35543
                  23821285.6644                                   23821280.5044
                                                                        42.5004
        22.2504
  -4496905.44947  -3485028.69944
                  23808952.0234                                   23808947.3524
                                                                        43.5004
        26.0004
 09 10 24  0  7 30.0000000  0 10G02G04G05G10G13G23G25G29G16G07
  -6783648.74648  -5241072.60547
                  20856069.0474                                   20856062.9144
                                                                        53.0004
        42.0004
   1310398.87947   1030321.55944
                  23401095.1174                                   23401092.0904
                                                                        46.0004
        29.5004
 -20207715.48048 -15661550.02346
                  21553786.7894                                   21553782.7894
                                                                        50.7504
        41.0004
 -18932063.48448 -14669669.18046
                  20867031.3204                                   20867027.4774
                                                                        52.5004
        40.7504
  -8169398.87548  -6313713.86745
                  21459962.5314                                   21459957.2974
                                                                        48.7504
        34.0004
   -125373.89546    -80320.55544
                  23892187.3204                                   23892182.1644
                                                                        40.5004
        24.2504
 -16744025.99647 -13028615.04744
                  22682891.5784                                   22682887.6214
                                                                        45.5004
        28.7504
 -15406454.25848 -11932418.08246
                  21972191.9614                                   21972188.2504
                                                                        50.5004
        38.2504
  -5142870.44547  -3969279.00043
                  23794680.7974                                   23794674.7894
                                                                        42.5004
        21.7504
  -4679362.20347  -3627202.77044
                  23774231.9534                                   23774227.0394
                                                                        44.5004
        25.7504
 09 10 24  0  8  0.0000000  0 10G02G04G05G10G13G23G25G29G16G07
  -6821422.45748  -5270506.64846
                  20848880.9064                                   20848874.9224
                                                                        53.0004
        41.0004
   1326868.50847   1043155.02745
                  23404229.0474                                   23404226.3134
                                                                        46.5004
        30.0004
 -20376340.28948 -15792945.96146
                  21521698.5164                                   21521694.3984
                                                                        50.7504
        40.7504
 -19083382.05548 -14787579.74246
                  20838236.4454                                   20838232.5634
                                                                        51.7504
        40.7504
  -8214750.30948  -6349052.62145
                  21451331.8674                                   21451327.6914
                                                                        48.5004
        34.2504
   -115988.19947    -73007.04744
                  23893973.5164                                   23893968.0274
                                                                        42.0004
        25.5004
 -16878006.85247 -13133015.71945
                  22657395.7194                                   22657391.7934
                                                                        45.7504
        30.0004
 -15520359.27748 -12021175.24246
                  21950516.5234                                   21950512.8284
                                                                        50.0004
        38.5004
  -5282110.59847  -4077777.84043
                  23768183.4454                                   23768178.3324
                                                                        42.5004
        21.0004
  -4861454.25047  -3769092.65244
                  23739580.3594                                   23739576.0234
                                                                        42.7504
        26.2504
 09 10 24  0  8 30.0000000  0 10G02G04G05G10G13G23G25G29G16G07
  -6858647.51248  -5299513.17246
                  20841797.1334                                   20841791.5434
                                                                        53.0004
        41.2504
   1343555.23047   1056157.62944
                  23407404.2734                                   23407401.3794
                                                                        44.7504
        28.2504
 -20544542.96948 -15924012.98446
                  21489690.7034                                   21489686.7624
                                                                        50.5004
        41.0004
 -19234176.03148 -14905081.54346
                  20809541.2274                                   20809537.5984
                                                                        51.0004
        41.0004
  -8259485.73048  -6383911.38745
                  21442819.2424                                   21442814.5554
                                                                        48.0004
        34.2504
   -106310.13747    -65465.71544
                  23895816.4384                                   23895809.9844
                                                                        43.0004
        27.0004
 -17011425.48447 -13236978.30544
                  22632007.5474                                   22632003.3094
                                                                        45.5004
        29.5004
 -15633639.78148 -12109445.75846
                  21928959.7344                                   21928956.3364
                                                                        50.0004
        38.5004
  -5420778.39547  -4185830.69543
                  23741796.2194                                   23741790.9384
                                                                        42.0004
        22.0004
  -5043179.30746  -3910696.49444
                  23704998.9454                                   23704994.9534
                                                                        41.7504
        24.0004
 09 10 24  0  9  0.0000000  0 10G02G04G05G10G13G23G25G29G16G07
  -6895326.28548  -5328094.02346
                  20834817.6174                                   20834811.4454
                                                                        53.0004
        41.7504
   1360455.96147   1069326.98044
                  23410620.1954                                   23410618.0164
                                                                        44.5004
        27.0004
 -20712322.39148 -16054750.16846
                  21457763.5704                                   21457758.8594
                                                                        51.2504
        40.7504
 -19384444.46948 -15022173.83246
                  20780946.2034                                   20780942.2624
                                                                        51.2504
        41.0004
  -8303608.28148  -6418292.58245
                  21434422.8364                                   21434418.5434
                                                                        48.5004
        34.5004
    -96343.04747    -57699.18043
                  23897713.0084                                   23897706.5784
                                                                        42.5004
        22.7504
 -17144281.38347 -13340502.37945
                  22606725.3834                                   22606721.6844
                                                                        45.5004
        30.0004
 -15746295.98448 -12197229.80946
                  21907522.2584                                   21907518.8714
                                                                        49.5004
        38.0004
  -5558873.25847  -4293437.10243
                  23715518.4694                                   23715512.3094
                                                                        42.7504
        22.5004
  -5224535.94546  -4052013.27744
                  23670487.8834                                   23670483.7774
                                                                        41.5004
        26.0004
 09 10 24  0  9 30.0000000  0 10G02G04G05G10G13G23G25G29G16G07
  -6931460.96148  -5356250.90646
                  20827941.2894                                   20827935.2664
                                                                        53.0004
        41.5004
   1377567.61347   1082660.59844
                  23413876.4924                                   23413873.7384
                                                                        43.2504
        27.2504
 -20879678.19948 -16185157.25446
                  21425916.4454                                   21425912.4414
                                                                        50.7504
        41.0004
 -19534187.33248 -15138856.57446
                  20752450.8054                                   20752447.3284
                                                                        52.0004
        41.2504
  -8347120.77348  -6452198.43745
                  21426142.9534                                   21426138.0864
                                                                        48.5004
        34.5004
    -86090.63746    -49710.28543
                  23899663.6334                                   23899656.7814
                                                                        40.5004
        22.0004
 -17276573.66047 -13443587.27345
                  22581551.3204                                   22581546.5864
                                                                        46.0004
        30.5004
 -15858328.72348 -12284528.04346
                  21886203.0234                                   21886199.5784
                                                                        48.7504
        39.0004
  -5696394.91046  -4400596.84843
                  23689347.8754                                   23689342.6644
                                                                        41.7504
        22.0004
  -5405521.87547  -4193041.19944
                  23636047.5864                                   23636043.4184
                                                                        42.0004
        27.0004
 09 10 24  0 10  0.0000000  0 10G02G04G05G10G13G23G25G29G16G07
  -5391630.49648  -4156383.01646
                  21120960.9384                                   21120955.3284
                                                                        52.7504
        40.5004
   2970309.23047   2323757.90644
                  23716965.8444                                   23716962.7664
                                                                        45.2504
        28.0004
 -19471180.83648 -15087626.83246
                  21693944.5394                                   21693940.4654
                                                                        52.0004
        41.0004
 -18107975.91448 -14027523.01246
                  21023850.0004                                   21023846.1254
                                                                        52.5004
        41.0004
  -6814601.75448  -5258027.77745
                  21717771.7344                                   21717767.0274
                                                                        49.7504
        34.0004
   1499865.57046   1186099.76643
                  24201460.9694                                   24201453.8404
                                                                        39.2504
        20.0004
 -15832875.23047 -12318627.46145
                  22856278.0004                                   22856274.0824
                                                                        45.7504
        30.7504
 -14394310.59848 -11143734.68746
                  22164796.2274                                   22164792.8984
                                                                        50.0004
        38.0004
  -4257914.51646  -3279703.03143
                  23963082.0394                                   23963076.5824
                                                                        41.5004
        21.2504
  -4010706.82847  -3106172.27744
                  23901472.5314                                   23901468.0474
                                                                        44.2504
        28.0004
 09 10 24  0 10 30.0000000  0 10G02G04G05G10G13G23G25G29G16G07
  -5426679.32848  -4183693.75846
                  21114291.4534                                   21114285.7814
                                                                        52.5004
        41.0004
   2987839.09047   2337417.46144
                  23720301.7424                                   23720298.7274
                                                                        44.5004
        29.0004
 -19637681.48048 -15217367.59446
                  21662260.6334                                   21662256.8404
                                                                        51.0004
        41.0004
 -18256660.59448 -14143381.19146
                  20995556.3284                                   20995552.5554
                                                                        52.0004
        41.2504
  -6856897.14548  -5290985.21145
                  21709722.5634                                   21709718.3554
                                                                        49.2504
        34.0004
   1510682.75846   1194528.73043
                  24203518.9384                                   24203512.4614
                                                                        38.2504
        18.5004
 -15964034.20347 -12420829.26645
                  22831318.9924                                   22831315.5554
                                                                        45.5004
        30.2504
 -14505090.64148 -11230056.79746
                  22143715.3364                                   22143712.0904
                                                                        49.7504
        38.0004
  -4394281.29746  -3385962.87943
                  23937131.6484                                   23937126.7504
                                                                        41.5004
        21.7504
  -4190940.52047  -3246614.09844
                  23867174.8594                                   23867170.5164
                                                                        43.5004
        28.2504
 09 10 24  0 11  0.0000000  0 10G02G04G05G10G13G23G25G29G16G07
  -5461188.59848  -4210584.07846
                  21107724.6024                                   21107718.8014
                                                                        52.0004
        41.0004
   3005573.48847   2351236.45344
                  23723676.0394                                   23723672.8554
                                                                        44.5004
        28.0004
 -19803753.32448 -15346774.22346
                  21630658.3054                                   21630653.8484
                                                                        50.2504
        41.2504
 -18404815.43048 -14258826.51646
                  20967363.1024                                   20967359.9964
                                                                        51.2504
        41.0004
  -6898587.94548  -5323471.53145
                  21701789.8364                                   21701784.9064
                                                                        48.5004
        33.5004
   1521777.04346   1203173.65643
                  24205630.5164                                   24205624.0664
                                                                        39.5004
        20.7504
 -16094625.77047 -12522588.91445
                  22806467.8204                                   22806464.2814
                                                                        46.0004
        31.0004
 -14615244.64548 -11315891.09846
                  22122753.9224                                   22122750.7344
                                                                        49.0004
        38.0004
  -4530069.41446  -3491771.77343
                  23911292.3914                                   23911287.6804
                                                                        41.5004
        22.7504
  -4370795.41447  -3386760.73044
                  23832949.7584                                   23832945.4344
                                                                        42.5004
        29.0004
 09 10 24  0 11 30.0000000  0 10G02G04G05G10G13G23G25G29G16G07
  -5495159.59048  -4237054.95346
                  21101260.2194                                   21101254.3284
                                                                        52.5004
        41.0004
   3023510.62147   2365213.39144
                  23727089.5394                                   23727086.8984
                                                                        43.2504
        27.7504
 -19969394.39548 -15475845.16446
                  21599137.5944                                   21599133.7734
                                                                        50.5004
        40.5004
 -18552438.58648 -14373857.53946
                  20939271.3674                                   20939267.8914
                                                                        51.0004
        40.7504
  -6939676.22748  -5355488.37945
                  21693970.4144                                   21693965.9734
                                                                        49.2504
        34.0004
   1533145.85946   1212032.49243
                  24207793.7814                                   24207786.9344
                                                                        40.7504
        21.0004
 -16224648.19947 -12623905.06245
                  22781725.8754                                   22781721.9144
                                                                        45.5004
        30.0004
 -14724771.07048 -11401236.35946
                  22101911.9224                                   22101908.4344
                                                                        49.7504
        38.7504
  -4665276.84847  -3597128.21544
                  23885563.4064                                   23885558.3714
                                                                        42.2504
        24.2504
  -4550268.12547  -3526609.55144
                  23798796.4064                                   23798792.7544
                                                                        43.0004
        28.2504
 09 10 24  0 12  0.0000000  0 10G02G04G05G10G13G23G25G29G16G07
  -5528593.65248  -4263107.42646
                  21094898.0164                                   21094892.1374
                                                                        51.7504
        41.7504
   3041648.60247   2379346.84844
                  23730541.0704                                   23730538.0864
                                                                        44.2504
        29.0004
 -20134602.47348 -15604578.73046
                  21567699.6254                                   21567695.6134
                                                                        50.7504
        41.2504
 -18699528.63348 -14488473.15246
                  20911281.0314                                   20911277.4064
                                                                        51.5004
        40.5004
  -6980163.42648  -5387036.84845
                  21686266.0634                                   21686261.6844
                                                                        49.0004
        33.7504
   1544787.35946   1221103.78943
                  24210009.2974                                   24210003.3674
                                                                        41.0004
        22.5004
 -16354099.85547 -12724776.48445
                  22757091.9694                                   22757088.0944
                                                                        46.0004
        30.5004
 -14833669.54348 -11486092.31246
                  22081189.1804                                   22081185.6174
                                                                        48.7504
        38.2504
  -4799902.27747  -3702031.13744
                  23859944.9064                                   23859940.0594
                                                                        42.5004
        26.0004
  -4729355.60247  -3666158.19144
                  23764717.9224                                   23764713.5394
                                                                        43.0004
        28.5004
 09 10 24  0 12 30.0000000  0 10G02G04G05G10G13G23G25G29G16G07
  -5561492.74248  -4288743.02346
                  21088637.5634                                   21088631.6844
                                                                        52.5004
        41.5004
   3059984.96147   2393634.86345
                  23734030.8914                                   23734027.7504
                                                                        44.0004
        30.0004
 -20299376.86748 -15732974.34846
                  21536344.3444                                   21536339.7624
                                                                        50.7504
        41.0004
 -18846084.87548 -14602672.82446
                  20883392.4304                                   20883388.5554
                                                                        51.5004
        40.2504
  -7020052.52348  -5418119.25445
                  21678675.5554                                   21678671.4494
                                                                        49.5004
        34.2504
   1556698.19146   1230384.95343
                  24212276.0314                                   24212269.6054
                                                                        41.5004
        22.7504
 -16482979.85547 -12825202.44945
                  22732566.8674                                   22732563.1024
                                                                        46.2504
        30.7504
 -14941940.15648 -11570459.02346
                  22060585.8284                                   22060582.6884
                                                                        49.0004
        38.7504
  -4933944.70347  -3806479.78544
                  23834437.5864                                   23834432.6914
                                                                        42.2504
        26.0004
  -4908055.53946  -3805404.88344
                  23730712.0394                                   23730707.8914
                                                                        40.7504
        28.0004
 09 10 24  0 13  0.0000000  0  9G02G04G05G10G13G25G29G16G07
  -5593857.79348  -4313962.52046
                  21082478.7274                                   21082472.6254
                                                                        52.5004
        41.5004
   3078518.03147   2408076.16044
                  23737557.0704                                   23737554.9734
                                                                        43.0004
        29.2504
 -20463714.76248 -15861029.85546
                  21505071.4614                                   21505067.4344
                                                                        50.7504
        40.5004
 -18992104.71148 -14716454.50846
                  20855605.8914                                   20855602.0394
                                                                        52.0004
        41.0004
  -7059344.13748  -5448736.09045
                  21671198.4534                                   21671194.4144
                                                                        49.0004
        34.5004
 -16611286.26647 -12925181.45344
                  22708150.8524                                   22708146.8794
                                                                        45.2504
        29.7504
 -15049581.55548 -11654335.42646
                  22040102.2974                                   22040098.7344
                                                                        48.0004
        38.5004
  -5067401.59046  -3910472.17244
                  23809041.6334                                   23809037.4104
                                                                        41.2504
        24.5004
  -5086364.31647  -3944346.75844
                  23696780.8524                                   23696776.4924
                                                                        42.0004
        26.5004
 09 10 24  0 13 30.0000000  0  9G02G04G05G10G13G25G29G16G07
  -5625690.63748  -4338767.32446
                  21076420.6484                                   21076414.9304
                                                                        52.0004
        41.0004
   3097245.48846   2422668.89544
                  23741120.4614                                   23741118.3094
                                                                        41.5004
        27.5004
 -20627615.48448 -15988744.68446
                  21473882.5004                                   21473878.5864
                                                                        50.5004
        41.0004
 -19137587.62148 -14829817.80546
                  20827921.3204                                   20827917.5944
                                                                        52.0004
        41.0004
  -7098040.80548  -5478889.32045
                  21663834.7814                                   21663830.3484
                                                                        49.5004
        33.7504
 -16739018.11747 -13024712.76644
                  22683844.7034                                   22683840.2934
                                                                        47.0004
        29.5004
 -15156593.39147 -11737721.27346
                  22019739.0784                                   22019735.3484
                                                                        47.7504
        38.5004
  -5200271.77347  -4014007.38344
                  23783757.7974                                   23783752.8714
                                                                        42.2504
        26.0004
  -5264279.30146  -4082981.82044
                  23662924.9064                                   23662920.5944
                                                                        40.5004
        26.5004
 09 10 24  0 14  0.0000000  0  9G02G04G05G10G13G25G29G16G07
  -5656992.06248  -4363158.03146
                  21070464.5704                                   21070458.7544
                                                                        52.2504
        41.0004
   3116165.85247   2437411.94544
                  23744721.3524                                   23744718.7704
                                                                        42.5004
        26.2504
 -20791076.29748 -16116116.74646
                  21442776.9064                                   21442773.1954
                                                                        50.7504
        41.2504
 -19282531.30148 -14942760.91446
                  20800339.5944                                   20800335.7384
                                                                        52.0004
        41.0004
  -7136143.99648  -5508580.11745
                  21656584.2344                                   21656579.7464
                                                                        49.5004
        33.5004
 -16866173.61347 -13123794.97345
                  22659647.7814                                   22659643.1564
                                                                        46.0004
        30.0004
 -15262973.76248 -11820615.07446
                  21999495.3054                                   21999491.8324
                                                                        49.2504
        38.2504
  -5332552.89547  -4117083.57444
                  23758584.9384                                   23758580.7894
                                                                        43.0004
        24.2504
  -5441797.34846  -4221307.56244
                  23629144.2734                                   23629139.9534
                                                                        41.0004
        25.2504
 09 10 24  0 14 30.0000000  0  9G02G04G05G10G13G25G29G16G07
  -5687757.12148  -4387130.82046
                  21064610.1414                                   21064604.3404
                                                                        51.0004
        41.0004
   3135283.88347   2452309.02744
                  23748359.9694                                   23748356.9184
                                                                        44.0004
        27.5004
 -20954088.76648 -16243139.42246
                  21411756.7424                                   21411752.7114
                                                                        49.0004
        41.7504
 -19426927.93448 -15055277.77046
                  20772861.5704                                   20772857.9884
                                                                        51.5004
        41.0004
  -7173648.97348  -5537804.77045
                  21649447.1804                                   21649442.6374
                                                                        49.2504
        33.2504
 -16992744.49647 -13222421.61344
                  22635562.0704                                   22635557.2034
                                                                        46.0004
        29.7504
 -15368716.31648 -11903011.86746
                  21979373.5234                                   21979369.5704
                                                                        48.5004
        38.5004
  -5464236.99647  -4219694.56244
                  23733526.1644                                   23733521.5704
                                                                        43.0004
        25.5004
  -5618908.66046  -4359316.37544
                  23595441.1884                                   23595436.1024
                                                                        41.2504
        26.5004
 09 10 24  0 15  0.0000000  0  9G02G04G05G10G13G25G29G16G07
  -5717990.64148  -4410689.42646
                  21058856.8364                                   21058850.7034
                                                                        51.5004
        40.7504
   3154593.92647   2467355.79744
                  23752034.7194                                   23752031.3204
                                                                        45.7504
        28.2504
 -21116654.71148 -16369814.16046
                  21380821.4224                                   21380817.6254
                                                                        50.5004
        41.5004
 -19570779.88348 -15167370.20346
                  20745487.4224                                   20745483.7584
                                                                        52.0004
        41.2504
  -7210561.22748  -5566567.57045
                  21642422.5634                                   21642418.7194
                                                                        49.0004
        33.5004
 -17118733.20347 -13320594.62945
                  22611587.1724                                   22611582.6294
                                                                        46.2504
        30.2504
 -15473823.59048 -11984913.62546
                  21959371.9224                                   21959368.3324
                                                                        48.7504
        38.2504
  -5595325.84447  -4321841.71544
                  23708580.6804                                   23708576.8554
                                                                        42.5004
        25.2504
  -5795614.32447  -4497009.08244
                  23561815.5784                                   23561810.9844
                                                                        42.5004
        28.7504
 09 10 24  0 15 30.0000000  0  9G02G04G05G10G13G25G29G16G07
  -5747702.63348  -4433841.65246
                  21053203.0634                                   21053197.0314
                                                                        51.7504
        41.0004
   3174085.55947   2482544.03144
                  23755743.6024                                   23755740.4694
                                                                        44.0004
        26.5004
 -21278780.75848 -16496146.12946
                  21349969.6804                                   21349965.9024
                                                                        50.5004
        40.7504
 -19714093.67248 -15279043.29346
                  20718215.7974                                   20718212.4414
                                                                        52.5004
        41.2504
  -7246891.58248  -5594876.93445
                  21635509.2344                                   21635505.0824
                                                                        49.0004
        33.7504
 -17244146.81247 -13418319.49644
                  22587722.1174                                   22587717.1294
                                                                        46.7504
        29.5004
 -15578303.34048 -12066326.42246
                  21939490.0314                                   21939486.3164
                                                                        49.2504
        38.5004
  -5725826.41047  -4423530.47344
                  23683747.7424                                   23683742.8984
                                                                        43.2504
        25.0004
  -5971919.55947  -4634389.78544
                  23528265.4534                                   23528261.3324
                                                                        43.2504
        29.0004
 09 10 24  0 16  0.0000000  0  9G02G04G05G10G13G25G29G16G07
  -5776892.80148  -4456587.24646
                  21047648.3054                                   21047642.2584
                                                                        51.0004
        40.5004
   3193758.88347   2497873.84844
                  23759486.8524                                   23759484.3364
                                                                        42.2504
        26.7504
 -21440464.02348 -16622133.07846
                  21319202.4614                                   21319198.4734
                                                                        51.5004
        41.5004
 -19856866.56648 -15390294.88346
                  20691046.8594                                   20691042.9304
                                                                        52.0004
        41.0004
  -7282639.48048  -5622732.43445
                  21628706.4304                                   21628702.6484
                                                                        49.0004
        32.7504
 -17368981.94147 -13515593.61344
                  22563966.1174                                   22563961.6804
                                                                        46.7504
        29.5004
 -15682153.69548 -12147248.77346
                  21919727.7814                                   21919724.4654
                                                                        49.2504
        38.0004
  -5855735.54346  -4524758.39543
                  23659026.6094                                   23659021.9614
                                                                        41.5004
        23.0004
  -6147819.32847  -4771454.49644
                  23494793.4304                                   23494789.2974
                                                                        42.5004
        29.2504
 09 10 24  0 16 30.0000000  0  9G02G04G05G10G13G25G29G16G07
  -5805565.17648  -4478929.35546
                  21042191.9924                                   21042185.8914
                                                                        51.5004
        40.2504
   3213609.37146   2513341.73444
                  23763264.2034                                   23763261.8914
                                                                        41.5004
        24.0004
 -21601704.36348 -16747774.89546
                  21288519.4064                                   21288515.3404
                                                                        50.7504
        41.2504
 -19999099.41048 -15501125.66046
                  20663981.1024                                   20663976.9344
                                                                        52.2504
        41.5004
  -7317809.68448  -5650137.77745
                  21622013.9384                                   21622009.7074
                                                                        49.5004
        33.0004
 -17493240.09847 -13612418.14544
                  22540320.7504                                   22540316.6254
                                                                        45.7504
        29.5004
 -15785375.44547 -12227681.29346
                  21900085.2814                                   21900081.3874
                                                                        47.2504
        38.2504
  -5985053.74646  -4625525.83643
                  23634418.5314                                   23634413.2774
                                                                        40.0004
        23.0004
  -6323313.47346  -4908203.13344
                  23461397.7584                                   23461393.4924
                                                                        41.7504
        29.0004
 09 10 24  0 17  0.0000000  0  9G02G04G05G10G13G25G29G16G07
  -5833725.64848  -4500872.57446
                  21036833.1804                                   21036826.9224
                                                                        51.5004
        41.0004
   3233630.32447   2528942.42244
                  23767074.7814                                   23767071.9264
                                                                        43.7504
        27.0004
 -21762504.82448 -16873073.95346
                  21257920.0554                                   21257915.7974
                                                                        50.5004
        41.0004
 -20140795.02048 -15611537.82446
                  20637017.2894                                   20637013.2464
                                                                        51.5004
        40.7504
  -7352408.62548  -5677097.97345
                  21615430.0394                                   21615425.5514
                                                                        48.7504
        32.7504
 -17616924.32047 -13708795.45344
                  22516784.2664                                   22516779.9024
                                                                        46.2504
        29.7504
 -15887972.40247 -12307626.96946
                  21880562.1414                                   21880558.4344
                                                                        47.7504
        38.0004
  -6113784.18746  -4725835.29743
                  23609921.6564                                   23609916.4414
                                                                        41.0004
        22.7504
  -6498403.83247  -5044637.14844
                  23428078.7424                                   23428074.7664
                                                                        42.5004
        28.2504
 09 10 24  0 17 30.0000000  0  9G02G04G05G10G13G25G29G16G07
  -5861373.43448  -4522416.31646
                  21031572.1484                                   21031566.2624
                                                                        50.7504
        40.7504
   3253822.40247   2544676.50444
                  23770917.1564                                   23770914.4024
                                                                        45.2504
        28.2504
 -21922861.64148 -16998027.31246
                  21227405.0554                                   21227400.7034
                                                                        52.2504
        41.0004
 -20281950.12148 -15721528.81246
                  20610156.5084                                   20610152.8014
                                                                        52.2504
        40.7504
  -7386435.99648  -5703612.79745
                  21608955.1724                                   21608950.5044
                                                                        49.0004
        32.5004
 -17740030.91447 -13804722.66045
                  22493358.4614                                   22493353.8754
                                                                        46.0004
        30.2504
 -15989943.20748 -12387084.73446
                  21861157.5164                                   21861153.7934
                                                                        48.7504
        38.7504
  -6241923.24246  -4825683.92243
                  23585536.9454                                   23585531.8164
                                                                        39.7504
        21.5004
  -6673084.70346  -5180752.07844
                  23394838.0234                                   23394833.8404
                                                                        41.7504
        28.0004
 09 10 24  0 18  0.0000000  0  9G02G04G05G10G13G25G29G16G07
  -5888513.50048  -4543564.46146
                  21026407.3054                                   21026401.4734
                                                                        51.5004
        40.7504
   3274180.09847   2560539.67244
                  23774791.3984                                   23774788.3674
                                                                        45.2504
        28.0004
 -22082776.11748 -17122635.98446
                  21196974.2274                                   21196970.0744
                                                                        51.0004
        41.5004
 -20422566.82448 -15831100.26646
                  20583397.7194                                   20583394.1254
                                                                        52.7504
        41.2504
  -7419897.41048  -5729686.61345
                  21602587.4924                                   21602582.8594
                                                                        48.7504
        33.0004
 -17862562.29347 -13900201.65245
                  22470041.2894                                   22470036.9844
                                                                        46.2504
        30.0004
 -16091290.09448 -12466056.34046
                  21841871.8284                                   21841868.4344
                                                                        48.7504
        38.5004
  -6369472.84446  -4925073.21543
                  23561265.4774                                   23561260.3284
                                                                        41.7504
        21.7504
  -6847357.25446  -5316548.83644
                  23361675.1954                                   23361670.8094
                                                                        41.0004
        27.7504
 09 10 24  0 18 30.0000000  0  9G02G04G05G10G13G25G29G16G07
  -4339725.64848  -3336716.82446
                  21321131.8984                                   21321125.5354
                                                                        51.5004
        40.5004
   4870121.27747   3804130.19944
                  24078488.3674                                   24078485.7344
                                                                        44.7504
        26.7504
 -20666820.50848 -16019293.94547
                  21466421.7034                                   21466417.5124
                                                                        50.2504
        42.0004
 -18987217.73048 -14712646.42246
                  20856535.8134                                   20856531.7544
                                                                        53.0004
        41.0004
  -5877372.64548  -4527719.24645
                  21896120.2344                                   21896115.7664
                                                                        48.7504
        33.0004
 -16409092.14847 -12767627.49645
                  22746626.9614                                   22746623.1764
                                                                        45.7504
        30.5004
 -14616587.59848 -11316937.50846
                  22122498.5784                                   22122494.9494
                                                                        48.2504
        38.5004
  -4921005.86746  -3796397.64843
                  23836899.7504                                   23836894.1764
                                                                        39.7504
        22.0004
  -5445791.23447  -4224419.47344
                  23628384.4064                                   23628380.3524
                                                                        43.0004
        28.7504
 09 10 24  0 19  0.0000000  0  9G02G04G05G10G13G25G29G16G07
  -4365853.02748  -3357075.87946
                  21316160.3984                                   21316154.2624
                                                                        51.7504
        40.2504
   4890806.12547   3820248.25444
                  24082424.3444                                   24082422.0314
                                                                        44.2504
        27.2504
 -20825843.38348 -16143207.85247
                  21436160.8364                                   21436157.0044
                                                                        52.2504
        42.0004
 -19126750.79748 -14821373.48846
                  20829983.4534                                   20829979.7274
                                                                        52.2504
        41.7504
  -5909706.18448  -4552914.20745
                  21889967.1884                                   21889962.9304
                                                                        49.2504
        33.2504
 -16530467.28547 -12862205.51645
                  22723530.2274                                   22723526.5554
                                                                        46.2504
        31.0004
 -14716682.27048 -11394933.34846
                  22103451.0234                                   22103447.2624
                                                                        50.0004
        38.5004
  -5047369.57446  -3894862.88343
                  23812853.3984                                   23812847.6994
                                                                        40.0004
        21.7504
  -5619235.85247  -4359571.14544
                  23595379.3284                                   23595374.4654
                                                                        43.7504
        27.7504
 09 10 24  0 19 30.0000000  0  9G02G04G05G10G13G25G29G16G07
  -4391477.91848  -3377043.38746
                  21311284.1884                                   21311278.4344
                                                                        52.0004
        41.0004
   4911650.23047   3836490.40244
                  24086390.6484                                   24086388.3874
                                                                        43.2504
        25.0004
 -20984419.58648 -16266773.72747
                  21405984.9454                                   21405980.7854
                                                                        51.2504
        42.0004
 -19265742.09848 -14929678.39846
                  20803534.2894                                   20803530.7464
                                                                        52.5004
        41.2504
  -5941480.01248  -4577673.02045
                  21883920.9454                                   21883916.0084
                                                                        48.5004
        33.5004
 -16651263.90247 -12956332.73445
                  22700543.3364                                   22700539.3484
                                                                        46.7504
        31.0004
 -14816152.43748 -11472442.56246
                  22084522.3914                                   22084518.7234
                                                                        50.0004
        38.5004
  -5173139.94546  -3992865.76643
                  23788920.2734                                   23788914.7894
                                                                        39.5004
        22.7504
  -5792263.31247  -4494397.73844
                  23562453.1334                                   23562448.7384
                                                                        43.5004
        28.5004
 09 10 24  0 20  0.0000000  0  9G02G04G05G10G13G25G29G16G07
  -4416599.78548  -3396618.94946
                  21306503.5164                                   21306497.8594
                                                                        51.7504
        40.0004
   4932653.54347   3852856.62143
                  24090387.6484                                   24090384.9144
                                                                        42.5004
        23.7504
 -21142545.09048 -16389988.40247
                  21375894.5234                                   21375890.4414
                                                                        51.7504
        42.0004
 -19404188.07848 -15037558.36746
                  20777189.2274                                   20777185.4694
                                                                        52.5004
        41.0004
  -5972694.59848  -4601996.07445
                  21877980.7424                                   21877976.2854
                                                                        48.7504
        33.0004
 -16771478.90647 -13050006.75445
                  22677667.3754                                   22677663.4734
                                                                        46.0004
        30.2504
 -14914994.64848 -11549462.46146
                  22065713.6254                                   22065709.8164
                                                                        50.0004
        38.5004
  -5298313.61346  -4090403.70743
                  23765100.4144                                   23765095.3324
                                                                        41.5004
        22.5004
  -5964869.07047  -4628895.64844
                  23529607.0314                                   23529602.9064
                                                                        43.0004
        28.0004
 09 10 24  0 20 30.0000000  0  9G02G04G05G10G13G25G29G16G07
  -4441220.33248  -3415803.84846
                  21301818.2664                                   21301812.3484
                                                                        52.0004
        40.0004
   4953814.23847   3869345.43844
                  24094415.0314                                   24094411.7934
                                                                        42.7504
        24.0004
 -21300218.61748 -16512850.88746
                  21345890.1334                                   21345886.0864
                                                                        51.5004
        41.5004
 -19542087.71548 -15145012.63746
                  20750947.0234                                   20750943.8284
                                                                        52.0004
        41.0004
  -6003351.88748  -4625884.87145
                  21872146.9304                                   21872142.2464
                                                                        48.0004
        32.2504
 -16891111.09847 -13143226.64145
                  22654901.8524                                   22654897.6954
                                                                        45.5004
        30.0004
 -15013209.30548 -11625993.35546
                  22047023.9924                                   22047020.3914
                                                                        49.5004
        38.7504
  -5422889.22346  -4187475.60543
                  23741394.3594                                   23741389.4344
                                                                        41.2504
        22.5004
  -6137049.90647  -4763062.30144
                  23496842.2424                                   23496837.0864
                                                                        43.7504
        28.5004
 09 10 24  0 21  0.0000000  0  9G02G04G05G10G13G25G29G16G07
  -4465343.01648  -3434600.73046
                  21297227.8914                                   21297222.3874
                                                                        51.0004
        40.2504
   4975128.46546   3885953.88344
                  24098470.1414                                   24098467.7584
                                                                        41.5004
        25.7504
 -21457439.87148 -16635360.94946
                  21315972.1414                                   21315967.8674
                                                                        51.0004
        41.7504
 -19679441.21548 -15252041.34446
                  20724809.8134                                   20724806.2504
                                                                        52.7504
        41.5004
  -6033455.69948  -4649342.37545
                  21866418.4844                                   21866413.8284
                                                                        48.7504
        31.7504
 -17010161.23847 -13235992.97344
                  22632247.5944                                   22632243.5274
                                                                        45.7504
        29.7504
 -15110797.30948 -11702035.94546
                  22028453.3524                                   22028449.8054
                                                                        50.5004
        38.2504
  -5546866.77047  -4284081.48843
                  23717802.4534                                   23717797.5124
                                                                        42.0004
        22.7504
  -6308805.55947  -4896897.85244
                  23464158.7504                                   23464153.5664
                                                                        43.5004
        28.2504
 09 10 24  0 21 30.0000000  0  9G02G04G05G10G13G25G29G16G07
  -4488967.67248  -3453009.53946
                  21292732.3054                                   21292726.5904
                                                                        51.2504
        40.2504
   4996595.78146   3902681.60544
                  24102555.7274                                   24102553.7854
                                                                        41.2504
        27.5004
 -21614205.84048 -16757516.24646
                  21286140.3914                                   21286136.5474
                                                                        51.0004
        41.5004
 -19816245.69948 -15358642.25846
                  20698776.9144                                   20698773.2664
                                                                        53.0004
        41.5004
  -6063006.79748  -4672369.19145
                  21860794.8204                                   21860790.6764
                                                                        48.0004
        32.0004
 -17128626.79747 -13328303.79345
                  22609704.2584                                   22609700.3554
                                                                        45.5004
        30.7504
 -15207756.71948 -11777588.71546
                  22010002.4844                                   22009998.8714
                                                                        49.7504
        39.0004
  -5670243.75047  -4380219.41444
                  23694324.0394                                   23694319.4774
                                                                        42.0004
        25.0004
  -6480131.46147  -5030398.52744
                  23431555.9454                                   23431551.2424
                                                                        44.5004
        29.7504
 09 10 24  0 22  0.0000000  0  9G02G04G05G10G13G25G29G16G07
  -4512095.27748  -3471031.01646
                  21288331.2424                                   21288325.7704
                                                                        51.5004
        40.2504
   5018215.23847   3919527.91044
                  24106669.9534                                   24106667.3714
                                                                        42.7504
        27.5004
 -21770514.30148 -16879315.04746
                  21256395.9454                                   21256391.4964
                                                                        51.7504
        41.7504
 -19952499.40248 -15464813.97746
                  20672848.6174                                   20672845.0594
                                                                        52.5004
        41.5004
  -6092006.65648  -4694966.48445
                  21855276.7584                                   21855272.1294
                                                                        48.0004
        32.5004
 -17246505.85547 -13420157.61345
                  22587272.5864                                   22587268.3444
                                                                        45.5004
        31.0004
 -15304086.87148 -11852651.15246
                  21991671.4144                                   21991668.1684
                                                                        49.7504
        39.0004
  -5793018.20346  -4475887.79744
                  23670961.5634                                   23670956.5084
                                                                        41.7504
        25.7504
  -6651023.80147  -5163561.33644
                  23399035.4844                                   23399031.7234
                                                                        43.5004
        28.5004
 09 10 24  0 22 30.0000000  0  9G02G04G05G10G13G25G29G16G07
  -4534730.97348  -3488669.18046
                  21284023.6884                                   21284017.8714
                                                                        51.0004
        40.0004
   5039981.40647   3936488.52044
                  24110811.9064                                   24110809.4884
                                                                        42.0004
        28.0004
 -21926366.68448 -17000758.44947
                  21226738.3754                                   21226734.1644
                                                                        51.5004
        42.0004
 -20088204.13748 -15570557.94147
                  20647025.0084                                   20647021.4264
                                                                        52.7504
        42.0004
  -6120460.52348  -4717138.32045
                  21849862.4144                                   21849857.8594
                                                                        48.0004
        33.0004
 -17363800.62947 -13511556.13345
                  22564951.9454                                   22564948.0984
                                                                        45.5004
        30.7504
 -15399790.75048 -11927225.59846
                  21973459.9304                                   21973456.1644
                                                                        50.0004
        38.5004
  -5915192.24646  -4571088.32444
                  23647712.3834                                   23647707.1764
                                                                        41.0004
        25.2504
  -6821483.15647  -5296386.76644
                  23366598.3674                                   23366594.3554
                                                                        42.5004
        28.7504
 09 10 24  0 23  0.0000000  0  9G02G04G05G10G13G25G29G16G07
  -4556875.25048  -3505924.43046
                  21279809.4534                                   21279803.7814
                                                                        51.0004
        39.7504
   5061893.28946   3953562.62144
                  24114981.6564                                   24114979.2384
                                                                        41.0004
        24.5004
 -22081760.10548 -17121844.21147
                  21197168.0394                                   21197163.7934
                                                                        51.5004
        42.0004
 -20223357.96548 -15675872.64146
                  20621306.1484                                   20621302.3134
                                                                        52.0004
        41.0004
  -6148369.40647  -4738885.49645
                  21844551.0474                                   21844546.6724
                                                                        47.5004
        32.2504
 -17480509.09447 -13602497.78545
                  22542743.0704                                   22542739.4304
                                                                        45.2504
        30.2504
 -15494866.64848 -12001310.70746
                  21955367.6414                                   21955364.1374
                                                                        50.2504
        38.0004
  -6036763.26247  -4665818.99644
                  23624577.9144                                   23624573.4804
                                                                        42.7504
        24.7504
  -6991505.73047  -5428871.84044
                  23334244.3204                                   23334239.7704
                                                                        42.5004
        28.0004
 09 10 24  0 23 30.0000000  0  9G02G04G05G10G13G25G29G16G07
  -4578530.55548  -3522798.63346
                  21275688.9924                                   21275682.8914
                                                                        51.2504
        40.0004
   5083948.70346   3970748.63343
                  24119178.0944                                   24119175.8444
                                                                        39.5004
        21.7504
 -22236693.71948 -17242571.69547
                  21167685.0004                                   21167680.6134
                                                                        51.5004
        42.0004
 -20357960.27748 -15780757.61346
                  20595691.9304                                   20595688.2774
                                                                        53.0004
        41.5004
  -6175736.11348  -4760210.18745
                  21839343.2114                                   21839338.9144
                                                                        48.5004
        31.7504
 -17596630.67247 -13692982.13345
                  22520646.1724                                   22520642.0124
                                                                        45.7504
        32.0004
 -15589314.74648 -12074906.61346
                  21937394.5234                                   21937390.8554
                                                                        50.0004
        38.5004
  -6157730.69547  -4760079.34044
                  23601558.6254                                   23601554.1764
                                                                        42.2504
        25.2504
  -7161089.21547  -5561014.78944
                  23301973.6094                                   23301968.6724
                                                                        42.7504
        29.0004
 09 10 24  0 24  0.0000000  0  9G02G04G05G10G13G25G29G16G07
  -4599698.85548  -3539293.37946
                  21271660.6334                                   21271654.6214
                                                                        51.5004
        40.0004
   5106145.05946   3988044.46943
                  24123402.1254                                   24123398.8284
                                                                        41.7504
        21.0004
 -22391166.60948 -17362940.17246
                  21138289.9224                                   21138285.9304
                                                                        52.0004
        41.7504
 -20492009.96948 -15885211.91846
                  20570183.1254                                   20570179.6524
                                                                        53.0004
        41.5004
  -6202563.30548  -4781114.49645
                  21834238.3984                                   21834234.0554
                                                                        48.0004
        32.2504
 -17712165.04747 -13783008.91045
                  22498661.2274                                   22498656.7424
                                                                        46.0004
        30.7504
 -15683135.55548 -12148013.73446
                  21919540.9614                                   21919537.3914
                                                                        49.2504
        39.0004
  -6278093.87547  -4853868.81244
                  23578654.7194                                   23578649.7584
                                                                        42.5004
        26.0004
  -7330231.43747  -5692813.89144
                  23269787.0784                                   23269782.7814
                                                                        44.2504
        29.0004
 09 10 24  0 24 30.0000000  0  9G02G04G05G10G13G25G29G16G07
  -4620378.96548  -3555407.67646
                  21267725.2034                                   21267719.2344
                                                                        51.0004
        40.2504
   5128483.32447   4005450.90244
                  24127653.3204                                   24127650.3014
                                                                        44.0004
        25.0004
 -22545174.06248 -17482945.98447
                  21108982.9694                                   21108978.8674
                                                                        50.5004
        42.2504
 -20625503.22348 -15989232.65646
                  20544780.7114                                   20544776.5744
                                                                        52.2504
        41.5004
  -6228850.53148  -4801598.04745
                  21829236.1804                                   21829231.3984
                                                                        48.0004
        31.7504
 -17827108.18047 -13872574.99245
                  22476787.6484                                   22476783.5594
                                                                        46.0004
        30.7504
 -15776325.93048 -12220629.59846
                  21901807.3834                                   21901804.1094
                                                                        49.0004
        39.5004
  -6397848.45347  -4947184.06644
                  23555866.2504                                   23555861.7974
                                                                        43.2504
        25.5004
  -7498926.40247  -5824264.48844
                  23237684.8914                                   23237681.1054
                                                                        42.5004
        29.0004
 09 10 24  0 25  0.0000000  0  9G02G04G05G10G13G25G29G16G07
  -4640573.32848  -3571143.53546
                  21263882.2814                                   21263876.5314
                                                                        51.7504
        40.0004
   5150960.85247   4022965.83644
                  24131930.8984                                   24131928.6604
                                                                        45.2504
        26.5004
 -22698714.51648 -17602587.90247
                  21079765.3984                                   21079761.3594
                                                                        52.0004
        42.0004
 -20758439.60948 -16092819.43447
                  20519483.4614                                   20519480.2424
                                                                        53.0004
        42.2504
  -6254600.71148  -4821663.12545
                  21824336.1174                                   21824331.3954
                                                                        48.7504
        32.0004
 -17941460.07447 -13961680.37145
                  22455027.6804                                   22455022.9224
                                                                        46.5004
        31.2504
 -15868886.27048 -12292754.53546
                  21884193.6804                                   21884190.3834
                                                                        49.7504
        39.0004
  -6516994.25047  -5040024.91444
                  23533193.4534                                   23533188.7504
                                                                        43.0004
        27.2504
  -7667172.42647  -5955365.24644
                  23205669.2034                                   23205664.7424
                                                                        43.5004
        29.5004
 09 10 24  0 25 30.0000000  0  9G02G04G05G10G13G25G29G16G07
  -4660286.21548  -3586504.21146
                  21260130.9534                                   21260125.3874
                                                                        51.2504
        39.5004
   5173572.95747   4040585.63344
                  24136233.9064                                   24136231.3554
                                                                        44.7504
        27.5004
 -22851790.04748 -17721867.56247
                  21050635.9224                                   21050631.4224
                                                                        51.5004
        42.0004
 -20890820.49648 -16195973.36747
                  20494292.2664                                   20494288.5744
                                                                        52.2504
        42.0004
  -6279818.20348  -4841313.11345
                  21819537.2114                                   21819533.0594
                                                                        48.5004
        32.0004
 -18055221.98447 -14050326.00045
                  22433379.0864                                   22433374.9024
                                                                        45.2504
        32.0004
 -15960819.32448 -12364390.68746
                  21866699.5554                                   21866696.1454
                                                                        50.2504
        38.5004
  -6635532.76647  -5132392.56644
                  23510636.0394                                   23510631.8484
                                                                        43.2504
        26.2504
  -7834969.59847  -6086116.27344
                  23173739.0164                                   23173733.6764
                                                                        44.2504
        29.2504
 09 10 24  0 26  0.0000000  0  9G02G04G05G10G13G25G29G16G07
  -4679518.08248  -3601490.05146
                  21256471.6564                                   21256465.7814
                                                                        51.5004
        39.2504
   5196319.28547   4058310.00843
                  24140562.2894                                   24140559.4304
                                                                        43.0004
        22.7504
 -23004397.22748 -17840782.26246
                  21021595.9144                                   21021591.5824
                                                                        51.0004
        41.5004
 -21022643.41448 -16298692.49646
                  20469207.0704                                   20469203.2544
                                                                        52.0004
        41.5004
  -6304504.18048  -4860548.94545
                  21814839.6174                                   21814834.9804
                                                                        48.5004
        32.2504
 -18168392.19547 -14138510.58245
                  22411843.6174                                   22411839.6684
                                                                        45.0004
        30.7504
 -16052123.20348 -12435536.57446
                  21849325.0704                                   21849321.7304
                                                                        49.7504
        39.0004
  -6753461.51647  -5224285.06244
                  23488195.3134                                   23488190.8714
                                                                        42.0004
        26.0004
  -8002313.10247  -6216513.80144
                  23141894.3524                                   23141889.1214
                                                                        44.5004
        29.5004
 09 10 24  0 26 30.0000000  0  9G02G04G05G10G13G25G29G16G07
  -4698276.10548  -3616106.66846
                  21252901.7974                                   21252895.8364
                                                                        51.0004
        39.7504
   5219192.78946   4076133.42643
                  24144913.7114                                   24144912.2854
                                                                        40.0004
        22.7504
 -23156539.90648 -17959335.02746
                  20992643.9774                                   20992639.8714
                                                                        51.5004
        41.5004
 -21153912.85548 -16400980.34446
                  20444227.2734                                   20444224.0864
                                                                        52.5004
        41.5004
  -6328665.86348  -4879376.21945
                  21810241.8364                                   21810237.1414
                                                                        48.2504
        31.5004
 -18280974.67247 -14226237.18745
                  22390419.8284                                   22390415.4494
                                                                        44.2504
        31.5004
 -16142803.35548 -12506196.44546
                  21832069.2114                                   21832065.7504
                                                                        50.0004
        38.5004
  -6870784.50846  -5315705.57044
                  23465868.9694                                   23465864.2544
                                                                        40.5004
        24.5004
  -8169205.61347  -6346559.91044
                  23110135.4694                                   23110130.6994
                                                                        42.0004
        29.5004
 09 10 24  0 27  0.0000000  0  9G02G04G05G10G13G25G29G16G07
  -3141136.68448  -2402751.26246
                  21549215.8284                                   21549209.6884
                                                                        50.7504
        39.7504
   6817615.13347   5321657.24243
                  24449084.9224                                   24449081.9344
                                                                        42.0004
        22.2504
 -21732786.38348 -16849916.69946
                  21263575.4844                                   21263571.3094
                                                                        50.0004
        41.7504
 -19709198.00848 -15275228.48846
                  20719147.5084                                   20719143.7304
                                                                        52.0004
        41.5004
  -4776880.39147  -3670192.72345
                  22105536.8524                                   22105531.7664
                                                                        47.7504
        31.0004
 -16817540.48047 -13085898.85245
                  22668901.9534                                   22668898.1604
                                                                        45.0004
        31.2504
 -14657431.30147 -11348763.67246
                  22114726.0004                                   22114723.0044
                                                                        47.5004
        39.2504
  -5412072.15246  -4179046.56644
                  23743453.2664                                   23743448.3364
                                                                        41.5004
        25.0004
  -6760214.65647  -5248644.86344
                  23378257.7664                                   23378253.0784
                                                                        43.0004
        29.5004
 09 10 24  0 27 30.0000000  0  9G02G04G05G10G13G25G29G16G07
  -3158943.71548  -2416626.85246
                  21545827.0394                                   21545821.1174
                                                                        51.0004
        40.0004
   6840744.79347   5339680.34443
                  24453485.7194                                   24453482.8954
                                                                        42.7504
        23.0004
 -21883986.99248 -16967735.37947
                  21234802.7194                                   21234798.8984
                                                                        50.7504
        42.2504
 -19839348.32048 -15376644.29347
                  20694380.7034                                   20694376.5864
                                                                        52.5004
        42.0004
  -4799992.82448  -3688202.39845
                  22101138.8134                                   22101134.3164
                                                                        48.0004
        31.2504
 -16928937.18047 -13172701.47745
                  22647703.5704                                   22647699.6454
                                                                        45.2504
        31.5004
 -14746855.22748 -11418444.66846
                  22097709.3754                                   22097705.8134
                                                                        48.7504
        38.5004
  -5528172.58647  -4269514.43444
                  23721359.3594                                   23721355.3484
                                                                        42.7504
        24.7504
  -6926189.55147  -5377975.94544
                  23346673.1094                                   23346668.6804
                                                                        45.0004
        29.7504
 09 10 24  0 28  0.0000000  0  9G02G04G05G10G13G25G29G16G07
  -3176278.65648  -2430134.57446
                  21542528.5554                                   21542522.4414
                                                                        51.2504
        39.7504
   6863998.87147   5357800.43044
                  24457911.5234                                   24457907.7584
                                                                        43.5004
        25.5004
 -22034714.71948 -17085185.55547
                  21206120.3754                                   21206116.6174
                                                                        50.7504
        42.0004
 -19968938.41048 -15477623.57046
                  20669720.6094                                   20669717.3524
                                                                        52.2504
        41.7504
  -4822584.50047  -3705806.28945
                  22096839.3754                                   22096835.0474
                                                                        47.5004
        32.2504
 -17039740.42647 -13259041.67645
                  22626618.7734                                   22626614.3634
                                                                        44.5004
        30.7504
 -14835651.70748 -11487636.75846
                  22080811.9614                                   22080808.8954
                                                                        48.2504
        39.0004
  -5643660.64546  -4359505.10944
                  23699383.1094                                   23699378.0514
                                                                        40.5004
        24.0004
  -7091702.35947  -5506946.96145
                  23315177.3134                                   23315172.6254
                                                                        44.5004
        30.7504
 09 10 24  0 28 30.0000000  0  9G02G04G05G10G13G25G29G16G07
  -3193144.37948  -2443276.69946
                  21539319.0004                                   21539313.2114
                                                                        50.7504
        40.0004
   6887374.85247   5376015.49644
                  24462359.4694                                   24462356.4884
                                                                        43.5004
        25.0004
 -22184968.93748 -17202266.73447
                  21177527.6884                                   21177523.7854
                                                                        51.2504
        43.0004
 -20097968.35548 -15578166.38346
                  20645166.9224                                   20645163.1724
                                                                        52.2504
        41.5004
  -4844659.24247  -3723007.39545
                  22092638.8984                                   22092634.5314
                                                                        47.2504
        31.7504
 -17149950.50047 -13344919.65645
                  22605646.3914                                   22605641.9414
                                                                        45.0004
        31.0004
 -14923821.62148 -11556340.59046
                  22064033.5554                                   22064030.3444
                                                                        49.5004
        39.0004
  -5758536.65646  -4449018.86344
                  23677522.2814                                   23677518.0824
                                                                        41.5004
        24.7504
  -7256750.97347  -5635556.25845
                  23283770.1254                                   23283765.6174
                                                                        44.5004
        31.0004
 09 10 24  0 29  0.0000000  0  9G02G04G05G10G13G25G29G16G07
  -3209540.58248  -2456052.96946
                  21536198.9064                                   21536192.8094
                                                                        50.0004
        40.0004
   6910872.58646   5394325.38743
                  24466830.9304                                   24466828.4224
                                                                        40.2504
        22.7504
 -22334746.52048 -17318976.51647
                  21149025.9304                                   21149021.8834
                                                                        51.5004
        42.0004
 -20226434.75048 -15678270.05546
                  20620720.6484                                   20620716.8794
                                                                        51.7504
        41.7504
  -4866216.72347  -3739805.42245
                  22088536.4614                                   22088532.1914
                                                                        47.0004
        31.7504
 -17259564.57847 -13430333.21145
                  22584787.8204                                   22584783.3714
                                                                        45.0004
        30.0004
 -15011362.58648 -11624554.30146
                  22047375.2274                                   22047371.5634
                                                                        48.7504
        39.0004
  -5872797.60546  -4538053.34044
                  23655778.9144                                   23655774.7504
                                                                        41.2504
        24.5004
  -7421331.07447  -5763800.48045
                  23252451.0164                                   23252446.8714
                                                                        44.5004
        30.5004
 09 10 24  0 29 30.0000000  0  9G02G04G05G10G13G25G29G16G07
  -3225470.71548  -2468466.05946
                  21533167.4534                                   21533161.9304
                                                                        50.0004
        39.2504
   6934488.40246   5412727.23843
                  24471324.0784                                   24471322.6454
                                                                        41.0004
        22.5004
 -22484047.52048 -17435314.98847
                  21120615.0004                                   21120611.2814
                                                                        51.2504
        42.2504
 -20354338.37948 -15777935.21147
                  20596381.1884                                   20596377.6054
                                                                        51.7504
        42.0004
  -4887261.17647  -3756203.69545
                  22084531.8674                                   22084527.6764
                                                                        47.5004
        32.5004
 -17368583.55147 -13515283.07045
                  22564042.1954                                   22564037.7584
                                                                        45.2504
        30.5004
 -15098276.69948 -11692279.57846
                  22030835.7034                                   22030832.3954
                                                                        49.0004
        38.5004
  -5986443.92646  -4626608.90644
                  23634152.9454                                   23634148.8674
                                                                        41.2504
        24.5004
  -7585441.76247  -5891678.91845
                  23221221.1564                                   23221217.2154
                                                                        44.2504
        30.0004
 09 10 24  0 30  0.0000000  0  9G02G04G05G10G13G25G29G16G07
  -3240936.98048  -2480517.69546
                  21530224.2664                                   21530217.9104
                                                                        50.0004
        39.2504
   6958220.54746   5431219.77343
                  24475840.1644                                   24475838.5864
                                                                        41.5004
        22.5004
 -22632870.77048 -17551281.14547
                  21092294.8364                                   21092290.8134
                                                                        51.5004
        42.2504
 -20481678.68448 -15877161.41046
                  20572149.1024                                   20572145.3324
                                                                        52.2504
        41.7504
  -4907794.87147  -3772203.97345
                  22080624.4384                                   22080620.2424
                                                                        47.0004
        31.5004
 -17477006.68747 -13599768.62545
                  22543409.9064                                   22543405.5124
                                                                        44.5004
        31.0004
 -15184564.60548 -11759516.89846
                  22014415.8204                                   22014412.5704
                                                                        49.5004
        39.0004
  -6099475.43046  -4714685.38343
                  23612644.0474                                   23612639.3284
                                                                        41.7504
        22.2504
  -7749080.05147  -6019189.23844
                  23190082.0864                                   23190077.8324
                                                                        43.5004
        29.5004
 09 10 24  0 30 30.0000000  0  9G02G04G05G10G13G25G29G16G07
  -3255942.56248  -2492210.34846
                  21527368.7974                                   21527362.6294
                                                                        50.0004
        38.7504
   6982065.18047   5449799.96143
                  24480378.4844                                   24480376.3834
                                                                        43.0004
        23.5004
 -22781215.68048 -17666874.58247
                  21064065.8524                                   21064061.5354
                                                                        50.5004
        42.5004
 -20608455.69948 -15975948.69946
                  20548024.2034                                   20548020.3674
                                                                        51.7504
        41.7504
  -4927822.13347  -3787809.62545
                  22076813.6174                                   22076809.3164
                                                                        46.7504
        31.7504
 -17584835.14847 -13683790.80945
                  22522890.7194                                   22522886.4024
                                                                        44.5004
        30.7504
 -15270227.03548 -11826266.85246
                  21998114.8524                                   21998111.7384
                                                                        49.0004
        39.0004
  -6211891.96146  -4802282.65643
                  23591252.2974                                   23591247.2734
                                                                        41.7504
        22.5004
  -7912245.25847  -6146330.96144
                  23159033.4614                                   23159028.6604
                                                                        44.0004
        29.7504
 09 10 24  0 31  0.0000000  0  9G02G04G05G10G13G25G29G16G07
  -3270487.26248  -2503543.87946
                  21524601.1954                                   21524594.7624
                                                                        49.7504
        39.0004
   7006022.59847   5468468.05143
                  24484937.7504                                   24484935.0124
                                                                        44.7504
        23.5004
 -22929079.13348 -17782092.84847
                  21035928.3204                                   21035924.1764
                                                                        50.5004
        42.5004
 -20734666.82048 -16074295.01246
                  20524007.2814                                   20524003.1994
                                                                        52.5004
        41.7504
  -4947342.80147  -3803020.53945
                  22073098.5634                                   22073094.5004
                                                                        47.0004
        30.7504
 -17692066.17247 -13767347.44545
                  22502485.4454                                   22502480.8984
                                                                        45.5004
        31.0004
 -15355262.32448 -11892528.10946
                  21981933.2344                                   21981929.8874
                                                                        49.5004
        39.0004
  -6323690.92247  -4889398.73443
                  23569976.7274                                   23569972.0704
                                                                        42.0004
        23.2504
  -8074932.63347  -6273100.34845
                  23128075.1804                                   23128070.3634
                                                                        45.0004
        30.7504
 09 10 24  0 31 30.0000000  0  9G02G04G05G10G13G25G29G16G07
  -3284571.43048  -2514518.57446
                  21521921.0634                                   21521915.3054
                                                                        50.0004
        39.2504
   7030092.53547   5487223.83643
                  24489518.2344                                   24489515.2704
                                                                        44.0004
        22.7504
 -23076458.03148 -17896933.52747
                  21007883.1954                                   21007879.2234
                                                                        52.0004
        42.2504
 -20860309.19948 -16172198.14547
                  20500098.2974                                   20500094.4804
                                                                        52.5004
        42.0004
  -4966357.59847  -3817837.27045
                  22069479.9614                                   22069475.6804
                                                                        46.5004
        31.5004
 -17798697.28147 -13850436.62145
                  22482194.6254                                   22482189.3674
                                                                        45.0004
        30.5004
 -15439669.01648 -11958299.57446
                  21965871.0784                                   21965868.0274
                                                                        49.7504
        39.0004
  -6434869.89147  -4976031.67243
                  23548820.7974                                   23548815.6604
                                                                        42.7504
        22.2504
  -8237137.91847  -6399494.08644
                  23097208.1254                                   23097203.5704
                                                                        44.5004
        29.5004
 09 10 24  0 32  0.0000000  0  9G02G04G05G10G13G25G29G16G07
  -3298201.32048  -2525139.25846
                  21519327.2584                                   21519321.8634
                                                                        49.5004
        39.5004
   7054268.93846   5506062.62143
                  24494118.0314                                   24494116.3524
                                                                        41.2504
        22.2504
 -23223355.01648 -18011398.68747
                  20979929.1644                                   20979925.5164
                                                                        51.2504
        42.5004
 -20985386.17648 -16269660.72346
                  20476296.7974                                   20476293.2504
                                                                        52.5004
        41.5004
  -4984873.70347  -3832265.39545
                  22065956.9694                                   22065952.4804
                                                                        46.5004
        30.7504
 -17904732.44947 -13933061.43445
                  22462016.5164                                   22462011.8914
                                                                        45.0004
        30.7504
 -15523451.71548 -12023584.80546
                  21949928.0474                                   21949924.4574
                                                                        48.5004
        38.7504
  -6545432.46147  -5062184.31643
                  23527781.4694                                   23527776.3444
                                                                        42.2504
        23.7504
  -8398863.21547  -6525513.78545
                  23066432.6564                                   23066428.4184
                                                                        44.0004
        30.5004
 09 10 24  0 32 30.0000000  0  9G02G04G05G10G13G25G29G16G07
  -3311372.60548  -2535402.61746
                  21516820.9064                                   21516815.0164
                                                                        49.7504
        39.0004
   7078555.56346   5524987.26643
                  24498740.0314                                   24498737.0124
                                                                        39.2504
        20.2504
 -23369763.29348 -18125483.05547
                  20952068.7814                                   20952065.0124
                                                                        52.0004
        42.5004
 -21109891.43048 -16366677.79746
                  20452604.1564                                   20452600.2544
                                                                        52.2504
        41.7504
  -5002887.25847  -3846301.92645
                  22062529.3284                                   22062524.8594
                                                                        47.2504
        31.2504
 -18010165.00447 -14015216.66445
                  22441953.2664                                   22441948.8054
                                                                        45.0004
        30.7504
 -15606605.17248 -12088379.71146
                  21934104.2504                                   21934100.7544
                                                                        49.7504
        38.7504
  -6655371.90647  -5147851.43743
                  23506860.5944                                   23506855.6374
                                                                        43.0004
        22.7504
  -8560099.52047  -6651152.43745
                  23035750.9384                                   23035746.2774
                                                                        43.7504
        31.5004
 09 10 24  0 33  0.0000000  0  9G02G04G05G10G13G25G29G16G07
  -3324089.87148  -2545312.16446
                  21514400.4144                                   21514395.0124
                                                                        49.5004
        39.0004
   7102947.93446   5543994.30543
                  24503380.9064                                   24503379.2934
                                                                        40.0004
        22.2504
 -23515683.38348 -18239187.00847
                  20924301.3594                                   20924297.2384
                                                                        51.5004
        42.2504
 -21233825.96948 -16463250.15646
                  20429020.4064                                   20429017.0004
                                                                        51.7504
        41.5004
  -5020403.09847  -3859950.62545
                  22059195.5944                                   22059191.0354
                                                                        46.0004
        30.5004
 -18114996.89147 -14096903.84845
                  22422004.4064                                   22421999.9614
                                                                        45.5004
        30.7504
 -15689130.80948 -12152685.37546
                  21918400.2584                                   21918397.0004
                                                                        49.2504
        39.0004
  -6764689.96547  -5233034.35543
                  23486058.6094                                   23486052.8204
                                                                        42.7504
        23.5004
  -8720846.96547  -6776410.18745
                  23005161.4534                                   23005157.4184
                                                                        43.0004
        30.5004
 09 10 24  0 33 30.0000000  0  9G02G04G05G10G13G25G29G16G07
  -3336356.90248  -2554870.89846
                  21512066.5394                                   21512060.5004
                                                                        48.7504
        39.0004
   7127442.35246   5563080.82843
                  24508043.1884                                   24508040.4734
                                                                        41.0004
        23.2504
 -23661116.14548 -18352511.22747
                  20896626.1884                                   20896622.4924
                                                                        51.7504
        42.7504
 -21357191.48448 -16559379.12147
                  20405544.3914                                   20405540.8834
                                                                        52.2504
        42.0004
  -5037425.99247  -3873215.20345
                  22055956.5634                                   22055952.0004
                                                                        44.0004
        30.5004
 -18219229.67647 -14178124.19945
                  22402169.1334                                   22402165.4144
                                                                        45.2504
        31.5004
 -15771031.90248 -12216504.39846
                  21902815.3054                                   21902811.4694
                                                                        49.5004
        39.0004
  -6873388.04747  -5317734.16444
                  23465373.4224                                   23465368.2034
                                                                        43.7504
        25.0004
  -8881104.96547  -6901286.55545
                  22974665.3284                                   22974660.6454
                                                                        44.5004
        30.0004
 09 10 24  0 34  0.0000000  0  9G02G04G05G10G13G25G29G16G07
  -3348181.48448  -2564084.85546
                  21509816.2194                                   21509810.0984
                                                                        49.0004
        39.0004
   7152031.03947   5582240.83244
                  24512721.8524                                   24512719.7974
                                                                        42.2504
        26.0004
 -23806065.46548 -18465458.73847
                  20869043.2814                                   20869039.3244
                                                                        51.7504
        42.5004
 -21479992.50048 -16655068.22347
                  20382176.6564                                   20382172.4304
                                                                        52.5004
        42.0004
  -5053963.41447  -3886101.52345
                  22052809.7664                                   22052805.0904
                                                                        46.0004
        30.2504
 -18322868.17247 -14258881.45745
                  22382447.2584                                   22382443.2344
                                                                        45.5004
        30.5004
 -15852313.84048 -12279840.97346
                  21887347.8444                                   21887344.6134
                                                                        49.5004
        39.0004
  -6981470.46547  -5401954.22744
                  23444806.5474                                   23444800.6374
                                                                        44.7504
        25.2504
  -9040876.65247  -7025783.97745
                  22944261.7504                                   22944257.3484
                                                                        45.0004
        30.0004
 09 10 24  0 34 30.0000000  0  9G02G04G05G10G13G25G29G16G07
  -3359559.09848  -2572950.53146
                  21507651.1414                                   21507645.3444
                                                                        49.2504
        38.5004
   7176718.77347   5601478.04744
                  24517420.0234                                   24517417.4734
                                                                        42.5004
        24.0004
 -23950523.81648 -18578023.67247
                  20841553.6024                                   20841549.9884
                                                                        52.0004
        42.5004
 -21602221.80548 -16750311.83247
                  20358916.9534                                   20358913.1644
                                                                        52.7504
        42.0004
  -5070012.22347  -3898607.09045
                  22049755.6174                                   22049751.1724
                                                                        45.5004
        30.5004
 -18425905.84047 -14339170.55945
                  22362840.1254                                   22362836.0434
                                                                        45.0004
        30.7504
 -15932970.73048 -12342690.49246
                  21871999.0474                                   21871995.3794
                                                                        50.0004
        39.0004
  -7088930.90247  -5485689.64144
                  23424357.6254                                   23424352.2974
                                                                        44.2504
        25.7504
  -9200153.39147  -7149895.70744
                  22913952.3524                                   22913948.1484
                                                                        43.0004
        29.5004
 09 10 24  0 35  0.0000000  0  9G02G04G05G10G13G25G29G16G07
  -3370495.20748  -2581472.19146
                  21505570.2894                                   21505564.1724
                                                                        49.0004
        39.2504
   7201499.93447   5620788.08243
                  24522135.7194                                   24522132.7974
                                                                        42.0004
        22.5004
 -24094493.00848 -18690207.44947
                  20814157.4614                                   20814153.2464
                                                                        52.5004
        42.5004
 -21723882.27748 -16845112.19947
                  20335765.9384                                   20335761.7854
                                                                        52.7504
        42.0004
  -5085577.79747  -3910736.11345
                  22046793.5704                                   22046789.0434
                                                                        46.2504
        31.2504
 -18528345.56247 -14418993.72345
                  22343346.7664                                   22343342.6094
                                                                        45.7504
        30.7504
 -16013006.02048 -12405055.65246
                  21856768.7274                                   21856765.2464
                                                                        49.2504
        38.5004
  -7195771.67647  -5568942.18444
                  23404026.2194                                   23404021.3404
                                                                        43.2504
        25.0004
  -9358935.48647  -7273622.00345
                  22883737.0394                                   22883732.7664
                                                                        44.5004
        30.2504
 09 10 24  0 35 30.0000000  0  8G02G05G10G13G25G29G16G07
  -1805569.44148  -1362049.52746
                  21803365.6804                                   21803359.7034
                                                                        49.5004
        38.5004
 -22662545.43048 -17574404.13747
                  21086647.9454                                   21086643.9184
                                                                        52.5004
        42.5004
 -20269546.93048 -15711863.86746
                  20612516.7194                                   20612512.7424
                                                                        52.7504
        41.7504
  -3525240.36747  -2694888.75845
                  22343715.7194                                   22343711.1684
                                                                        47.0004
        31.0004
 -17054761.90247 -13270746.71545
                  22623760.1094                                   22623756.2194
                                                                        45.5004
        30.2504
 -14516995.76648 -11239333.36746
                  22141450.1334                                   22141446.7734
                                                                        50.0004
        38.2504
  -5726567.02747  -4424107.40244
                  23683606.3754                                   23683601.7774
                                                                        44.0004
        25.0004
  -7941794.07047  -6169355.95345
                  23153410.4144                                   23153405.6294
                                                                        43.5004
        30.0004
 09 10 24  0 36  0.0000000  0  8G02G05G10G13G25G29G16G07
  -1815627.15248  -1369886.71946
                  21801451.9064                                   21801445.5634
                                                                        49.0004
        39.0004
 -22805531.96548 -17685822.19147
                  21059438.4694                                   21059434.2234
                                                                        51.7504
        42.2504
 -20390065.60248 -15805774.52046
                  20589582.5944                                   20589578.5474
                                                                        52.7504
        41.5004
  -3539845.59447  -2706269.44145
                  22340936.4384                                   22340931.7034
                                                                        46.5004
        30.5004
 -17156003.35247 -13349636.14545
                  22604494.5944                                   22604490.3674
                                                                        46.0004
        30.7504
 -14595788.62548 -11300730.40246
                  22126456.2194                                   22126452.6334
                                                                        49.5004
        38.7504
  -5832165.91047  -4506392.23844
                  23663511.2194                                   23663506.9574
                                                                        44.0004
        26.0004
  -8099579.46147  -6292305.60544
                  23123384.0704                                   23123379.5864
                                                                        43.2504
        29.2504
 09 10 24  0 36 30.0000000  0  8G02G05G10G13G25G29G16G07
  -1825244.38348  -1377380.67246
                  21799621.8524                                   21799616.0044
                                                                        49.0004
        38.5004
 -22948020.19148 -17796851.96947
                  21032323.8754                                   21032319.6374
                                                                        52.0004
        42.0004
 -20510008.18048 -15899236.27347
                  20566758.3204                                   20566754.4384
                                                                        52.5004
        42.0004
  -3553970.24647  -2717275.67245
                  22338248.5554                                   22338244.6054
                                                                        44.7504
        31.2504
 -17256640.74647 -13428054.89545
                  22585344.1804                                   22585340.2154
                                                                        45.5004
        30.2504
 -14673955.58248 -11361639.71946
                  22111581.6484                                   22111578.0474
                                                                        49.7504
        38.5004
  -5937138.52747  -4588189.07444
                  23643535.5784                                   23643531.1334
                                                                        42.5004
        25.2504
  -8256858.79347  -6414860.93045
                  23093455.2424                                   23093450.7074
                                                                        44.5004
        30.0004
 09 10 24  0 37  0.0000000  0  8G02G05G10G13G25G29G16G07
  -1834417.88748  -1384528.86746
                  21797876.3754                                   21797870.0204
                                                                        48.7504
        39.0004
 -23090003.76648 -17907488.51647
                  21005305.2974                                   21005300.9264
                                                                        51.7504
        42.2504
 -20629368.64848 -15992244.43447
                  20544044.6884                                   20544040.9104
                                                                        53.2504
        42.0004
  -3567611.19547  -2727904.98845
                  22335652.8834                                   22335648.8794
                                                                        45.5004
        30.7504
 -17356668.25047 -13505998.39545
                  22566309.6174                                   22566305.1564
                                                                        46.2504
        31.5004
 -14751492.77748 -11422058.30946
                  22096826.9614                                   22096823.7114
                                                                        50.0004
        38.0004
  -6041479.33247  -4669493.60244
                  23623680.5704                                   23623675.7114
                                                                        43.7504
        26.7504
  -8413623.36747  -6537015.13345
                  23063623.9454                                   23063619.3404
                                                                        43.7504
        31.5004
 09 10 24  0 37 30.0000000  0  8G02G05G10G13G25G29G16G07
  -1843149.49648  -1391332.72746
                  21796214.3204                                   21796208.1294
                                                                        48.7504
        38.5004
 -23231482.00448 -18017731.28947
                  20978382.6564                                   20978378.7544
                                                                        52.0004
        43.0004
 -20748146.02748 -16084798.23847
                  20521442.2274                                   20521438.1214
                                                                        52.0004
        42.5004
  -3580771.51247  -2738159.78945
                  22333148.6804                                   22333144.0474
                                                                        45.0004
        30.2504
 -17456085.94547 -13583466.73045
                  22547390.7814                                   22547386.6134
                                                                        46.2504
        30.5004
 -14828400.47348 -11481986.39846
                  22082191.5084                                   22082188.3674
                                                                        50.0004
        38.5004
  -6145187.93047  -4750305.49644
                  23603945.2894                                   23603940.7464
                                                                        42.0004
        25.5004
  -8569871.60547  -6658767.00045
                  23033891.1024                                   23033886.4384
                                                                        44.0004
        31.0004
 09 10 24  0 38  0.0000000  0  8G02G05G10G13G25G29G16G07
  -1851446.25048  -1397797.72746
                  21794635.8284                                   21794629.6844
                                                                        49.5004
        38.7504
 -23372458.10548 -18127582.79747
                  20951556.0554                                   20951552.0084
                                                                        52.5004
        43.0004
 -20866344.71148 -16176901.10547
                  20498949.4384                                   20498945.9804
                                                                        52.7504
        42.0004
  -3593458.30547  -2748045.60244
                  22330734.6174                                   22330730.0514
                                                                        45.2504
        29.2504
 -17554898.21147 -13660463.30145
                  22528587.5704                                   22528583.3164
                                                                        46.2504
        30.2504
 -14904683.87948 -11541428.01646
                  22067675.2274                                   22067671.8444
                                                                        50.0004
        39.0004
  -6248268.07047  -4830627.67244
                  23584330.0394                                   23584325.5314
                                                                        43.7504
        26.2504
  -8725605.90247  -6780118.39145
                  23004255.7344                                   23004250.9964
                                                                        44.2504
        31.5004
 09 10 24  0 38 30.0000000  0  8G02G05G10G13G25G29G16G07
  -1859316.03548  -1403930.04746
                  21793138.5164                                   21793132.4494
                                                                        49.5004
        38.2504
 -23512936.06248 -18237046.13347
                  20924823.8674                                   20924819.7664
                                                                        52.5004
        43.0004
 -20983969.65248 -16268556.91046
                  20476566.4144                                   20476562.5274
                                                                        52.0004
        41.7504
  -3605680.10947  -2757569.07444
                  22328408.4224                                   22328404.3164
                                                                        44.5004
        29.0004
 -17653110.50847 -13736992.36345
                  22509898.4534                                   22509893.9534
                                                                        45.2504
        31.0004
 -14980348.93048 -11600387.80546
                  22053276.8984                                   22053273.2194
                                                                        49.5004
        38.0004
  -6350725.15647  -4910464.39544
                  23564833.0004                                   23564828.4534
                                                                        43.5004
        25.7504
  -8880829.73047  -6901072.00445
                  22974717.8134                                   22974713.2974
                                                                        43.5004
        31.7504
 09 10 24  0 39  0.0000000  0  8G02G05G10G13G25G29G16G07
  -1866761.43448  -1409731.69146
                  21791721.3134                                   21791715.4844
                                                                        49.7504
        38.5004
 -23652916.00448 -18346121.40647
                  20898186.6334                                   20898182.6214
                                                                        53.0004
        43.0004
 -21101020.96548 -16359765.72346
                  20454292.2664                                   20454288.5864
                                                                        53.0004
        41.2504
  -3617439.44947  -2766732.19144
                  22326170.9144                                   22326166.2624
                                                                        44.0004
        29.2504
 -17750722.96947 -13813054.01645
                  22491323.4064                                   22491318.7304
                                                                        46.0004
        31.0004
 -15055397.71948 -11658867.36746
                  22038995.9224                                   22038992.1454
                                                                        49.5004
        38.5004
  -6452560.12946  -4989816.35244
                  23545454.6804                                   23545449.6174
                                                                        41.2504
        26.2504
  -9035540.84047  -7021626.10945
                  22945276.9614                                   22945272.5864
                                                                        44.5004
        31.5004
 09 10 24  0 39 30.0000000  0  8G02G05G10G13G25G29G16G07
  -1873786.43048  -1415205.73446
                  21790384.2894                                   21790378.6374
                                                                        49.2504
        37.5004
 -23792398.21148 -18454808.83247
                  20871644.1564                                   20871639.9844
                                                                        53.5004
        42.7504
 -21217499.70348 -16450528.37546
                  20432127.4384                                   20432123.2814
                                                                        53.0004
        41.0004
  -3628741.34447  -2775538.85945
                  22324020.5084                                   22324015.9304
                                                                        44.0004
        30.5004
 -17847737.60947 -13888649.84045
                  22472862.1564                                   22472857.5474
                                                                        45.5004
        30.5004
 -15129831.32848 -11716867.56246
                  22024831.3284                                   22024827.8634
                                                                        49.5004
        38.0004
  -6553773.62947  -5068684.02344
                  23526194.1564                                   23526189.4064
                                                                        42.5004
        26.7504
  -9189739.43747  -7141780.85545
                  22915933.8054                                   22915929.6374
                                                                        44.5004
        31.5004
 09 10 24  0 40  0.0000000  0  8G02G05G10G13G25G29G16G07
  -1880394.02348  -1420354.54346
                  21789127.2584                                   21789121.4304
                                                                        48.5004
        38.2504
 -23931382.00048 -18563107.88747
                  20845196.3444                                   20845192.3674
                                                                        53.0004
        43.0004
 -21333405.73048 -16540844.75446
                  20410070.8594                                   20410067.2154
                                                                        52.7504
        41.7504
  -3639588.73847  -2783991.37145
                  22321955.7114                                   22321951.7974
                                                                        44.0004
        30.0004
 -17944154.87947 -13963780.16845
                  22454514.7664                                   22454510.0704
                                                                        45.5004
        30.7504
 -15203652.02348 -11774390.19546
                  22010783.8444                                   22010780.1334
                                                                        49.0004
        38.5004
  -6654366.23447  -5147067.90244
                  23507052.4694                                   23507047.3834
                                                                        42.0004
        27.0004
  -9343423.67247  -7261534.78945
                  22886689.1724                                   22886684.3364
                                                                        44.5004
        30.5004
 09 10 24  0 40 30.0000000  0  8G02G05G10G13G25G29G16G07
  -1886584.35548  -1425178.20746
                  21787949.0554                                   21787943.1564
                                                                        49.0004
        38.0004
 -24069865.11748 -18671016.79747
                  20818843.6804                                   20818839.7974
                                                                        52.5004
        42.5004
 -21448737.52048 -16630713.69546
                  20388124.1094                                   20388120.3714
                                                                        52.5004
        41.7504
  -3649982.83647  -2792090.66444
                  22319978.0554                                   22319973.8324
                                                                        44.0004
        28.7504
 -18039972.91847 -14038443.57845
                  22436281.0474                                   22436276.2854
                                                                        46.0004
        32.2504
 -15276859.26648 -11831434.78546
                  21996852.8914                                   21996849.2274
                                                                        49.5004
        38.7504
  -6754336.43047  -5224966.78544
                  23488028.5314                                   23488023.4534
                                                                        43.0004
        25.5004
  -9496589.65647  -7380884.90645
                  22857542.5314                                   22857537.2424
                                                                        44.7504
        31.2504
 09 10 24  0 41  0.0000000  0  8G02G05G10G13G25G29G16G07
  -1892361.87548  -1429680.19946
                  21786849.3364                                   21786843.7544
                                                                        49.2504
        38.0004
 -24207847.50848 -18778535.54347
                  20792586.5784                                   20792581.9964
                                                                        52.2504
        43.0004
 -21563496.32848 -16720136.14146
                  20366286.1564                                   20366282.2664
                                                                        52.7504
        41.5004
  -3659928.24247  -2799840.32444
                  22318085.8204                                   22318081.1564
                                                                        45.0004
        29.0004
 -18135193.99647 -14112641.82045
                  22418161.0394                                   22418156.5824
                                                                        45.5004
        31.0004
 -15349454.66048 -11888002.61346
                  21983038.4774                                   21983034.8284
                                                                        49.7504
        39.0004
  -6853685.46547  -5302381.62944
                  23469123.0784                                   23469117.8634
                                                                        42.2504
        26.5004
  -9649237.56247  -7499831.32445
                  22828494.4064                                   22828489.7704
                                                                        45.0004
        30.5004
 09 10 24  0 41 30.0000000  0  8G02G05G10G13G25G29G16G07
  -1897729.68048  -1433862.91846
                  21785828.3674                                   21785822.8874
                                                                        48.5004
        38.0004
 -24345329.83648 -18885664.61347
                  20766424.6884                                   20766420.9184
                                                                        52.2504
        43.2504
 -21677683.24648 -16809112.96946
                  20344557.0864                                   20344553.3914
                                                                        52.2504
        41.5004
  -3669428.61747  -2807243.23444
                  22316277.7274                                   22316273.8324
                                                                        44.0004
        29.5004
 -18229818.75447 -14186375.39545
                  22400154.8284                                   22400150.5164
                                                                        45.2504
        31.0004
 -15421440.53148 -11944095.49646
                  21969340.1174                                   21969336.4304
                                                                        49.5004
        38.5004
  -6952414.72347  -5379313.52044
                  23450335.0394                                   23450330.5944
                                                                        42.0004
        26.5004
  -9801365.68047  -7618372.72745
                  22799545.2814                                   22799540.6094
                                                                        44.5004
        31.2504
 09 10 24  0 42  0.0000000  0  8G02G05G10G13G25G29G16G07
  -1902689.99648  -1437728.12546
                  21784884.5554                                   21784878.8674
                                                                        48.5004
        38.0004
 -24482310.81648 -18992403.04347
                  20740357.8364                                   20740353.5864
                                                                        52.2504
        42.5004
 -21791297.37548 -16897643.46146
                  20322937.0634                                   20322932.8874
                                                                        52.5004
        41.5004
  -3678486.79747  -2814301.53544
                  22314554.3524                                   22314549.7424
                                                                        44.5004
        29.0004
 -18323847.24647 -14259644.35245
                  22382261.8834                                   22382257.0234
                                                                        45.5004
        31.7504
 -15492817.25448 -11999713.70746
                  21955757.4534                                   21955754.0474
                                                                        49.5004
        38.2504
  -7050523.69547  -5455762.07844
                  23431665.8834                                   23431661.4924
                                                                        42.5004
        27.0004
  -9952972.28147  -7736507.73045
                  22770695.7734                                   22770690.9144
                                                                        45.5004
        31.5004
 09 10 24  0 42 30.0000000  0  8G02G05G10G13G25G29G16G07
  -1907244.21547  -1441276.90246
                  21784018.0394                                   21784012.3364
                                                                        47.7504
        38.0004
 -24618788.93048 -19098749.62947
                  20714386.9924                                   20714383.1884
                                                                        52.7504
        42.5004
 -21904337.42648 -16985726.61746
                  20301426.2734                                   20301422.2274
                                                                        52.0004
        41.2504
  -3687104.25447  -2821016.44144
                  22312914.0164                                   22312909.8054
                                                                        43.0004
        28.5004
 -18417278.55547 -14332447.96545
                  22364482.2734                                   22364477.9494
                                                                        45.7504
        31.2504
 -15563585.16048 -12054857.52346
                  21942290.7344                                   21942287.5704
                                                                        49.7504
        39.0004
  -7148011.44146  -5531726.58244
                  23413114.7274                                   23413110.0784
                                                                        41.2504
        25.5004
 -10104054.05147  -7854233.79345
                  22741946.0784                                   22741940.8874
                                                                        44.5004
        32.0004
 09 10 24  0 43  0.0000000  0  8G02G05G10G13G25G29G16G07
  -1911393.99248  -1444510.53546
                  21783228.4144                                   21783222.8244
                                                                        48.5004
        37.0004
 -24754761.93748 -19204702.62147
                  20688512.5004                                   20688508.4024
                                                                        52.2504
        42.7504
 -22016802.12948 -17073361.43746
                  20280024.7114                                   20280021.0944
                                                                        52.5004
        41.5004
  -3695283.40647  -2827389.81244
                  22311357.2504                                   22311353.3404
                                                                        44.0004
        28.0004
 -18510112.21147 -14404785.87545
                  22346816.7424                                   22346812.3984
                                                                        45.0004
        31.7504
 -15633744.43748 -12109527.07846
                  21928939.7114                                   21928936.5274
                                                                        50.0004
        38.7504
  -7244877.16047  -5607206.36744
                  23394681.3284                                   23394677.2194
                                                                        42.0004
        26.0004
 -10254608.63347  -7971549.06245
                  22713296.6644                                   22713291.3914
                                                                        45.7504
        31.2504
 09 10 24  0 43 30.0000000  0  8G02G05G10G13G25G29G16G07
  -1915141.36347  -1447430.59046
                  21782514.7974                                   21782509.6024
                                                                        47.7504
        37.5004
 -24890228.68048 -19310261.14547
                  20662734.0004                                   20662729.8054
                                                                        53.2504
        43.0004
 -22128691.39848 -17160547.89146
                  20258733.0784                                   20258729.2734
                                                                        52.2504
        41.0004
  -3703026.64847  -2833423.48844
                  22309884.1564                                   22309879.7584
                                                                        43.5004
        29.2504
 -18602348.12947 -14476658.02045
                  22329264.3674                                   22329260.4264
                                                                        46.0004
        31.2504
 -15703295.77348 -12163722.91046
                  21915704.4144                                   21915701.0274
                                                                        49.0004
        38.5004
  -7341120.59447  -5682201.26644
                  23376366.9614                                   23376362.8524
                                                                        42.0004
        25.7504
 -10404633.48447  -8088451.53145
                  22684747.9384                                   22684742.7584
                                                                        45.5004
        31.2504
 09 10 24  0 44  0.0000000  0  8G02G05G10G13G25G29G16G07
   -343067.00048   -222437.62146
                  22081670.8444                                   22081665.3054
                                                                        48.2504
        37.5004
 -23449761.89148 -18187819.49647
                  20936845.7344                                   20936841.6954
                                                                        52.7504
        43.0004
 -20664578.97348 -16019681.08247
                  20537344.3524                                   20537340.4694
                                                                        53.0004
        42.0004
  -2134914.84447  -1611518.18044
                  22608286.0004                                   22608280.9884
                                                                        44.0004
        28.2504
 -17118561.84847 -13320460.91845
                  22611619.7734                                   22611615.3634
                                                                        45.2504
        31.2504
 -14196815.97748 -10989842.54746
                  22202378.0164                                   22202374.5904
                                                                        49.5004
        38.0004
  -5861316.80547  -4529107.39544
                  23657964.1564                                   23657959.8794
                                                                        42.0004
        26.5004
  -8978699.99247  -6977334.52745
                  22956093.6644                                   22956089.0204
                                                                        44.7504
        31.7504
 09 10 24  0 44 30.0000000  0  8G02G05G10G13G25G29G16G07
   -346014.78948   -224734.63746
                  22081110.3754                                   22081104.4614
                                                                        48.7504
        37.5004
 -23584211.53548 -18292585.45747
                  20911260.4774                                   20911256.5394
                                                                        53.0004
        43.0004
 -20775313.95348 -16105968.06646
                  20516272.1954                                   20516268.2344
                                                                        52.5004
        41.7504
  -2141792.87547  -1616877.69544
                  22606977.7814                                   22606973.0124
                                                                        44.2504
        28.7504
 -17209601.07047 -13391400.57045
                  22594295.4304                                   22594291.3404
                                                                        44.7504
        31.2504
 -14265152.00048 -11043091.39546
                  22189374.3204                                   22189370.8244
                                                                        49.5004
        39.2504
  -5956313.88747  -4603131.09044
                  23639887.1484                                   23639882.7854
                                                                        43.0004
        27.0004
  -9127657.62147  -7093405.41445
                  22927747.8524                                   22927743.5664
                                                                        46.5004
        32.5004
 09 10 24  0 45  0.0000000  0  8G02G05G10G13G25G29G16G07
   -348567.35547   -226723.69546
                  22080623.8984                                   22080618.0474
                                                                        47.7504
        36.7504
 -23718152.91048 -18396955.35547
                  20885772.3204                                   20885768.5434
                                                                        52.5004
        43.0004
 -20885473.07448 -16191806.33646
                  20495309.6094                                   20495305.9494
                                                                        52.7504
        41.5004
  -2148243.68047  -1621904.29344
                  22605749.1644                                   22605744.8834
                                                                        43.7504
        28.5004
 -17300043.28547 -13461875.02345
                  22577084.8204                                   22577080.4844
                                                                        45.0004
        31.2504
 -14332883.72348 -11095869.36346
                  22176485.2344                                   22176481.7894
                                                                        50.5004
        38.7504
  -6050689.44146  -4676670.47344
                  23621927.6484                                   23621923.5274
                                                                        41.0004
        26.5004
  -9276079.70347  -7209058.96145
                  22899504.1484                                   22899499.7114
                                                                        45.5004
        31.2504
 09 10 24  0 45 30.0000000  0  8G02G05G10G13G25G29G16G07
   -350726.81248   -228406.40246
                  22080212.7894                                   22080207.3674
                                                                        48.0004
        37.2504
 -23851583.78948 -18500927.46947
                  20860381.5004                                   20860377.4534
                                                                        52.7504
        43.0004
 -20995054.88348 -16277194.77046
                  20474457.1094                                   20474452.9694
                                                                        53.0004
        41.5004
  -2154269.73047  -1626599.92244
                  22604602.9614                                   22604598.5944
                                                                        45.0004
        28.7504
 -17389888.45747 -13531884.24245
                  22559987.8674                                   22559984.4224
                                                                        46.0004
        31.7504
 -14400010.57448 -11148176.00446
                  22163711.5784                                   22163708.1564
                                                                        49.2504
        38.7504
  -6144442.34447  -4749724.68444
                  23604087.6954                                   23604082.9494
                                                                        42.7504
        26.7504
  -9423964.81647  -7324294.09845
                  22871362.0004                                   22871358.2664
                                                                        45.5004
        30.7504
 09 10 24  0 46  0.0000000  0  8G02G05G10G13G25G29G16G07
   -352494.21548   -229783.62946
                  22079876.9844                                   22079871.1884
                                                                        48.5004
        37.0004
 -23984502.46548 -18604500.45747
                  20835087.7814                                   20835083.5864
                                                                        53.0004
        43.7504
 -21104058.39148 -16362132.56246
                  20453714.0864                                   20453710.2504
                                                                        52.5004
        41.7504
  -2159872.53147  -1630965.74244
                  22603537.0084                                   22603532.5434
                                                                        45.5004
        28.7504
 -17479135.59847 -13601427.47745
                  22543004.7194                                   22543000.4104
                                                                        45.7504
        30.7504
 -14466532.76248 -11200011.47746
                  22151052.8444                                   22151049.1334
                                                                        49.2504
        38.5004
  -6237571.88347  -4822293.12944
                  23586365.8524                                   23586361.0784
                                                                        43.0004
        26.7504
  -9571308.97347  -7439107.71945
                  22843323.4924                                   22843318.9614
                                                                        44.5004
        31.5004
 09 10 24  0 46 30.0000000  0  8G02G05G10G13G25G29G16G07
   -353869.94948   -230855.61746
                  22079615.3444                                   22079609.6804
                                                                        48.5004
        37.2504
 -24116906.23448 -18707672.25047
                  20809892.1484                                   20809888.1174
                                                                        53.0004
        42.7504
 -21212481.79748 -16446618.33646
                  20433082.0394                                   20433077.8794
                                                                        52.5004
        41.7504
  -2165053.27347  -1635002.68044
                  22602551.1564                                   22602546.3714
                                                                        43.5004
        28.5004
 -17567783.26647 -13670503.57845
                  22526135.3914                                   22526131.3324
                                                                        45.5004
        31.5004
 -14532450.18748 -11251375.70346
                  22138509.0474                                   22138505.5704
                                                                        49.0004
        38.7504
  -6330076.99247  -4894375.02344
                  23568762.2894                                   23568757.5704
                                                                        42.5004
        26.7504
  -9718108.75047  -7553497.15245
                  22815388.5474                                   22815383.9734
                                                                        45.7504
        32.2504
 09 10 24  0 47  0.0000000  0  8G02G05G10G13G25G29G16G07
   -354855.23448   -231623.36346
                  22079428.1174                                   22079422.0474
                                                                        48.7504
        37.5004
 -24248792.87948 -18810441.06247
                  20784795.0784                                   20784790.9614
                                                                        53.0004
        43.2504
 -21320323.08648 -16530650.50046
                  20412560.7424                                   20412557.0044
                                                                        52.7504
        41.7504
  -2169812.96947  -1638711.52044
                  22601645.5394                                   22601640.6454
                                                                        44.0004
        28.0004
 -17655830.09047 -13739111.49645
                  22509380.7664                                   22509376.7774
                                                                        45.7504
        31.0004
 -14597761.85248 -11302267.90646
                  22126080.7814                                   22126077.2384
                                                                        49.0004
        38.0004
  -6421955.48447  -4965968.62944
                  23551278.4384                                   23551273.7344
                                                                        42.0004
        27.0004
  -9864360.54347  -7667459.60545
                  22787558.2424                                   22787553.4224
                                                                        46.5004
        31.0004
 09 10 24  0 47 30.0000000  0  8G02G05G10G13G25G29G16G07
   -355455.18748   -232090.84446
                  22079313.2424                                   22079307.6564
                                                                        48.2504
        36.5004
 -24380164.50448 -18912808.54347
                  20759796.0864                                   20759792.0824
                                                                        52.7504
        43.5004
 -21427585.59848 -16614231.68746
                  20392149.1884                                   20392145.2344
                                                                        52.5004
        41.2504
  -2174157.80947  -1642097.12544
                  22600818.1334                                   22600814.1134
                                                                        45.0004
        28.0004
 -17743279.66047 -13807254.02345
                  22492739.6094                                   22492735.3594
                                                                        45.5004
        31.5004
 -14662472.14548 -11352691.51646
                  22113766.9144                                   22113763.4184
                                                                        49.5004
        38.5004
  -6513211.21547  -5037076.96144
                  23533913.4924                                   23533908.3094
                                                                        43.5004
        26.7504
 -10010065.47747  -7780995.92245
                  22759831.3204                                   22759826.7814
                                                                        46.7504
        32.0004
 09 10 24  0 48  0.0000000  0  8G02G05G10G13G25G29G16G07
   -355672.27748   -232260.00446
                  22079272.3674                                   22079266.7304
                                                                        48.0004
        36.5004
 -24511019.86748 -19014773.78147
                  20734894.9694                                   20734891.0904
                                                                        53.0004
        43.2504
 -21534268.55948 -16697361.25846
                  20371847.8914                                   20371844.6414
                                                                        52.7504
        41.7504
  -2178090.02347  -1645161.19944
                  22600069.8754                                   22600065.7544
                                                                        44.0004
        27.0004
 -17830131.86747 -13874931.07045
                  22476212.2344                                   22476207.8794
                                                                        46.2504
        32.0004
 -14726581.85948 -11402647.12146
                  22101567.0704                                   22101563.6804
                                                                        48.7504
        38.2504
  -6603843.63747  -5107699.59444
                  23516665.8524                                   23516661.7114
                                                                        42.5004
        26.5004
 -10155221.67647  -7894104.65645
                  22732208.6484                                   22732204.2664
                                                                        46.2504
        32.0004
 09 10 24  0 48 30.0000000  0  8G02G05G10G13G25G29G16G07
   -355508.41048   -232132.30146
                  22079303.6334                                   22079298.1214
                                                                        48.7504
        37.0004
 -24641357.84848 -19116335.84447
                  20710092.3754                                   20710088.3634
                                                                        53.0004
        43.5004
 -21640371.69148 -16780039.03146
                  20351657.1414                                   20351653.5904
                                                                        52.5004
        41.5004
  -2181612.60247  -1647906.05944
                  22599399.7344                                   22599395.0744
                                                                        45.0004
        27.5004
 -17916386.96547 -13942142.83645
                  22459798.7734                                   22459794.1604
                                                                        46.0004
        31.2504
 -14790091.74248 -11452135.34046
                  22089481.5784                                   22089477.7934
                                                                        48.5004
        38.5004
  -6693853.39547  -5177837.06244
                  23499537.6024                                   23499533.0474
                                                                        43.2504
        26.7504
 -10299827.01647  -8006784.12145
                  22704691.8134                                   22704686.7194
                                                                        46.5004
        32.5004
 09 10 24  0 49  0.0000000  0  8G02G05G10G13G25G29G16G07
   -354964.94948   -231708.81646
                  22079406.6564                                   22079401.1054
                                                                        48.0004
        36.7504
 -24771176.37948 -19217493.13747
                  20685389.0474                                   20685384.6374
                                                                        52.7504
        43.0004
 -21745893.38748 -16862263.73847
                  20331577.1094                                   20331573.1844
                                                                        52.5004
        42.0004
  -2184726.72347  -1650332.63344
                  22598807.3204                                   22598802.6914
                                                                        44.0004
        27.5004
 -18002044.12547 -14008888.67245
                  22443498.5394                                   22443494.1684
                                                                        46.2504
        31.5004
 -14853001.83648 -11501156.18446
                  22077510.1254                                   22077506.6604
                                                                        48.5004
        39.0004
  -6783238.86347  -5247488.07444
                  23482528.3914                                   23482523.3674
                                                                        42.0004
        28.0004
 -10443878.64147  -8119032.17245
                  22677279.2894                                   22677274.0944
                                                                        46.7504
        32.5004
 09 10 24  0 49 30.0000000  0  8G02G05G10G13G25G29G16G07
   -354043.77348   -230991.00846
                  22079582.1804                                   22079576.3324
                                                                        48.5004
        36.0004
 -24900474.73848 -19318245.10947
                  20660783.8914                                   20660779.9064
                                                                        53.0004
        43.2504
 -21850833.55948 -16944035.28147
                  20311607.7344                                   20311603.8984
                                                                        52.2504
        42.2504
  -2187435.40247  -1652443.28944
                  22598291.5164                                   22598286.8364
                                                                        45.0004
        28.5004
 -18087103.55947 -14075168.75045
                  22427312.3364                                   22427308.1334
                                                                        46.0004
        31.2504
 -14915313.32448 -11549710.59046
                  22065652.6414                                   22065649.2664
                                                                        48.0004
        39.0004
  -6872000.41847  -5316652.90244
                  23465637.2274                                   23465633.3284
                                                                        42.0004
        26.0004
 -10587374.25847  -8230846.94945
                  22649972.9064                                   22649968.0354
                                                                        47.0004
        32.0004
 09 10 24  0 50  0.0000000  0  8G02G05G10G13G25G29G16G07
   -352747.23847   -229980.72346
                  22079828.9694                                   22079823.1254
                                                                        47.7504
        36.5004
 -25029252.37548 -19418591.34447
                  20636278.6484                                   20636274.4774
                                                                        52.7504
        43.5004
 -21955192.21548 -17025353.68047
                  20291748.9774                                   20291745.1174
                                                                        52.0004
        42.2504
  -2189741.27047  -1654240.07444
                  22597853.2114                                   22597848.3754
                                                                        44.0004
        27.2504
 -18171565.66047 -14140983.36745
                  22411239.4534                                   22411235.6804
                                                                        46.5004
        31.2504
 -14977027.81247 -11597799.79346
                  22053908.7584                                   22053905.0434
                                                                        47.7504
        38.2504
  -6960138.78947  -5385332.16844
                  23448864.9454                                   23448860.8874
                                                                        42.0004
        27.2504
 -10730312.08647  -8342227.05945
                  22622772.8054                                   22622768.0434
                                                                        46.5004
        31.5004
 09 10 24  0 50 30.0000000  0  8G02G05G10G13G25G29G16G07
   -351078.79347   -228680.65646
                  22080145.8674                                   22080140.3984
                                                                        47.0004
        36.0004
 -25157508.08648 -19518530.82847
                  20611872.1414                                   20611868.3834
                                                                        52.0004
        43.0004
 -22058969.58248 -17106219.11347
                  20272000.6024                                   20271996.9964
                                                                        52.5004
        42.0004
  -2191648.00847  -1655725.84844
                  22597490.2274                                   22597485.7344
                                                                        42.5004
        27.0004
 -18255431.66847 -14206333.50445
                  22395280.5944                                   22395276.3754
                                                                        47.0004
        31.5004
 -15038145.76247 -11645424.16046
                  22042278.7424                                   22042275.0084
                                                                        47.5004
        38.0004
  -7047653.90246  -5453525.74644
                  23432211.9064                                   23432207.4454
                                                                        41.2504
        26.5004
 -10872691.43447  -8453172.00845
                  22595679.1954                                   22595674.1564
                                                                        47.0004
        32.2504
 09 10 24  0 51  0.0000000  0  8G02G05G10G13G25G29G16G07
   -349038.69147   -227090.97346
                  22080534.7734                                   22080528.7854
                                                                        47.2504
        36.7504
 -25285239.57448 -19618061.87147
                  20587565.8524                                   20587561.7344
                                                                        52.7504
        43.5004
 -22162163.73448 -17186630.10246
                  20252363.5864                                   20252359.3284
                                                                        52.5004
        41.2504
  -2193155.84047  -1656900.80544
                  22597203.0554                                   22597199.1214
                                                                        44.5004
        27.5004
 -18338699.56247 -14271217.58645
                  22379435.0234                                   22379430.4694
                                                                        45.7504
        31.2504
 -15098667.38747 -11692583.87546
                  22030761.4774                                   22030758.0354
                                                                        46.7504
        37.7504
  -7134544.73447  -5521232.86344
                  23415676.3524                                   23415672.3404
                                                                        42.0004
        27.2504
 -11014507.76647  -8563678.24245
                  22568691.9534                                   22568687.2774
                                                                        45.7504
        32.2504
 09 10 24  0 51 30.0000000  0  8G02G05G10G13G25G29G16G07
   -346630.09447   -225214.18446
                  22080993.0004                                   22080987.5394
                                                                        46.7504
        36.7504
 -25412446.96948 -19717184.52047
                  20563359.1024                                   20563354.7734
                                                                        52.5004
        43.2504
 -22264775.35548 -17266587.21546
                  20232837.2504                                   20232833.2774
                                                                        52.2504
        41.7504
  -2194269.00447  -1657768.21144
                  22596991.6724                                   22596987.0354
                                                                        42.7504
        28.2504
 -18421371.07847 -14335636.94545
                  22363703.2894                                   22363698.9344
                                                                        46.0004
        31.7504
 -15158594.45747 -11739280.29746
                  22019357.8054                                   22019354.5004
                                                                        47.5004
        37.7504
  -7220812.78946  -5588454.73044
                  23399259.8364                                   23399256.5704
                                                                        41.0004
        26.0004
 -11155760.56647  -8673745.37545
                  22541812.3754                                   22541807.6644
                                                                        46.0004
        32.0004
 09 10 24  0 52  0.0000000  0  8G02G05G10G13G25G29G16G07
   -343850.05948   -223047.98046
                  22081522.2274                                   22081516.7814
                                                                        48.0004
        36.2504
 -25539123.95348 -19815893.86347
                  20539253.2894                                   20539249.1844
                                                                        52.7504
        43.2504
 -22366799.17248 -17346086.29346
                  20213422.5944                                   20213418.6684
                                                                        52.5004
        41.7504
  -2194984.78147  -1658325.94544
                  22596855.2504                                   22596850.3244
                                                                        44.5004
        26.2504
 -18503441.05547 -14399587.58245
                  22348085.9304                                   22348081.5744
                                                                        45.7504
        31.5004
 -15217923.00447 -11785510.33246
                  22008067.9694                                   22008064.1484
                                                                        47.7504
        38.5004
  -7306452.42646  -5655186.90244
                  23382964.0864                                   23382959.6994
                                                                        41.5004
        26.5004
 -11296442.56647  -8783367.71945
                  22515042.1484                                   22515037.2544
                                                                        46.2504
        31.5004
 09 10 24  0 52 30.0000000  0  8G02G05G10G13G25G29G16G07
   1234713.00448   1007001.14846
                  22381913.0234                                   22381906.8834
                                                                        48.2504
        36.0004
 -24089851.43748 -18686590.60547
                  20815040.2664                                   20815036.3674
                                                                        52.5004
        43.5004
 -20892817.71948 -16197529.32846
                  20493911.9064                                   20493908.0124
                                                                        52.0004
        41.5004
   -619892.01647   -430980.94144
                  22896585.8054                                   22896580.4964
                                                                        43.7504
        26.2504
 -17009493.28547 -13235472.44545
                  22632374.6724                                   22632370.7464
                                                                        45.5004
        31.5004
 -13701238.46548 -10603678.21146
                  22296683.3284                                   22296679.3984
                                                                        48.5004
        38.5004
  -5816047.57846  -4493832.47344
                  23666578.2974                                   23666574.3094
                                                                        40.5004
        27.0004
  -9861133.44147  -7664945.01245
                  22788171.9694                                   22788167.2384
                                                                        46.2504
        31.7504
 09 10 24  0 53  0.0000000  0  8G02G05G10G13G25G29G16G07
   1238218.46948   1009732.58246
                  22382579.6954                                   22382573.9614
                                                                        48.0004
        36.0004
 -24215475.53148 -18784479.46147
                  20791135.2274                                   20791131.2194
                                                                        52.5004
        43.5004
 -20993676.24648 -16276120.37147
                  20474719.0944                                   20474715.4844
                                                                        52.7504
        42.0004
   -619831.84847   -430934.03544
                  22896597.1484                                   22896592.2384
                                                                        43.7504
        27.5004
 -17090372.34847 -13298495.08645
                  22616983.6094                                   22616979.9884
                                                                        47.0004
        31.0004
 -13759384.28548 -10648986.64846
                  22285618.8204                                   22285615.2504
                                                                        48.0004
        38.7504
  -5900442.43046  -4559594.69144
                  23650518.5004                                   23650514.6524
                                                                        41.2504
        25.5004
 -10000679.13747  -7773681.89845
                  22761616.9924                                   22761613.1484
                                                                        46.7504
        32.2504
 09 10 24  0 53 30.0000000  0  8G02G05G10G13G25G29G16G07
   1242084.25048   1012744.79745
                  22383315.3444                                   22383309.6334
                                                                        48.0004
        35.5004
 -24340570.94948 -18881956.37947
                  20767330.2894                                   20767325.8874
                                                                        52.5004
        44.0004
 -21093950.32048 -16354256.00847
                  20455637.6954                                   20455633.9414
                                                                        52.5004
        42.0004
   -619386.45347   -430586.97744
                  22896681.6254                                   22896677.2774
                                                                        44.2504
        26.5004
 -17170655.42247 -13361053.32845
                  22601706.8594                                   22601702.8284
                                                                        46.5004
        31.0004
 -13816939.32847 -10693834.73046
                  22274666.3914                                   22274662.4104
                                                                        47.2504
        38.2504
  -5984214.32046  -4624871.47344
                  23634577.4844                                   23634572.9884
                                                                        40.2504
        25.5004
 -10139653.02747  -7881973.23445
                  22735171.2274                                   22735167.0634
                                                                        47.0004
        32.7504
 09 10 24  0 54  0.0000000  0  8G02G05G10G13G25G29G16G07
   1246308.73447   1016036.55145
                  22384119.4844                                   22384113.3674
                                                                        47.7504
        35.2504
 -24465136.55548 -18979020.47747
                  20743625.8914                                   20743622.0124
                                                                        51.7504
        44.0004
 -21193639.91848 -16431936.22746
                  20436667.2424                                   20436663.5944
                                                                        52.7504
        41.2504
   -618557.49247   -429941.04744
                  22896838.6884                                   22896834.9734
                                                                        42.2504
        27.0004
 -17250342.73847 -13423147.34445
                  22586542.1174                                   22586538.0394
                                                                        47.0004
        32.2504
 -13873904.31648 -10738223.03946
                  22263825.9224                                   22263822.7504
                                                                        48.0004
        38.0004
  -6067362.92646  -4689662.59844
                  23618754.5784                                   23618750.4694
                                                                        41.0004
        26.0004
 -10278052.90647  -7989817.30145
                  22708834.9454                                   22708830.3204
                                                                        47.0004
        32.5004
 09 10 24  0 54 30.0000000  0  8G02G05G10G13G25G29G16G07
   1250889.27048   1019605.76245
                  22384991.3594                                   22384985.2194
                                                                        48.7504
        35.5004
 -24589171.09848 -19075670.74247
                  20720023.1954                                   20720018.8594
                                                                        52.2504
        43.0004
 -21292745.07448 -16509161.05146
                  20417808.0784                                   20417804.3914
                                                                        52.2504
        41.5004
   -617349.29347   -428999.62544
                  22897069.2344                                   22897064.7344
                                                                        42.5004
        26.0004
 -17329434.64147 -13484777.38745
                  22571491.5314                                   22571487.7544
                                                                        46.5004
        31.5004
 -13930280.87948 -10782152.84446
                  22253098.0864                                   22253094.2934
                                                                        48.5004
        38.7504
  -6149889.05146  -4753968.66044
                  23603050.4534                                   23603045.9844
                                                                        39.7504
        26.0004
 -10415876.60247  -8097212.38745
                  22682608.1024                                   22682603.6024
                                                                        47.0004
        32.5004
 09 10 24  0 55  0.0000000  0  8G02G05G10G13G25G29G16G07
   1255822.55948   1023449.83246
                  22385930.1724                                   22385924.2034
                                                                        48.0004
        36.0004
 -24712675.14548 -19171907.67247
                  20696521.2114                                   20696516.8874
                                                                        51.7504
        43.2504
 -21391266.77348 -16585931.25846
                  20399060.1884                                   20399056.7304
                                                                        53.0004
        41.5004
   -615765.43747   -427765.43744
                  22897370.6414                                   22897366.8794
                                                                        43.0004
        27.0004
 -17407932.93047 -13545944.88745
                  22556553.9924                                   22556549.9454
                                                                        46.5004
        31.5004
 -13986071.36748 -10825625.93046
                  22242481.5944                                   22242478.3554
                                                                        49.0004
        38.2504
  -6231794.63746  -4817791.18444
                  23587464.7814                                   23587460.1564
                                                                        41.0004
        26.5004
 -10553124.15247  -8204158.52345
                  22656490.6254                                   22656486.4654
                                                                        46.2504
        33.2504
 09 10 24  0 55 30.0000000  0  8G02G05G10G13G25G29G16G07
   1261104.44948   1027565.54745
                  22386935.0394                                   22386929.1914
                                                                        49.2504
        35.5004
 -24835649.49648 -19267731.84047
                  20673120.0004                                   20673115.7584
                                                                        52.5004
        43.2504
 -21489206.83648 -16662248.23446
                  20380423.1174                                   20380419.6484
                                                                        52.7504
        41.2504
   -613809.19147   -426241.09444
                  22897742.6804                                   22897738.5704
                                                                        44.2504
        26.5004
 -17485839.79347 -13606651.53545
                  22541728.8204                                   22541724.7464
                                                                        46.2504
        30.7504
 -14041278.30148 -10868644.30146
                  22231975.6484                                   22231972.2734
                                                                        49.2504
        37.5004
  -6313080.62146  -4881130.90644
                  23571996.2584                                   23571991.5394
                                                                        40.2504
        26.5004
 -10689795.14147  -8310655.39545
                  22630483.2504                                   22630478.3914
                                                                        47.2504
        32.5004
 09 10 24  0 56  0.0000000  0  8G02G05G10G13G25G29G16G07
   1266734.98048   1031952.92246
                  22388006.5864                                   22388001.3164
                                                                        48.0004
        36.0004
 -24958091.18448 -19363140.93447
                  20649820.0784                                   20649815.8794
                                                                        52.0004
        43.7504
 -21586562.84848 -16738110.06646
                  20361896.9144                                   20361893.3324
                                                                        52.7504
        41.2504
   -611482.35247   -424427.96944
                  22898185.8284                                   22898181.2974
                                                                        44.2504
        26.5004
 -17563153.73847 -13666896.16845
                  22527016.5704                                   22527012.2544
                                                                        46.2504
        31.2504
 -14095901.46148 -10911207.80946
                  22221581.5784                                   22221578.2074
                                                                        48.5004
        38.0004
  -6393746.46946  -4943987.41444
                  23556645.8204                                   23556641.5664
                                                                        40.7504
        26.0004
 -10825885.89147  -8416700.13345
                  22604585.8914                                   22604581.3594
                                                                        47.5004
        33.0004
 09 10 24  0 56 30.0000000  0  8G02G05G10G13G25G29G16G07
   1272713.79348   1036611.81345
                  22389144.4534                                   22389138.1994
                                                                        49.5004
        35.5004
 -25079997.70748 -19458133.02047
                  20626621.8364                                   20626617.7584
                                                                        52.0004
        43.7504
 -21683333.10548 -16813515.44546
                  20343482.2584                                   20343478.2894
                                                                        52.7504
        41.7504
   -608785.34847   -422326.39544
                  22898699.0084                                   22898694.8204
                                                                        43.5004
        26.7504
 -17639873.48847 -13726677.78945
                  22512416.8594                                   22512413.5084
                                                                        47.0004
        32.0004
 -14149940.48448 -10953316.14546
                  22211298.3594                                   22211294.3754
                                                                        49.7504
        38.0004
  -6473790.64547  -5006359.48844
                  23541413.7734                                   23541409.9694
                                                                        42.5004
        26.0004
 -10961392.91447  -8522290.01645
                  22578799.7344                                   22578794.8984
                                                                        47.2504
        32.0004
 09 10 24  0 57  0.0000000  0  8G02G05G10G13G25G29G16G07
   1279038.12548   1041539.75845
                  22390347.6254                                   22390342.0274
                                                                        48.2504
        34.5004
 -25201367.77748 -19552707.10247
                  20603525.8284                                   20603521.7664
                                                                        52.2504
        43.7504
 -21779516.71948 -16888463.69546
                  20325178.6954                                   20325175.0904
                                                                        52.5004
        41.7504
   -605719.79347   -419937.65244
                  22899281.7344                                   22899277.6254
                                                                        43.0004
        24.5004
 -17715999.09447 -13785996.44945
                  22497931.2034                                   22497927.1484
                                                                        46.0004
        31.2504
 -14203395.23048 -10994969.19946
                  22201126.2114                                   22201122.4884
                                                                        49.7504
        38.0004
  -6553212.61746  -5068246.73044
                  23526301.3204                                   23526296.5394
                                                                        40.7504
        25.2504
 -11096314.09847  -8627423.40245
                  22553125.1884                                   22553119.9414
                                                                        47.0004
        32.0004
 09 10 24  0 57 30.0000000  0  8G02G05G10G13G25G29G16G07
   1285703.87947   1046733.83645
                  22391616.3134                                   22391610.3444
                                                                        47.2504
        33.7504
 -25322203.50048 -19646864.79347
                  20580531.8364                                   20580527.5824
                                                                        51.2504
        43.7504
 -21875116.87948 -16962957.28546
                  20306986.7504                                   20306983.1054
                                                                        52.0004
        41.0004
   -602291.71547   -417266.44544
                  22899934.3054                                   22899930.0164
                                                                        43.2504
        24.2504
 -17791533.68747 -13844854.57845
                  22483557.8364                                   22483553.5044
                                                                        47.0004
        31.7504
 -14256270.65648 -11036170.80946
                  22191064.0004                                   22191060.5394
                                                                        49.7504
        38.2504
  -6632016.07846  -5129652.01644
                  23511304.3134                                   23511300.2974
                                                                        41.2504
        26.0004
 -11230650.16047  -8732100.85945
                  22527561.4694                                   22527556.5434
                                                                        46.7504
        32.0004
 09 10 24  0 58  0.0000000  0  8G02G05G10G13G25G29G16G07
   1292711.71547   1052194.39145
                  22392950.0394                                   22392944.0984
                                                                        47.0004
        35.5004
 -25442499.98048 -19740602.30147
                  20557639.8054                                   20557636.0514
                                                                        52.0004
        43.5004
 -21970129.72748 -17036993.28147
                  20288906.2814                                   20288902.7304
                                                                        51.5004
        42.0004
   -598500.62947   -414312.36744
                  22900656.1564                                   22900651.0554
                                                                        44.5004
        25.7504
 -17866474.30947 -13903249.86345
                  22469296.3594                                   22469292.2974
                                                                        46.0004
        31.5004
 -14308564.04348 -11076918.91046
                  22181113.0234                                   22181109.6524
                                                                        49.5004
        37.5004
  -6710197.46546  -5190572.58644
                  23496427.2894                                   23496422.7074
                                                                        41.0004
        25.7504
 -11364396.21547  -8836318.56645
                  22502110.5864                                   22502105.9804
                                                                        47.0004
        32.5004
 09 10 24  0 58 30.0000000  0  8G02G05G10G13G25G29G16G07
   1300056.94947   1057917.96545
                  22394348.0864                                   22394341.9654
                                                                        47.0004
        35.0004
 -25562260.13748 -19833921.88747
                  20534850.1724                                   20534846.4614
                                                                        51.5004
        43.5004
 -22064558.37548 -17110574.05546
                  20270937.0394                                   20270933.4654
                                                                        52.0004
        41.5004
   -594350.92247   -411078.81644
                  22901445.9774                                   22901441.3134
                                                                        42.7504
        24.0004
 -17940824.71147 -13961185.25445
                  22455147.9454                                   22455143.8134
                                                                        45.5004
        31.0004
 -14360280.74648 -11117217.63346
                  22171271.8364                                   22171268.3524
                                                                        49.2504
        37.7504
  -6787761.03546  -5251011.72344
                  23481667.2034                                   23481662.9144
                                                                        41.2504
        25.0004
 -11497553.46147  -8940077.45345
                  22476771.6484                                   22476767.1644
                                                                        47.2504
        32.5004
 09 10 24  0 59  0.0000000  0  8G02G05G10G13G25G29G16G07
   1307736.94947   1063902.34445
                  22395809.4384                                   22395803.4654
                                                                        47.0004
        35.2504
 -25681482.47348 -19926822.38747
                  20512163.0864                                   20512159.0594
                                                                        51.2504
        43.5004
 -22158402.44148 -17183699.31646
                  20253079.2424                                   20253076.0594
                                                                        52.2504
        41.2504
   -589846.67647   -407569.02044
                  22902303.1254                                   22902298.6914
                                                                        43.5004
        26.2504
 -18014585.41847 -14018661.12545
                  22441112.2504                                   22441107.9344
                                                                        46.2504
        31.7504
 -14411420.79348 -11157067.00846
                  22161540.2274                                   22161536.3954
                                                                        49.2504
        38.0004
  -6864706.66047  -5310969.34844
                  23467024.7974                                   23467020.6294
                                                                        42.2504
        25.0004
 -11630120.18747  -9043376.20345
                  22451544.9144                                   22451540.1804
                                                                        46.7504
        32.7504
 09 10 24  0 59 30.0000000  0  9G02G21G05G10G13G25G29G16G07
   1315750.49247   1070146.64845
                  22397334.1564                                   22397328.4964
                                                                        47.0004
        35.2504
  10774324.00056   8442722.35953
                  24689690.3754                                   24689684.8834
                                                                        39.5004
        18.5004
 -25800166.00848 -20019303.06647
                  20489578.4144                                   20489574.2504
                                                                        51.2504
        43.7504
 -22251661.95748 -17256369.02746
                  20235332.1254                                   20235328.9224
                                                                        51.7504
        41.7504
   -584988.96547   -403783.77744
                  22903227.5394                                   22903223.5824
                                                                        43.2504
        26.2504
 -18087756.57847 -14075677.60945
                  22427187.8134                                   22427184.1374
                                                                        47.2504
        31.0004
 -14461985.80948 -11196468.30546
                  22151918.0314                                   22151914.2034
                                                                        49.5004
        38.2504
  -6941034.87547  -5370445.88744
                  23452500.1334                                   23452496.2624
                                                                        43.0004
        26.2504
 -11762094.17647  -9146213.08645
                  22426431.3834                                   22426426.3014
                                                                        46.2504
        32.7504
 09 10 24  1  0  0.0000000  0  9G02G21G05G10G13G25G29G16G07
   1324096.12947   1076649.66045
                  22398922.2974                                   22398916.5434
                                                                        46.0004
        34.5004
  10577232.05146   8289144.23043
                  24652185.1884                                   24652180.4574
                                                                        39.7504
        20.2504
 -25918308.66448 -20111362.27747
                  20467096.7344                                   20467092.3634
                                                                        52.0004
        43.7504
 -22344335.41848 -17328582.09847
                  20217697.2114                                   20217693.7274
                                                                        52.5004
        42.0004
   -579779.13347   -399724.19144
                  22904218.4844                                   22904214.6374
                                                                        42.7504
        26.0004
 -18160337.33647 -14132234.03945
                  22413376.6484                                   22413372.3094
                                                                        46.5004
        32.0004
 -14511975.41848 -11235421.24646
                  22142405.4304                                   22142401.5044
                                                                        48.0004
        38.5004
  -7016744.19947  -5429440.16044
                  23438093.6804                                   23438088.8874
                                                                        43.2504
        25.7504
 -11893472.57447  -9248585.88345
                  22401430.5394                                   22401425.9844
                                                                        47.0004
        32.7504
 09 10 24  1  0 30.0000000  0  9G02G21G05G10G13G25G29G16G07
   1332758.38747   1083399.45345
                  22400570.4614                                   22400565.2034
                                                                        46.0004
        34.7504
  10380255.96546   8135656.41843
                  24614701.9534                                   24614697.0664
                                                                        41.0004
        22.7504
 -26035922.88348 -20203009.71147
                  20444715.3914                                   20444711.0434
                                                                        51.2504
        44.0004
 -22436436.17248 -17400348.91046
                  20200171.1024                                   20200166.9064
                                                                        52.5004
        41.5004
   -574232.84447   -395402.43744
                  22905273.9614                                   22905270.0634
                                                                        42.0004
        25.2504
 -18232341.80947 -14188341.42645
                  22399674.2424                                   22399670.5554
                                                                        47.0004
        30.7504
 -14561404.87548 -11273937.71146
                  22132999.5004                                   22132995.2774
                                                                        48.7504
        38.2504
  -7091849.27347  -5487963.60544
                  23423801.4614                                   23423796.5864
                                                                        44.0004
        26.7504
 -12024267.10247  -9350503.70345
                  22376541.4844                                   22376537.0164
                                                                        47.0004
        32.2504
 09 10 24  1  1  0.0000000  0  9G02G21G05G10G13G25G29G16G07
   2917158.16447   2317996.64845
                  22702071.9454                                   22702066.3054
                                                                        45.5004
        33.5004
  11758828.32046   9209868.69943
                  24877035.1954                                   24877031.2774
                                                                        39.7504
        22.5004
 -24577580.53548 -19066639.03947
                  20722228.6954                                   20722224.6604
                                                                        52.0004
        43.5004
 -20952537.91048 -16244064.54746
                  20482547.4924                                   20482543.7304
                                                                        52.2504
        41.7504
   1007068.04346    836780.06643
                  23206185.3914                                   23206181.4774
                                                                        40.2504
        22.7504
 -16728344.93747 -13016395.80545
                  22685874.9924                                   22685870.9224
                                                                        46.0004
        31.5004
 -13034850.27748 -10084414.64546
                  22423492.7584                                   22423489.4924
                                                                        48.7504
        37.5004
  -5590924.43747  -4318411.79344
                  23709418.0314                                   23709413.1484
                                                                        44.2504
        26.5004
 -10579048.38747  -8224359.25045
                  22651557.1334                                   22651552.5514
                                                                        47.2504
        32.7504
 09 10 24  1  1 30.0000000  0  9G02G21G05G10G13G25G29G16G07
   2926460.16047   2325244.98845
                  22703841.9144                                   22703836.4924
                                                                        47.0004
        33.2504
  11562105.00446   9056577.90643
                  24839600.2734                                   24839595.8284
                                                                        39.7504
        22.7504
 -24694121.96148 -19157450.52347
                  20700051.7424                                   20700047.8794
                                                                        51.0004
        44.0004
 -21043479.92648 -16314928.38746
                  20465241.9844                                   20465238.0474
                                                                        52.5004
        41.7504
   1013290.42247    841628.69543
                  23207369.5314                                   23207365.1254
                                                                        42.0004
        23.0004
 -16799185.53547 -13071596.27045
                  22672394.8134                                   22672390.4534
                                                                        46.5004
        30.0004
 -13083149.53148 -10122050.42246
                  22414301.8984                                   22414298.1914
                                                                        49.0004
        38.0004
  -5664808.84047  -4375984.05544
                  23695358.3054                                   23695353.8444
                                                                        43.5004
        25.2504
 -10708657.12947  -8325353.07845
                  22626893.4694                                   22626888.9574
                                                                        46.5004
        32.7504
 09 10 24  1  2  0.0000000  0  9G02G21G05G10G13G25G29G16G07
   2936084.35547   2332744.40645
                  22705673.8134                                   22705667.4344
                                                                        46.7504
        33.7504
  11365516.53946   8903392.16843
                  24802189.7814                                   24802186.0904
                                                                        38.7504
        21.7504
 -24810120.43448 -19247838.93447
                  20677977.8054                                   20677973.5824
                                                                        51.2504
        44.2504
 -21133837.05148 -16385336.51247
                  20448047.4774                                   20448043.8714
                                                                        51.7504
        42.2504
   1019853.80546    846743.02044
                  23208618.3754                                   23208613.6844
                                                                        41.2504
        24.7504
 -16869439.32447 -13126339.47745
                  22659025.8594                                   22659021.6294
                                                                        47.0004
        30.2504
 -13130880.39548 -10159243.30146
                  22405218.6884                                   22405215.5744
                                                                        48.0004
        38.2504
  -5738078.32047  -4433077.14844
                  23681415.7344                                   23681410.9844
                                                                        44.0004
        25.2504
 -10837664.80947  -8425878.54745
                  22602343.9384                                   22602339.2814
                                                                        46.2504
        32.2504
 09 10 24  1  2 30.0000000  0  9G02G21G05G10G13G25G29G16G07
   2946030.84847   2340494.93845
                  22707566.4224                                   22707560.3524
                                                                        47.0004
        34.0004
  11169067.30946   8750314.96943
                  24764806.3914                                   24764802.5554
                                                                        39.7504
        21.0004
 -24925573.03548 -19337801.99647
                  20656007.8524                                   20656003.7974
                                                                        51.7504
        43.7504
 -21223607.15248 -16455287.21547
                  20430964.9224                                   20430960.6844
                                                                        51.5004
        42.0004
   1026756.36347    852121.66444
                  23209932.2034                                   23209927.7704
                                                                        42.5004
        25.7504
 -16939105.23847 -13180624.60545
                  22645768.9224                                   22645764.9884
                                                                        46.0004
        30.7504
 -13178042.18048 -10195992.75446
                  22396244.3594                                   22396240.7424
                                                                        48.5004
        38.0004
  -5810731.40647  -4489689.94944
                  23667590.6644                                   23667585.5984
                                                                        42.2504
        24.7504
 -10966067.96947  -8525932.94545
                  22577909.9304                                   22577905.3324
                                                                        46.5004
        32.7504
 09 10 24  1  3  0.0000000  0  9G02G21G05G10G13G25G29G16G07
   2956297.78547   2348495.16445
                  22709519.6804                                   22709514.1724
                                                                        46.0004
        34.2504
  10972760.19147   8597348.49243
                  24727451.7114                                   24727446.9184
                                                                        42.5004
        21.7504
 -25040478.33248 -19427338.59447
                  20634141.9304                                   20634137.9884
                                                                        52.0004
        43.5004
 -21312789.23848 -16524779.75046
                  20413993.8834                                   20413990.1954
                                                                        52.0004
        41.7504
   1033996.53947    857763.34844
                  23211310.1174                                   23211306.2384
                                                                        42.7504
        25.5004
 -17008183.02747 -13234451.44945
                  22632624.0944                                   22632620.1054
                                                                        46.0004
        31.2504
 -13224635.53548 -10232299.27046
                  22387377.8914                                   22387374.1294
                                                                        49.0004
        37.5004
  -5882767.94947  -4545822.32844
                  23653882.3914                                   23653877.5744
                                                                        44.0004
        26.2504
 -11093864.10547  -8625514.35945
                  22553591.3524                                   22553586.7194
                                                                        47.2504
        33.5004
 09 10 24  1  3 30.0000000  0  9G02G21G05G10G13G25G29G16G07
   2966884.19547   2356744.30545
                  22711534.2274                                   22711529.0904
                                                                        46.5004
        33.7504
  10776598.83247   8444495.52043
                  24690123.6564                                   24690118.2344
                                                                        43.7504
        21.5004
 -25154833.91848 -19516446.83647
                  20612380.9694                                   20612376.6214
                                                                        52.0004
        44.0004
 -21401382.54748 -16593813.49246
                  20397135.0704                                   20397131.3014
                                                                        52.7504
        41.5004
   1041573.76647    863667.65644
                  23212751.6564                                   23212747.5084
                                                                        42.2504
        24.2504
 -17076671.95747 -13287819.44545
                  22619590.7344                                   22619586.8794
                                                                        45.2504
        31.2504
 -13270660.46948 -10268162.84846
                  22378619.9844                                   22378616.0984
                                                                        49.2504
        37.0004
  -5954187.25447  -4601473.73844
                  23640291.7974                                   23640286.6454
                                                                        43.2504
        26.0004
 -11221050.16048  -8724620.39145
                  22529388.5474                                   22529383.9964
                                                                        48.0004
        33.5004
 09 10 24  1  4  0.0000000  0  9G02G21G05G10G13G25G29G16G07
   2977788.52047   2365241.15245
                  22713609.7274                                   22713604.2464
                                                                        46.5004
        34.5004
  10580585.99647   8291758.24243
                  24652823.8754                                   24652817.7034
                                                                        43.5004
        22.0004
 -25268638.78148 -19605125.94547
                  20590724.6254                                   20590720.5704
                                                                        51.2504
        44.0004
 -21489386.54348 -16662388.03147
                  20380388.6564                                   20380384.7734
                                                                        51.7504
        42.0004
   1049485.64146    869832.73043
                  23214257.2274                                   23214253.1954
                                                                        41.7504
        23.7504
 -17144572.67247 -13340729.09445
                  22606669.7194                                   22606665.2854
                                                                        46.7504
        30.5004
 -13316117.98048 -10303584.27746
                  22369969.5164                                   22369965.4414
                                                                        48.5004
        37.0004
  -6024989.38747  -4656644.21944
                  23626818.8674                                   23626813.6024
                                                                        44.5004
        27.2504
 -11347625.14547  -8823250.24645
                  22505302.2664                                   22505297.2384
                                                                        46.5004
        33.5004
 09 10 24  1  4 30.0000000  0  9G02G21G05G10G13G25G29G16G07
   2989010.38347   2373985.41845
                  22715744.6564                                   22715739.3094
                                                                        45.2504
        34.0004
  10384725.23046   8139139.39543
                  24615552.0704                                   24615546.1054
                                                                        41.7504
        21.5004
 -25381890.53148 -19693374.04347
                  20569173.4924                                   20569169.6374
                                                                        52.2504
        43.5004
 -21576799.80948 -16730502.27346
                  20363754.2194                                   20363750.4224
                                                                        51.7504
        41.2504
   1057731.63347    876258.13744
                  23215826.8594                                   23215822.3594
                                                                        42.2504
        24.2504
 -17211883.96147 -13393179.45345
                  22593860.8444                                   22593856.6094
                                                                        46.5004
        30.0004
 -13361008.32848 -10338563.77346
                  22361426.8364                                   22361423.2544
                                                                        49.2504
        37.5004
  -6095173.91047  -4711333.47744
                  23613462.9774                                   23613457.4734
                                                                        44.7504
        26.5004
 -11473584.64547  -8921400.52345
                  22481333.3134                                   22481328.0474
                                                                        47.0004
        34.0004
 09 10 24  1  5  0.0000000  0  9G02G21G05G10G13G25G29G16G07
   3000542.82847   2382971.69945
                  22717939.2734                                   22717933.7544
                                                                        47.0004
        34.0004
  10189015.52746   7986638.35943
                  24578309.2344                                   24578304.7774
                                                                        39.5004
        22.0004
 -25494592.69948 -19781193.91047
                  20547727.2814                                   20547723.0784
                                                                        51.5004
        43.7504
 -21663626.36348 -16798159.32046
                  20347231.9454                                   20347228.1024
                                                                        51.2504
        41.5004
   1066304.99247    882938.69144
                  23217458.1254                                   23217453.0204
                                                                        44.2504
        25.2504
 -17278611.05147 -13445174.59045
                  22581163.3754                                   22581159.0084
                                                                        46.5004
        31.2504
 -13405336.43048 -10373105.14846
                  22352992.0314                                   22352988.0514
                                                                        48.7504
        37.5004
  -6164745.04347  -4765544.74644
                  23600223.9844                                   23600218.3634
                                                                        44.7504
        25.5004
 -11598932.01247  -9019073.79345
                  22457479.9064                                   22457475.0784
                                                                        46.7504
        34.0004
 09 10 24  1  5 30.0000000  0  9G02G21G05G10G13G25G29G16G07
   3012387.99647   2392201.73045
                  22720193.3914                                   22720187.3554
                                                                        47.2504
        32.7504
   9993461.15746   7834258.40343
                  24541096.0474                                   24541092.3164
                                                                        39.0004
        22.7504
 -25606741.04348 -19868582.23447
                  20526385.9454                                   20526381.8324
                                                                        51.2504
        43.7504
 -21749862.97748 -16865356.67647
                  20330821.7344                                   20330817.7934
                                                                        52.2504
        42.0004
   1075205.78947    889874.41044
                  23219152.0394                                   23219146.9224
                                                                        44.5004
        25.0004
 -17344750.70747 -13496711.98445
                  22568577.4144                                   22568573.3054
                                                                        46.0004
        30.0004
 -13449101.15648 -10407207.53146
                  22344663.8054                                   22344659.9614
                                                                        49.2504
        37.0004
  -6233700.75847  -4819276.45744
                  23587102.0084                                   23587096.8284
                                                                        45.0004
        24.2504
 -11723661.47347  -9116265.57045
                  22433744.7504                                   22433740.3324
                                                                        46.7504
        33.5004
 09 10 24  1  6  0.0000000  0  9G02G21G05G10G13G25G29G16G07
   3024541.52747   2401672.04745
                  22722506.6254                                   22722500.3714
                                                                        46.5004
        33.5004
   9798064.18846   7682001.07443
                  24503913.4694                                   24503909.1374
                                                                        38.5004
        22.2504
 -25718335.90648 -19955539.27047
                  20505150.0164                                   20505146.2934
                                                                        51.5004
        44.0004
 -21835510.73848 -16932095.18746
                  20314523.1484                                   20314519.5234
                                                                        51.0004
        41.7504
   1084430.21146    897062.25843
                  23220906.9534                                   23220902.5864
                                                                        40.7504
        22.5004
 -17410305.57847 -13547793.70745
                  22556102.3364                                   22556098.5664
                                                                        45.2504
        31.2504
 -13492304.63348 -10440872.56646
                  22336442.1024                                   22336438.2304
                                                                        48.7504
        37.7504
  -6302042.42247  -4872529.69144
                  23574096.8834                                   23574091.7154
                                                                        43.7504
        25.7504
 -11847774.09047  -9212976.70345
                  22410126.7424                                   22410122.6214
                                                                        47.5004
        34.0004
 09 10 24  1  6 30.0000000  0  9G02G21G05G10G13G25G29G16G07
   3036998.58647   2411378.82845
                  22724876.6804                                   22724871.4774
                                                                        45.5004
        33.7504
   9602823.74246   7529865.74243
                  24466761.0634                                   24466756.4534
                                                                        39.5004
        22.7504
 -25829379.64848 -20042066.86347
                  20484019.1174                                   20484014.9264
                                                                        52.2504
        43.7504
 -21920572.85548 -16998377.35946
                  20298336.5004                                   20298333.0164
                                                                        52.0004
        41.0004
   1093973.96547    904498.96943
                  23222722.9224                                   23222718.5514
                                                                        43.2504
        22.5004
 -17475278.76647 -13598422.17645
                  22543738.3914                                   22543734.3054
                                                                        45.5004
        31.0004
 -13534951.48848 -10474103.88346
                  22328326.6414                                   22328322.6054
                                                                        49.0004
        37.5004
  -6369773.82847  -4925307.40644
                  23561208.5864                                   23561202.8324
                                                                        44.2504
        25.5004
 -11971270.58647  -9309207.72745
                  22386626.4064                                   22386621.5634
                                                                        47.0004
        33.7504
 09 10 24  1  7  0.0000000  0  9G02G21G05G10G13G25G29G16G07
   3049758.81647   2421321.82845
                  22727304.5084                                   22727299.1254
                                                                        44.7504
        33.0004
   9407742.82046   7377854.69544
                  24429638.4144                                   24429633.6024
                                                                        41.0004
        25.0004
 -25939869.96548 -20128163.20747
                  20462993.6334                                   20462989.4224
                                                                        51.2504
        43.7504
 -22005048.09448 -17064202.21946
                  20282261.4774                                   20282257.5594
                                                                        51.0004
        41.5004
   1103835.52047    912183.29343
                  23224599.8834                                   23224595.2424
                                                                        42.0004
        22.5004
 -17539669.84447 -13648597.04345
                  22531485.3524                                   22531481.3284
                                                                        45.5004
        30.7504
 -13577042.15648 -10506901.80946
                  22320317.4614                                   22320313.5354
                                                                        49.0004
        36.7504
  -6436894.63747  -4977609.33244
                  23548435.8054                                   23548430.1134
                                                                        45.0004
        24.5004
 -12094147.96947  -9404956.35245
                  22363243.5634                                   22363238.7034
                                                                        47.0004
        33.5004
 09 10 24  1  7 30.0000000  0  9G02G21G05G10G13G25G29G16G07
   3062819.93047   2431499.28945
                  22729790.3364                                   22729784.8094
                                                                        44.2504
        33.0004
   9212825.10247   7225970.79744
                  24392546.9534                                   24392542.1054
                                                                        42.5004
        25.2504
 -26049806.21948 -20213827.81647
                  20442073.6414                                   20442069.1524
                                                                        52.0004
        43.5004
 -22088936.66048 -17129569.93746
                  20266298.0004                                   20266294.2974
                                                                        52.0004
        41.5004
   1114012.33646    920113.25443
                  23226535.7114                                   23226532.1764
                                                                        40.7504
        23.7504
 -17603479.84447 -13698319.12145
                  22519342.4614                                   22519338.5124
                                                                        46.0004
        30.2504
 -13618577.53148 -10539267.02746
                  22312413.2344                                   22312409.7624
                                                                        48.7504
        37.2504
  -6503405.22347  -5029435.75444
                  23535779.5234                                   23535773.1054
                                                                        45.2504
        25.0004
 -12216405.21547  -9500221.73045
                  22339978.5944                                   22339974.2974
                                                                        47.0004
        34.7504
 09 10 24  1  8  0.0000000  0  9G02G21G05G10G13G25G29G16G07
   3076180.16447   2441909.85545
                  22732333.2584                                   22732327.2464
                                                                        46.5004
        33.5004
   9018072.22747   7074215.35243
                  24355486.3054                                   24355481.1334
                                                                        42.7504
        22.5004
 -26159187.42648 -20299059.93047
                  20421258.8204                                   20421254.6054
                                                                        51.2504
        43.7504
 -22172238.25048 -17194480.26646
                  20250446.4224                                   20250441.9104
                                                                        52.2504
        41.7504
   1124502.44146    928287.35543
                  23228532.6024                                   23228528.4654
                                                                        41.5004
        23.5004
 -17666708.60947 -13747588.27745
                  22507310.6334                                   22507306.7384
                                                                        45.5004
        31.0004
 -13659559.41848 -10571200.96946
                  22304614.6334                                   22304611.2304
                                                                        48.2504
        37.0004
  -6569306.37947  -5080787.30144
                  23523238.5004                                   23523232.2154
                                                                        45.2504
        26.0004
 -12338039.94947  -9595002.03545
                  22316832.1174                                   22316827.8874
                                                                        47.0004
        33.7504
 09 10 24  1  8 30.0000000  0  9G02G21G05G10G13G25G29G16G07
   3089835.83647   2452550.60245
                  22734931.2584                                   22734926.0314
                                                                        46.2504
        33.0004
   8823486.13747   6922589.79343
                  24318457.2114                                   24318452.4774
                                                                        42.0004
        22.0004
 -26268014.08648 -20383859.91447
                  20400549.8834                                   20400545.9694
                                                                        51.7504
        43.7504
 -22254954.12148 -17258934.19547
                  20234705.9304                                   20234701.9844
                                                                        51.7504
        42.5004
   1135301.70947    936702.34744
                  23230587.9224                                   23230583.6174
                                                                        43.2504
        24.0004
 -17729358.79347 -13796406.61745
                  22495388.8054                                   22495384.5124
                                                                        46.0004
        30.5004
 -13699990.01248 -10602705.32446
                  22296920.7034                                   22296917.3954
                                                                        49.5004
        37.5004
  -6634599.77747  -5131665.25444
                  23510813.2814                                   23510807.9774
                                                                        44.5004
        25.0004
 -12459052.56647  -9689297.57045
                  22293804.5394                                   22293799.9694
                                                                        46.7504
        33.5004
 09 10 24  1  9  0.0000000  0  9G02G21G05G10G13G25G29G16G07
   3103783.17247   2463418.64845
                  22737585.4144                                   22737579.9614
                                                                        46.2504
        33.0004
   8629066.85246   6771094.25843
                  24281460.3914                                   24281456.0354
                                                                        41.0004
        21.2504
 -26376287.38348 -20468228.71547
                  20379946.1484                                   20379942.0514
                                                                        50.7504
        43.7504
 -22337086.35948 -17322933.33246
                  20219076.6094                                   20219072.9694
                                                                        51.2504
        41.2504
   1146406.18847    945355.15243
                  23232700.8914                                   23232696.6414
                                                                        42.2504
        23.5004
 -17791432.93747 -13844776.07045
                  22483576.5784                                   22483571.9224
                                                                        45.2504
        30.2504
 -13739873.18748 -10633783.12946
                  22289331.5474                                   22289327.5824
                                                                        49.0004
        37.5004
  -6699288.38347  -5182071.96944
                  23498503.1024                                   23498497.9804
                                                                        45.5004
        26.5004
 -12579443.43447  -9783108.63345
                  22270895.0474                                   22270890.1724
                                                                        47.2504
        33.5004
 09 10 24  1  9 30.0000000  0  9G02G21G05G10G13G25G29G16G07
   3118019.46147   2474511.84445
                  22740295.0394                                   22740288.8794
                                                                        46.0004
        31.5004
   8434816.89146   6619730.74243
                  24244495.9304                                   24244491.3134
                                                                        39.0004
        21.7504
 -26484006.69548 -20552165.84847
                  20359447.5554                                   20359443.5784
                                                                        51.0004
        43.5004
 -22418635.37148 -17386478.02046
                  20203558.2424                                   20203554.5944
                                                                        51.0004
        41.2504
   1157812.79346    954243.41843
                  23234871.6484                                   23234867.1844
                                                                        41.7504
        23.7504
 -17852932.20747 -13892697.59045
                  22471873.1724                                   22471869.3134
                                                                        46.0004
        30.5004
 -13779210.48448 -10664435.57046
                  22281845.9694                                   22281842.3284
                                                                        49.2504
        37.7504
  -6763373.21147  -5232008.20744
                  23486309.0084                                   23486303.3094
                                                                        45.5004
        24.0004
 -12699211.53547  -9876434.43445
                  22248103.5314                                   22248098.9224
                                                                        47.5004
        33.7504
 09 10 24  1 10  0.0000000  0  9G02G21G05G10G13G25G29G16G07
   4707963.16047   3713428.98845
                  23042850.8134                                   23042845.2154
                                                                        46.0004
        32.2504
   9816165.06347   7696106.02743
                  24507358.8594                                   24507353.5864
                                                                        42.2504
        23.5004
 -25015747.21148 -19408067.55147
                  20638848.1804                                   20638844.1134
                                                                        51.5004
        43.5004
 -20924177.98448 -16221965.78946
                  20487944.0784                                   20487940.4384
                                                                        51.7504
        41.2504
   2744939.71146   2190965.69143
                  23536891.2814                                   23536886.9654
                                                                        41.7504
        22.7504
 -16338434.42247 -12712569.44545
                  22760073.1024                                   22760069.1374
                                                                        46.5004
        30.7504
 -12242581.72748  -9467062.51246
                  22574256.7194                                   22574253.1564
                                                                        48.2504
        37.5004
  -5251432.60547  -4053872.65244
                  23774021.2584                                   23774015.8014
                                                                        43.7504
        25.7504
 -11242930.31647  -8741669.85245
                  22525224.7194                                   22525220.1094
                                                                        47.7504
        33.5004
 09 10 24  1 10 30.0000000  0  9G02G21G05G10G13G25G29G16G07
   4722772.89547   3724969.02745
                  23045669.1414                                   23045663.1454
                                                                        46.5004
        33.0004
   9622261.02347   7545012.00444
                  24470459.2734                                   24470455.1604
                                                                        42.0004
        25.2504
 -25122355.63748 -19491139.04347
                  20618561.2664                                   20618556.8484
                                                                        51.0004
        43.7504
 -21004559.61748 -16284600.82446
                  20472647.9694                                   20472644.3594
                                                                        51.0004
        41.5004
   2756945.31346   2200320.72343
                  23539176.5394                                   23539171.4884
                                                                        40.2504
        22.2504
 -16398784.68747 -12759595.62545
                  22748588.6884                                   22748584.5204
                                                                        44.5004
        30.7504
 -12280831.25848  -9496867.33646
                  22566978.1644                                   22566974.3754
                                                                        49.2504
        37.0004
  -5314311.52747  -4102869.22344
                  23762055.4534                                   23762051.0354
                                                                        42.5004
        24.2504
 -11361447.00047  -8834020.51245
                  22502671.9614                                   22502666.9804
                                                                        46.5004
        33.5004
 09 10 24  1 11  0.0000000  0  9G02G21G05G10G13G25G29G16G07
   4737867.15647   3736730.75445
                  23048541.4304                                   23048535.8554
                                                                        46.5004
        32.5004
   9428535.16047   7394056.81344
                  24433595.0474                                   24433590.0234
                                                                        43.2504
        27.2504
 -25228406.10548 -19573775.78147
                  20598380.7504                                   20598376.5514
                                                                        51.0004
        44.0004
 -21084356.51648 -16346780.21546
                  20457463.1484                                   20457459.2974
                                                                        51.5004
        41.2504
   2769248.11346   2209907.32443
                  23541517.0704                                   23541512.0904
                                                                        39.7504
        21.5004
 -16458560.70747 -12806174.34845
                  22737213.2194                                   22737209.4414
                                                                        45.2504
        30.5004
 -12318537.51248  -9526248.82446
                  22559802.3204                                   22559798.8054
                                                                        49.2504
        36.7504
  -5376587.09847  -4151395.64843
                  23750205.0234                                   23750200.2154
                                                                        43.2504
        22.5004
 -11479334.49247  -8925880.89145
                  22480238.2584                                   22480233.7034
                                                                        47.0004
        33.0004
 09 10 24  1 11 30.0000000  0  9G02G21G05G10G13G25G29G16G07
   4753245.97747   3748714.23045
                  23051468.4454                                   23051462.0474
                                                                        47.0004
        32.7504
   9234992.22347   7243244.16844
                  24396764.4224                                   24396760.6564
                                                                        42.2504
        26.5004
 -25333895.88348 -19655975.59847
                  20578306.5944                                   20578302.3054
                                                                        50.7504
        44.2504
 -21163567.09848 -16408502.74246
                  20442389.8834                                   20442386.2154
                                                                        51.7504
        41.2504
   2781847.42646   2219724.96943
                  23543914.5164                                   23543910.2194
                                                                        38.2504
        21.0004
 -16517761.19547 -12852304.59445
                  22725947.9614                                   22725943.8284
                                                                        45.0004
        30.0004
 -12355700.42648  -9555206.94146
                  22552730.5164                                   22552727.0594
                                                                        48.5004
        37.0004
  -5438258.24647  -4199451.09444
                  23738469.7664                                   23738464.4804
                                                                        42.7504
        25.5004
 -11596589.69547  -9017248.58245
                  22457925.5004                                   22457921.0664
                                                                        46.2504
        33.2504
 09 10 24  1 12  0.0000000  0  9G02G21G05G10G13G25G29G16G07
   4768899.80147   3760911.97745
                  23054446.5864                                   23054440.9964
                                                                        45.5004
        32.7504
   9041626.75447   7092569.78943
                  24359968.1644                                   24359963.3244
                                                                        42.5004
        22.2504
 -25438832.07448 -19737744.05147
                  20558338.0314                                   20558334.0474
                                                                        51.0004
        44.0004
 -21242198.80548 -16469774.21146
                  20427426.9304                                   20427423.1884
                                                                        51.0004
        41.5004
   2794733.67246   2229766.18443
                  23546367.6804                                   23546362.8754
                                                                        40.2504
        22.5004
 -16576394.59447 -12897992.96545
                  22714790.3914                                   22714786.5514
                                                                        45.0004
        30.2504
 -12392328.94147  -9583748.64846
                  22545760.5704                                   22545757.2424
                                                                        47.0004
        37.2504
  -5499333.44147  -4247042.14143
                  23726846.9534                                   23726842.9964
                                                                        42.0004
        23.7504
 -11713218.60247  -9108128.25845
                  22435731.9144                                   22435726.8054
                                                                        47.5004
        32.5004
 09 10 24  1 12 30.0000000  0  9G02G21G05G10G13G25G29G16G07
   4784826.96147   3773322.71545
                  23057477.8984                                   23057471.9414
                                                                        47.0004
        32.7504
   8848441.23846   6942035.64843
                  24323206.2194                                   24323200.9064
                                                                        41.2504
        22.2504
 -25543213.59848 -19819080.30547
                  20538474.6564                                   20538470.6414
                                                                        51.5004
        44.0004
 -21320251.44948 -16530594.45746
                  20412574.1644                                   20412570.2704
                                                                        51.5004
        41.0004
   2807904.44946   2240029.12143
                  23548874.0084                                   23548869.2854
                                                                        41.2504
        23.5004
 -16634461.46947 -12943239.87945
                  22703740.6804                                   22703736.5904
                                                                        45.7504
        30.2504
 -12428424.69948  -9611875.20746
                  22538891.8754                                   22538888.2774
                                                                        48.5004
        37.0004
  -5559813.82447  -4294169.70344
                  23715337.8284                                   23715333.7464
                                                                        43.5004
        25.2504
 -11829220.09047  -9198519.03145
                  22413657.5784                                   22413653.0434
                                                                        47.7504
        33.7504
 09 10 24  1 13  0.0000000  0  9G02G21G05G10G13G25G29G16G07
   4801026.71147   3785945.86745
                  23060560.1484                                   23060554.8754
                                                                        45.5004
        31.7504
   8655440.19546   6791645.27143
                  24286479.8594                                   24286474.2504
                                                                        40.5004
        22.0004
 -25647038.10248 -19899982.51647
                  20518717.5944                                   20518713.2584
                                                                        50.5004
        44.0004
 -21397723.76248 -16590962.48846
                  20397831.4924                                   20397827.8324
                                                                        51.0004
        41.2504
   2821359.05946   2250513.19543
                  23551433.8444                                   23551430.1884
                                                                        41.0004
        23.2504
 -16691961.19947 -12988044.87145
                  22692799.1884                                   22692794.5204
                                                                        45.2504
        30.5004
 -12463987.51648  -9639586.49646
                  22532124.7034                                   22532120.6524
                                                                        48.7504
        37.5004
  -5619697.98047  -4340832.68744
                  23703942.4224                                   23703938.4574
                                                                        43.2504
        25.0004
 -11944591.04347  -9288418.47745
                  22391703.3524                                   22391698.5434
                                                                        47.7504
        33.2504
 09 10 24  1 13 30.0000000  0  9G02G21G05G10G13G25G29G16G07
   4817496.66047   3798779.55145
                  23063694.7344                                   23063689.2854
                                                                        45.0004
        32.5004
   8462625.10547   6641399.74643
                  24249787.7504                                   24249782.0514
                                                                        42.0004
        22.5004
 -25750305.46548 -19980450.59047
                  20499066.4454                                   20499062.2504
                                                                        51.2504
        44.0004
 -21474616.35248 -16650878.80946
                  20383199.0474                                   20383195.5434
                                                                        51.0004
        41.5004
   2835095.16446   2261216.61743
                  23554047.3984                                   23554043.3754
                                                                        40.2504
        22.5004
 -16748894.86347 -13032408.75045
                  22681965.3914                                   22681960.7624
                                                                        45.5004
        30.0004
 -12499019.39148  -9666884.04746
                  22525458.2114                                   22525454.1254
                                                                        48.5004
        36.7504
  -5678987.63747  -4387032.43044
                  23692659.9384                                   23692655.9804
                                                                        42.2504
        25.7504
 -12059330.21547  -9377825.59845
                  22369868.7664                                   22369864.4734
                                                                        47.0004
        33.7504
 09 10 24  1 14  0.0000000  0  9G02G21G05G10G13G25G29G16G07
   4834232.26647   3811820.25445
                  23066879.3204                                   23066873.6644
                                                                        44.0004
        31.5004
   8269996.53947   6491299.54744
                  24213132.9844                                   24213127.0904
                                                                        43.5004
        25.0004
 -25853017.66848 -20060486.07847
                  20479520.8594                                   20479516.9534
                                                                        52.0004
        43.7504
 -21550932.19148 -16710345.69946
                  20368676.8984                                   20368672.8914
                                                                        50.5004
        41.5004
   2849107.60946   2272135.39543
                  23556714.5634                                   23556710.2304
                                                                        41.0004
        22.5004
 -16805266.13347 -13076334.41045
                  22671237.7114                                   22671233.6054
                                                                        46.0004
        30.0004
 -12533524.98448  -9693771.52346
                  22518891.5554                                   22518888.3554
                                                                        48.2504
        36.5004
  -5737686.64847  -4432771.92644
                  23681490.3444                                   23681485.9804
                                                                        42.5004
        24.5004
 -12173439.14147  -9466741.63345
                  22348154.4844                                   22348150.0004
                                                                        47.0004
        34.0004
 09 10 24  1 14 30.0000000  0 10G02G21G05G10G13G15G25G29G16G07
   4851232.12947   3825066.86345
                  23070114.1724                                   23070108.5124
                                                                        44.5004
        31.5004
   8077558.01647   6341347.44144
                  24176512.0784                                   24176507.1804
                                                                        44.5004
        26.5004
 -25955173.02748 -20140087.65647
                  20460081.4304                                   20460077.5634
                                                                        51.5004
        44.0004
 -21626670.71548 -16769362.70746
                  20354264.2194                                   20354260.5084
                                                                        50.5004
        41.5004
   2863394.66047   2283268.13743
                  23559433.1564                                   23559428.8674
                                                                        42.5004
        22.0004
  13911794.57057  10860848.97354
                  24381476.0784                                   24381472.6914
                                                                        43.5004
        29.0004
 -16861075.37947 -13119822.13745
                  22660617.5314                                   22660613.3554
                                                                        44.7504
        30.2504
 -12567504.34448  -9720248.94946
                  22512426.0164                                   22512422.1414
                                                                        48.0004
        36.0004
  -5795794.60947  -4478050.84844
                  23670432.1334                                   23670428.5314
                                                                        42.5004
        24.7504
 -12286916.24647  -9555165.34045
                  22326561.0164                                   22326555.9884
                                                                        47.0004
        33.5004
 09 10 24  1 15  0.0000000  0 10G02G21G05G10G13G15G25G29G16G07
   4868494.23047   3838517.82044
                  23073398.9534                                   23073393.3014
                                                                        43.7504
        29.5004
   7885311.44947   6191544.94544
                  24139929.3754                                   24139923.9774
                                                                        43.0004
        25.7504
 -26056771.16848 -20219255.03947
                  20440748.2034                                   20440744.1174
                                                                        50.5004
        43.7504
 -21701831.80948 -16827929.78946
                  20339961.6884                                   20339957.8054
                                                                        50.2504
        41.0004
   2877954.31647   2294613.27743
                  23562203.5704                                   23562199.3914
                                                                        42.0004
        20.7504
  13704378.28947  10699225.99644
                  24342005.3284                                   24342002.5274
                                                                        42.2504
        27.2504
 -16916323.21147 -13162872.39844
                  22650104.4534                                   22650100.0944
                                                                        44.7504
        29.5004
 -12600959.66048  -9746318.02046
                  22506059.3984                                   22506055.2664
                                                                        48.0004
        36.2504
  -5853312.61347  -4522870.07844
                  23659488.0314                                   23659483.0204
                                                                        42.7504
        26.0004
 -12399759.64847  -9643095.24645
                  22305087.7894                                   22305082.6644
                                                                        47.0004
        33.2504
 09 10 24  1 15 30.0000000  0 10G02G21G05G10G13G15G25G29G16G07
   4886005.62147   3852162.99245
                  23076731.5084                                   23076725.8204
                                                                        43.7504
        30.0004
   7693249.78547   6041886.54344
                  24103380.2114                                   24103376.1254
                                                                        42.0004
        26.0004
 -26157821.78948 -20297995.78947
                  20421518.4614                                   20421514.7384
                                                                        51.7504
        43.7504
 -21776425.98048 -16886055.11746
                  20325766.8914                                   20325762.9534
                                                                        51.5004
        41.2504
   2892773.63346   2306160.77343
                  23565023.7734                                   23565018.8954
                                                                        41.5004
        21.0004
  13497086.98447  10537700.45744
                  24302559.0784                                   24302556.6414
                                                                        42.2504
        26.7504
 -16971021.07447 -13205494.11344
                  22639695.5314                                   22639691.2934
                                                                        45.7504
        29.5004
 -12633902.93448  -9771988.10246
                  22499790.4454                                   22499786.7934
                                                                        48.5004
        36.5004
  -5910251.75847  -4567238.23443
                  23648652.0164                                   23648647.6804
                                                                        43.5004
        22.7504
 -12511978.79747  -9730538.73045
                  22283732.8914                                   22283728.3524
                                                                        47.5004
        33.5004
 09 10 24  1 16  0.0000000  0 10G02G21G05G10G13G15G25G29G16G07
   4903767.64847   3866003.50045
                  23080111.6724                                   23080105.8134
                                                                        45.0004
        31.7504
   7501376.70746   5892375.08644
                  24066867.9694                                   24066863.8554
                                                                        40.7504
        25.0004
 -26258321.67248 -20376307.39147
                  20402394.3524                                   20402389.8984
                                                                        51.7504
        43.7504
 -21850451.32848 -16943737.19147
                  20311680.0554                                   20311676.2504
                                                                        51.7504
        42.0004
   2907853.07846   2317911.01243
                  23567893.0554                                   23567888.5864
                                                                        41.2504
        20.2504
  13289926.43047  10376276.71944
                  24263138.6334                                   24263134.6914
                                                                        45.5004
        28.0004
 -17025167.43047 -13247686.07845
                  22629392.0394                                   22629387.7424
                                                                        46.5004
        30.0004
 -12666333.24248  -9797258.47746
                  22493619.5554                                   22493615.4694
                                                                        48.0004
        36.5004
  -5966611.09847  -4611154.60944
                  23637927.1884                                   23637922.1024
                                                                        43.0004
        24.0004
 -12623570.06248  -9817492.96545
                  22262497.5234                                   22262493.2234
                                                                        48.0004
        33.5004
 09 10 24  1 16 30.0000000  0 10G02G21G05G10G13G15G25G29G16G07
   4921779.12547   3880038.40245
                  23083539.0234                                   23083533.2344
                                                                        44.5004
        31.0004
   7309697.03146   5743014.34044
                  24030392.2894                                   24030388.7074
                                                                        39.7504
        25.7504
 -26358269.12548 -20454188.52747
                  20383374.8364                                   20383370.8204
                                                                        51.0004
        43.7504
 -21923907.05948 -17000975.41446
                  20297701.8914                                   20297698.1954
                                                                        51.0004
        41.5004
   2923191.28946   2329862.87543
                  23570811.6334                                   23570807.3054
                                                                        39.7504
        20.5004
  13082900.08247  10214957.49644
                  24223742.8984                                   24223738.2424
                                                                        45.2504
        26.2504
 -17078761.89847 -13289447.98845
                  22619193.0004                                   22619188.9104
                                                                        46.0004
        30.0004
 -12698251.00048  -9822129.45746
                  22487545.1334                                   22487542.3754
                                                                        48.0004
        36.5004
  -6022390.16047  -4654618.81244
                  23627313.0394                                   23627308.2234
                                                                        43.2504
        24.2504
 -12734530.85247  -9903955.91445
                  22241382.9454                                   22241378.0084
                                                                        47.2504
        33.5004
 09 10 24  1 17  0.0000000  0 10G02G21G05G10G13G15G25G29G16G07
   4940043.66047   3894270.46945
                  23087015.0704                                   23087009.2074
                                                                        45.0004
        31.5004
   7118218.07446   5593810.00044
                  23993956.1724                                   23993950.9304
                                                                        41.2504
        24.2504
 -26457658.13748 -20531634.50447
                  20364461.8284                                   20364457.5744
                                                                        50.0004
        43.7504
 -21996787.71948 -17057765.54746
                  20283833.3134                                   20283829.6844
                                                                        50.7504
        41.2504
   2938791.40646   2342018.77743
                  23573780.2114                                   23573776.1094
                                                                        38.7504
        21.7504
  12876015.94147  10053749.03544
                  24184373.7734                                   24184369.0314
                                                                        43.5004
        26.5004
 -17131800.27347 -13330776.59445
                  22609100.1254                                   22609096.4534
                                                                        45.0004
        30.0004
 -12729652.78948  -9846598.39546
                  22481570.1724                                   22481566.5634
                                                                        48.0004
        36.7504
  -6077584.72747  -4697627.57044
                  23616809.2274                                   23616805.2504
                                                                        43.2504
        24.5004
 -12844855.08248  -9989922.84845
                  22220389.0234                                   22220383.7304
                                                                        48.5004
        33.5004
