     2.11           OBSERVATION DATA    G (GPS)             RINEX VERSION / TYPE
teqc  2019Feb25                         20221121 12:28:03UTCPGM / RUN BY / DATE
OSX ker:10.11.6|Core i5|gcc 4.3 -m64|OSX ker:10.10+|=+      COMMENT
BIT 2 OF LLI FLAGS DATA COLLECTED UNDER A/S CONDITION       COMMENT
04712781                                                    MARKER NAME
2781                                                        MARKER NUMBER
-Unknown-           -Unknown-                               OBSERVER / AGENCY
0220400471          TRIMBLE R7          2.30                REC # / TYPE / VERS
-Unknown-           TRM39105.00     NONE                    ANT # / TYPE
  1449460.5171 -1709240.4623  5952443.1820                  APPROX POSITION XYZ
        0.0000        0.0000        0.0000                  ANTENNA: DELTA H/E/N
     1     1                                                WAVELENGTH FACT L1/2
    20    L1    L2    L5    L6    L7    L8    C1    P1    C2# / TYPES OF OBSERV
          P2    C5    C6    C7    C8    S1    S2    S5    S6# / TYPES OF OBSERV
          S7    S8                                          # / TYPES OF OBSERV
    30.0000                                                 INTERVAL
    15                                                      LEAP SECONDS
Forced Modulo Decimation to 30 seconds                      COMMENT
 SNR is mapped to RINEX snr flag value [0-9]                COMMENT
  L1 & L2: min(max(int(snr_dBHz/6), 0), 9)                  COMMENT
teqc edited: Beidou # 1 - 37 excluded                       COMMENT
  2009    10     5    23     9   30.0000000     GPS         TIME OF FIRST OBS
                                                            END OF HEADER
 09 10  5 23  9 30.0000000  0  9G02G04G12G13G17G20G23G30G31
   -227798.96558   -120430.35256
                  21822086.1094                                   21822080.3754
                                                                        52.0004
        39.5004
   -129235.72758    -66090.26257
                  20461809.8524                                   20461806.0984
                                                                        51.5004
        43.0004
    -48507.47757    -25340.81255
                  22770604.6804                                   22770600.4844
                                                                        46.7504
        35.7504
   -257435.43757   -130159.46954
                  23306857.0864                                   23306852.3674
                                                                        45.2504
        27.5004
     34516.77357     16322.43455
                  23498252.4144                                   23498248.6844
                                                                        44.7504
        32.2504
     10442.11357      4172.37954
                  22733341.6724                                   22733337.1414
                                                                        45.7504
        28.2504
   -166363.03557    -85059.68755
                  21964050.8204                                   21964044.1524
                                                                        47.0004
        35.5004
   -129320.03557    -66952.61755
                  22448719.1884                                   22448715.5864
                                                                        46.0004
        31.2504
   -127390.80957    -66212.15254
                  23576953.7194                                   23576949.4574
                                                                        43.5004
        28.5004
 09 10  5 23 10  0.0000000  0  9G02G04G12G13G17G20G23G30G31
   -399773.42248   -254436.40646
                  21789360.7034                                   21789354.3164
                                                                        52.0004
        39.5004
   -227866.08248   -142945.10547
                  20443040.9614                                   20443037.2584
                                                                        51.0004
        42.2504
    -87957.78147    -56081.34045
                  22763098.0864                                   22763093.5434
                                                                        47.5004
        35.2504
   -451299.05547   -281221.93744
                  23269965.8204                                   23269961.2504
                                                                        45.2504
        27.0004
     55722.16847     32846.09045
                  23502287.8054                                   23502283.5354
                                                                        43.7504
        32.2504
     13977.80147      6927.40244
                  22734014.9614                                   22734009.8524
                                                                        45.2504
        27.7504
   -292767.00847   -183556.29345
                  21939996.7664                                   21939989.9384
                                                                        47.2504
        35.5004
   -228380.25447   -144142.40245
                  22429868.8834                                   22429864.9884
                                                                        47.0004
        31.0004
   -226877.07047   -143733.90244
                  23558022.0474                                   23558017.8134
                                                                        44.0004
        28.5004
 09 10  5 23 10 30.0000000  0  9G02G04G12G13G17G20G23G30G31
   -572661.81248   -389154.62146
                  21756460.7034                                   21756454.4804
                                                                        51.5004
        39.0004
   -327192.74248   -220342.49647
                  20424140.1724                                   20424135.8834
                                                                        52.0004
        42.2504
   -128126.25447    -87381.46145
                  22755453.6884                                   22755449.6134
                                                                        47.7504
        35.2504
   -646121.49647   -433031.55944
                  23232892.0704                                   23232887.6454
                                                                        46.0004
        26.5004
     75869.25047     48545.05145
                  23506121.9304                                   23506117.3634
                                                                        45.5004
        32.2504
     16575.73047      8951.70344
                  22734509.1644                                   22734504.4654
                                                                        45.5004
        27.5004
   -419839.94547   -282574.16045
                  21915815.9224                                   21915809.0594
                                                                        47.0004
        35.2504
   -328024.18447   -221787.00445
                  22410907.0864                                   22410903.6994
                                                                        46.2504
        31.5004
   -327030.35547   -221775.43044
                  23538964.1484                                   23538959.8714
                                                                        45.2504
        29.2504
 09 10  5 23 11  0.0000000  0  9G02G04G12G13G17G20G23G30G31
   -746044.18048   -524257.75446
                  21723467.2734                                   21723461.0044
                                                                        51.7504
        39.2504
   -426797.60248   -297956.68047
                  20405185.6884                                   20405181.9844
                                                                        51.5004
        42.0004
   -168596.78547   -118916.93445
                  22747752.5864                                   22747748.5234
                                                                        47.2504
        34.2504
   -841481.62947   -585260.20744
                  23195716.1414                                   23195712.1914
                                                                        45.7504
        28.0004
     95373.77047     63743.26245
                  23509832.9924                                   23509829.3444
                                                                        43.7504
        31.7504
     18651.46947     10569.13744
                  22734903.6254                                   22734899.5664
                                                                        45.0004
        27.2504
   -547162.22747   -381786.30945
                  21891587.1644                                   21891580.5084
                                                                        47.7504
        35.2504
   -427833.47747   -299560.46945
                  22391914.0164                                   22391910.7194
                                                                        45.7504
        31.5004
   -427431.52747   -300010.09444
                  23519858.0084                                   23519853.7424
                                                                        45.0004
        28.7504
 09 10  5 23 11 30.0000000  0  9G02G04G12G13G17G20G23G30G31
   -919718.85948   -659588.64146
                  21690418.2734                                   21690412.0944
                                                                        51.7504
        39.5004
   -526480.78948   -375631.90647
                  20386216.7274                                   20386212.6804
                                                                        52.0004
        42.2504
   -209171.84847   -150533.89845
                  22740031.4534                                   22740027.1374
                                                                        47.2504
        34.7504
  -1037176.60947   -737749.75444
                  23158477.2114                                   23158472.7304
                                                                        46.5004
        28.7504
    114433.32847     78594.78145
                  23513460.9614                                   23513456.6254
                                                                        45.7504
        32.0004
     20402.10947     11933.27044
                  22735236.8914                                   22735232.7384
                                                                        45.2504
        27.2504
   -674533.19548   -481036.43445
                  21867349.2034                                   21867342.2344
                                                                        48.5004
        35.5004
   -527608.17247   -377307.03145
                  22372926.5864                                   22372923.8404
                                                                        45.5004
        32.5004
   -527880.80547   -378282.24244
                  23500743.5784                                   23500738.8954
                                                                        44.0004
        29.5004
 09 10  5 23 12  0.0000000  0  9G02G04G12G13G17G20G23G30G31
  -1093554.60248   -795044.98446
                  21657337.8444                                   21657332.2234
                                                                        51.0004
        39.2504
   -626112.92648   -453267.37547
                  20367257.2114                                   20367253.2194
                                                                        52.0004
        42.5004
   -249723.83647   -182132.83645
                  22732314.5944                                   22732310.4804
                                                                        47.2504
        35.0004
  -1233074.04347   -890396.98444
                  23121198.4384                                   23121194.3554
                                                                        46.5004
        29.0004
    133174.78947     93198.52045
                  23517027.1644                                   23517022.9144
                                                                        44.7504
        30.7504
     21954.34447     13142.74644
                  22735532.6484                                   22735527.7194
                                                                        44.5004
        28.0004
   -801822.06248   -580222.58645
                  21843126.8054                                   21843119.8834
                                                                        48.0004
        35.5004
   -627218.76647   -454925.67645
                  22353972.1804                                   22353969.3164
                                                                        44.7504
        31.7504
   -628248.52747   -456490.83644
                  23481643.5944                                   23481639.4414
                                                                        44.5004
        29.0004
 09 10  5 23 12 30.0000000  0  9G02G04G12G13G17G20G23G30G31
  -1267465.80148   -930560.21146
                  21624243.7584                                   21624237.9884
                                                                        52.5004
        39.0004
   -725610.14148   -530797.66046
                  20348323.4774                                   20348319.5664
                                                                        50.5004
        41.7504
   -290170.92247   -213650.00045
                  22724617.8834                                   22724613.4924
                                                                        47.2504
        34.2504
  -1429087.44547  -1043134.64144
                  23083898.7344                                   23083894.4654
                                                                        46.0004
        28.7504
    151679.33247    107617.72344
                  23520548.5314                                   23520543.4734
                                                                        43.7504
        29.7504
     23389.75847     14261.23444
                  22735805.8754                                   22735801.1604
                                                                        45.5004
        27.0004
   -928944.11348   -679278.71545
                  21818936.3594                                   21818929.6254
                                                                        48.0004
        35.5004
   -726581.10247   -532350.85245
                  22335064.3524                                   22335060.6414
                                                                        45.2504
        30.7504
   -728450.98047   -534570.67244
                  23462575.8444                                   23462571.6054
                                                                        44.0004
        28.7504
 09 10  5 23 13  0.0000000  0  9G02G04G12G13G17G20G23G30G31
    134038.24248    161520.88346
                  21890941.5634                                   21890935.0784
                                                                        51.7504
        39.5004
    750513.82848    619428.84047
                  20629220.9304                                   20629216.7854
                                                                        52.2504
        42.7504
   1244968.54747    982562.55145
                  23016745.2584                                   23016740.4734
                                                                        46.7504
        35.5004
    -49724.27047     31693.89844
                  23346382.3984                                   23346378.3874
                                                                        46.2504
        28.5004
   1745426.88747   1349498.91444
                  23823827.3444                                   23823824.0204
                                                                        42.0004
        28.5004
   1600188.56647   1242935.56644
                  23035860.8134                                   23035855.8284
                                                                        45.2504
        28.2504
    519589.23048    449448.57045
                  22094583.2734                                   22094576.8554
                                                                        48.2504
        35.0004
    749790.83647    618068.88345
                  22616008.1954                                   22616004.9224
                                                                        45.0004
        31.5004
    746998.37147    615130.10544
                  23743344.7034                                   23743340.5084
                                                                        44.0004
        28.7504
 09 10  5 23 13 30.0000000  0  9G02G04G12G13G17G20G23G30G31
    -39842.40248     26029.43046
                  21857852.9774                                   21857846.6914
                                                                        52.0004
        40.0004
    651462.49648    542245.96947
                  20610371.5554                                   20610368.1134
                                                                        52.2504
        42.0004
   1204900.12547    951340.41445
                  23009120.4224                                   23009115.6724
                                                                        47.0004
        35.0004
   -245784.80147   -121080.48444
                  23309073.2034                                   23309069.2704
                                                                        46.0004
        27.5004
   1763626.07447   1363680.07845
                  23827291.7504                                   23827287.1684
                                                                        42.5004
        31.0004
   1601558.49647   1244003.03544
                  23036121.1804                                   23036116.4804
                                                                        45.5004
        27.0004
    392980.30948    350792.27745
                  22070490.5634                                   22070483.4384
                                                                        48.5004
        35.5004
    651100.53147    541167.36745
                  22597228.5474                                   22597224.6914
                                                                        44.7504
        31.0004
    647302.83247    537445.27344
                  23724373.3834                                   23724368.9654
                                                                        44.0004
        29.5004
 09 10  5 23 14  0.0000000  0  9G02G04G12G13G17G20G23G30G31
   -213637.28948   -109395.21546
                  21824780.7344                                   21824774.7234
                                                                        52.0004
        40.0004
    552701.65248    465289.48447
                  20591578.4304                                   20591574.4884
                                                                        52.2504
        42.2504
   1165085.77747    920316.24645
                  23001544.0944                                   23001539.7974
                                                                        46.5004
        34.5004
   -441796.84047   -273817.12944
                  23271773.9064                                   23271769.0824
                                                                        46.2504
        27.0004
   1781736.25047   1377791.87945
                  23830738.2034                                   23830733.8484
                                                                        44.0004
        31.7504
   1602959.17647   1245094.43844
                  23036387.9454                                   23036383.0634
                                                                        45.0004
        26.5004
    266697.19548    252389.85245
                  22046459.4534                                   22046452.5004
                                                                        48.7504
        35.5004
    552813.68847    464580.20745
                  22578524.8204                                   22578521.3554
                                                                        44.7504
        31.0004
    547928.72747    460010.88744
                  23705462.9534                                   23705458.2894
                                                                        43.7504
        29.5004
 09 10  5 23 14 30.0000000  0  9G02G04G12G13G17G20G23G30G31
   -387312.10548   -244726.27746
                  21791731.7274                                   21791725.6294
                                                                        52.0004
        40.0004
    454263.85548    388584.71547
                  20572846.1334                                   20572842.2034
                                                                        49.5004
        42.2504
   1125555.73847    889513.64845
                  22994021.4924                                   22994017.4144
                                                                        46.5004
        35.2504
   -637724.91447   -426488.31644
                  23234489.8674                                   23234485.0904
                                                                        47.2504
        28.7504
   1799787.39847   1391857.74245
                  23834172.6954                                   23834168.8164
                                                                        44.0004
        30.2504
   1604420.81347   1246233.36744
                  23036665.7814                                   23036661.1414
                                                                        45.0004
        27.0004
    140773.55147    154267.51645
                  22022496.7424                                   22022490.1684
                                                                        47.0004
        35.2504
    454962.95347    388332.84045
                  22559904.3284                                   22559901.7504
                                                                        44.5004
        31.2504
    448909.02747    382852.69944
                  23686620.2274                                   23686615.5434
                                                                        44.5004
        29.5004
 09 10  5 23 15  0.0000000  0  9G02G04G12G13G17G20G23G30G31
   -560835.16448   -379939.02746
                  21758711.2114                                   21758705.1294
                                                                        51.7504
        39.7504
    356178.65648    312154.69547
                  20554181.1414                                   20554177.2344
                                                                        52.2504
        42.5004
   1086337.69947    858954.13745
                  22986558.8284                                   22986553.9654
                                                                        46.2504
        34.5004
   -833536.38747   -579068.63344
                  23197228.1174                                   23197223.5434
                                                                        46.5004
        29.0004
   1817806.96947   1405898.97344
                  23837601.8914                                   23837597.7274
                                                                        43.2504
        29.5004
   1605970.62547   1247441.00444
                  23036960.7114                                   23036956.6884
                                                                        44.5004
        26.7504
     15240.14548     56449.27045
                  21998608.5554                                   21998602.1414
                                                                        49.0004
        35.7504
    357578.28547    312448.69145
                  22541372.2424                                   22541369.4144
                                                                        45.0004
        31.5004
    350273.14147    305993.60544
                  23667850.3054                                   23667845.5824
                                                                        44.5004
        28.5004
 09 10  5 23 15 30.0000000  0  9G02G04G12G13G17G20G23G30G31
   -734177.57048   -515010.95746
                  21725725.4844                                   21725719.0164
                                                                        52.0004
        39.5004
    258472.67248    236020.15247
                  20535588.3054                                   20535584.3484
                                                                        51.0004
        42.7504
   1047456.14547    828656.83645
                  22979159.7424                                   22979155.3984
                                                                        46.5004
        34.5004
  -1029201.68447   -731535.05144
                  23159994.0944                                   23159989.7664
                                                                        46.2504
        28.0004
   1835818.98847   1419934.27344
                  23841029.7194                                   23841025.1604
                                                                        43.5004
        29.2504
   1607632.74647   1248736.16044
                  23037277.4144                                   23037272.4654
                                                                        44.7504
        27.5004
   -109875.08248    -41043.11346
                  21974799.9844                                   21974793.3754
                                                                        48.2504
        36.0004
    260686.28547    236948.42245
                  22522934.4614                                   22522931.7304
                                                                        43.5004
        31.0004
    252047.66447    229454.27344
                  23649158.9384                                   23649154.1914
                                                                        42.0004
        27.7504
 09 10  5 23 16  0.0000000  0  9G02G04G12G13G17G20G23G30G31
   -907313.28548   -649921.89546
                  21692778.6484                                   21692772.5634
                                                                        52.0004
        39.7504
    161170.88748    160200.58646
                  20517072.3984                                   20517068.5354
                                                                        50.5004
        41.7504
   1008933.55147    798639.18845
                  22971828.8754                                   22971824.6294
                                                                        46.5004
        34.2504
  -1224693.13347   -883866.01644
                  23122793.0554                                   23122789.0984
                                                                        46.0004
        29.0004
   1853845.71147   1433980.99644
                  23844459.6414                                   23844455.6994
                                                                        44.0004
        27.0004
   1609429.36747   1250136.14844
                  23037618.9694                                   23037614.4144
                                                                        44.5004
        26.0004
   -234546.65648   -138189.80145
                  21951076.2114                                   21951069.1454
                                                                        49.0004
        35.7504
    164311.22347    161851.03945
                  22504595.3364                                   22504591.7544
                                                                        43.7504
        30.7504
    154257.51647    153254.14144
                  23630549.0944                                   23630544.6914
                                                                        43.2504
        28.2504
 09 10  5 23 16 30.0000000  0  9G02G04G12G13G17G20G23G30G31
  -1080224.09848   -784657.59846
                  21659874.6804                                   21659868.9064
                                                                        52.0004
        39.2504
     64289.25448     84708.41847
                  20498636.3834                                   20498632.3714
                                                                        50.0004
        42.0004
    970783.52047    768911.89145
                  22964569.2894                                   22964565.3714
                                                                        46.0004
        34.5004
  -1419991.85947  -1036046.78944
                  23085628.5944                                   23085624.3714
                                                                        46.5004
        28.0004
   1871900.65247   1448049.75044
                  23847894.8834                                   23847890.5234
                                                                        44.0004
        27.2504
   1611373.88747   1251651.34844
                  23037989.1414                                   23037984.3284
                                                                        44.7504
        26.5004
   -358757.44148   -234977.42645
                  21927439.2344                                   21927432.5474
                                                                        48.0004
        35.5004
     68469.21947     87169.02045
                  22486356.7974                                   22486353.8284
                                                                        43.7504
        31.2504
     56918.81647     77405.81344
                  23612026.9774                                   23612021.9884
                                                                        43.0004
        29.0004
 09 10  5 23 17  0.0000000  0  9G02G04G12G13G17G20G23G30G31
  -1252888.44948   -919201.25446
                  21627017.9144                                   21627011.9064
                                                                        51.5004
        39.2504
    -32153.00048      9558.59847
                  20480283.9774                                   20480279.9774
                                                                        52.0004
        43.2504
    933024.27047    739489.05145
                  22957383.6414                                   22957380.0274
                                                                        47.2504
        35.0004
  -1615074.80947  -1188059.47744
                  23048506.0704                                   23048501.3594
                                                                        46.0004
        28.0004
   1890001.27347   1462154.08244
                  23851339.8984                                   23851335.2734
                                                                        45.5004
        29.0004
   1613483.89847   1253295.49644
                  23038390.6174                                   23038386.1134
                                                                        44.5004
        27.5004
   -482486.66848   -331389.80545
                  21903894.8674                                   21903887.8634
                                                                        49.2504
        35.7504
    -26820.06647     12917.68045
                  22468224.0314                                   22468220.8054
                                                                        44.5004
        31.5004
    -39948.62147      1924.70744
                  23593593.5004                                   23593589.0354
                                                                        43.2504
        28.2504
 09 10  5 23 17 30.0000000  0  9G02G04G12G13G17G20G23G30G31
  -1425289.62548  -1053539.78146
                  21594211.0084                                   21594205.4804
                                                                        52.0004
        39.5004
   -128140.91448    -65237.21147
                  20462018.3914                                   20462014.2194
                                                                        52.5004
        42.2504
    895668.23847    710380.48445
                  22950275.3284                                   22950271.4924
                                                                        47.0004
        35.0004
  -1809924.59447  -1339890.48044
                  23011427.4694                                   23011422.7974
                                                                        46.0004
        28.5004
   1908159.75847   1476303.46945
                  23854795.8284                                   23854791.4534
                                                                        45.7504
        31.5004
   1615771.32447   1255077.87544
                  23038826.1414                                   23038821.2734
                                                                        44.7504
        25.5004
   -605718.55948   -427414.61745
                  21880444.2034                                   21880437.5354
                                                                        48.7504
        35.2504
   -121542.24247    -60891.78145
                  22450198.6804                                   22450195.7274
                                                                        46.2504
        31.0004
   -136330.00047    -73177.62944
                  23575252.9924                                   23575247.9774
                                                                        44.0004
        28.5004
 09 10  5 23 18  0.0000000  0  9G02G04G12G13G17G20G23G30G31
  -1597414.35248  -1187662.94146
                  21561456.6174                                   21561451.0594
                                                                        52.7504
        40.0004
   -223663.17248   -139670.10546
                  20443840.7424                                   20443836.8874
                                                                        51.7504
        41.7504
    858724.24247    681592.93845
                  22943245.3444                                   22943241.0124
                                                                        46.2504
        34.7504
  -2004527.02747  -1491528.71545
                  22974395.6414                                   22974391.1844
                                                                        45.7504
        30.0004
   1926385.00447   1490504.92645
                  23858263.9454                                   23858260.2344
                                                                        45.2504
        31.2504
   1618245.25047   1257005.54744
                  23039296.7734                                   23039292.1564
                                                                        44.2504
        26.5004
   -728441.01648   -523042.50845
                  21857091.0944                                   21857083.9574
                                                                        49.2504
        35.5004
   -215686.10547   -134250.60245
                  22432283.4384                                   22432280.4844
                                                                        44.7504
        30.5004
   -232214.18447   -147892.58244
                  23557006.9064                                   23557002.0204
                                                                        42.5004
        28.5004
 09 10  5 23 18 30.0000000  0  9G02G04G12G13G17G20G23G30G31
  -1769243.66448  -1321555.96146
                  21528758.5784                                   21528752.6884
                                                                        52.5004
        40.0004
   -318702.62548   -213726.80146
                  20425755.4694                                   20425751.5554
                                                                        50.2504
        41.7504
    822207.62147    653138.53545
                  22936296.0864                                   22936291.8054
                                                                        47.5004
        35.2504
  -2198861.69547  -1642958.29744
                  22937414.9384                                   22937410.6604
                                                                        46.2504
        29.0004
   1944691.74647   1504769.88345
                  23861747.3754                                   23861743.5784
                                                                        44.2504
        30.5004
   1620920.05947   1259089.74644
                  23039805.6484                                   23039801.0824
                                                                        44.0004
        25.7504
   -850635.75048   -618259.18045
                  21833838.0084                                   21833831.2114
                                                                        49.2504
        35.5004
   -309234.56647   -207145.52745
                  22414481.7424                                   22414478.9104
                                                                        43.5004
        31.7504
   -327584.10547   -222206.82044
                  23538858.6024                                   23538853.7274
                                                                        42.0004
        29.2504
 09 10  5 23 19  0.0000000  0  9G02G04G12G13G17G20G23G30G31
  -1940763.63748  -1455207.85946
                  21496119.5314                                   21496113.4264
                                                                        52.5004
        40.5004
   -413247.86348   -287398.43746
                  20407763.9224                                   20407760.1884
                                                                        50.5004
        41.2504
    786127.81347    625024.46945
                  22929430.3674                                   22929426.2624
                                                                        47.0004
        34.5004
  -2392913.93447  -1794167.81644
                  22900487.9774                                   22900483.1764
                                                                        46.5004
        28.5004
   1963089.18447   1519105.48044
                  23865247.9924                                   23865244.2424
                                                                        43.7504
        28.2504
   1623805.52347   1261338.10944
                  23040354.7274                                   23040350.6604
                                                                        44.0004
        27.2504
   -972289.74248   -713054.47745
                  21810687.9384                                   21810681.3134
                                                                        49.0004
        35.2504
   -402175.86347   -279567.33245
                  22396796.1564                                   22396792.5704
                                                                        43.7504
        31.5004
   -422427.68747   -296110.91444
                  23520810.0634                                   23520805.3524
                                                                        43.2504
        28.0004
 09 10  5 23 19 30.0000000  0  9G02G04G12G13G17G20G23G30G31
  -2111962.27748  -1588609.38346
                  21463541.4304                                   21463535.5004
                                                                        52.2504
        40.5004
   -507288.16848   -360676.57447
                  20389868.6644                                   20389864.8244
                                                                        51.5004
        42.0004
    750493.14847    597257.29345
                  22922649.1884                                   22922644.8244
                                                                        46.5004
        34.2504
  -2586670.24647  -1945146.74245
                  22863617.6254                                   22863613.2624
                                                                        46.5004
        30.5004
   1981585.60247   1533518.21944
                  23868767.7814                                   23868763.9264
                                                                        43.7504
        25.7504
   1626909.46947   1263756.72344
                  23040945.7194                                   23040941.3324
                                                                        43.7504
        27.0004
  -1093392.08648   -807419.91045
                  21787642.9844                                   21787635.9614
                                                                        48.5004
        35.7504
   -494499.54747   -351507.87145
                  22379227.8284                                   22379224.0904
                                                                        46.2504
        32.0004
   -516734.48447   -369596.71144
                  23502864.1484                                   23502859.8834
                                                                        43.7504
        29.2504
 09 10  5 23 20  0.0000000  0  9G02G04G12G13G17G20G23G30G31
  -2282826.33248  -1721750.19946
                  21431027.1094                                   21431021.3714
                                                                        52.2504
        40.2504
   -600812.56248   -433552.73047
                  20372071.5004                                   20372067.7974
                                                                        51.0004
        42.2504
    715312.68447    569843.94545
                  22915954.5704                                   22915950.1914
                                                                        46.2504
        33.0004
  -2780116.29747  -2095883.91444
                  22826805.9844                                   22826801.4024
                                                                        46.0004
        29.5004
   2000190.01647   1548015.13744
                  23872308.6024                                   23872304.1844
                                                                        45.0004
        28.7504
   1630241.10947   1266352.77344
                  23041579.3524                                   23041574.8364
                                                                        44.0004
        26.7504
  -1213930.26648   -901345.75846
                  21764705.2344                                   21764698.4694
                                                                        48.7504
        36.0004
   -586194.88747   -422958.82445
                  22361778.3914                                   22361775.1564
                                                                        43.5004
        31.7504
   -610493.53546   -442655.72344
                  23485022.3754                                   23485017.6174
                                                                        41.5004
        28.5004
 09 10  5 23 20 30.0000000  0  9G02G04G12G13G17G20G23G30G31
  -2453346.00048  -1854622.62946
                  21398578.3914                                   21398572.7734
                                                                        52.2504
        40.2504
   -693813.77748   -506021.19947
                  20354374.0314                                   20354370.5164
                                                                        51.0004
        42.7504
    680591.45747    542788.48445
                  22909346.9304                                   22909342.5704
                                                                        45.2504
        34.0004
  -2973242.00447  -2246371.45344
                  22790055.3054                                   22790050.5744
                                                                        45.7504
        29.0004
   2018907.14547   1562599.89544
                  23875871.0004                                   23875866.0314
                                                                        45.7504
        29.5004
   1633805.10247   1269129.89844
                  23042258.1174                                   23042253.7194
                                                                        44.5004
        25.7504
  -1333896.23848   -994825.71545
                  21741876.5004                                   21741869.9104
                                                                        48.5004
        35.5004
   -677255.09447   -493914.91445
                  22344450.4844                                   22344447.0044
                                                                        45.0004
        31.5004
   -703697.64547   -515282.34444
                  23467286.2344                                   23467282.1644
                                                                        43.7504
        29.0004
 09 10  5 23 21  0.0000000  0  9G02G04G12G13G17G20G23G30G31
  -1048091.92248   -759619.40646
                  21665989.2734                                   21665983.3874
                                                                        52.2504
        40.5004
    789133.20748    649521.91847
                  20636569.4774                                   20636565.6094
                                                                        51.5004
        42.0004
   2221750.53147   1743691.71145
                  23202620.1804                                   23202616.0314
                                                                        45.0004
        34.5004
  -1590615.78947  -1169000.38344
                  23053160.0554                                   23053155.9184
                                                                        45.7504
        29.0004
   3613155.90647   2804871.64144
                  24179246.4844                                   24179241.4654
                                                                        44.5004
        28.5004
   3213021.04747   2499687.74644
                  23342772.9144                                   23342768.4384
                                                                        43.7504
        25.7504
    122137.19548    139745.82045
                  22018950.3134                                   22018943.4574
                                                                        48.2504
        35.5004
    807744.96947    663227.96545
                  22627036.7664                                   22627033.0434
                                                                        46.5004
        31.2504
    779078.61347    640127.73044
                  23749449.1414                                   23749444.8094
                                                                        43.5004
        29.7504
 09 10  5 23 21 30.0000000  0  9G02G04G12G13G17G20G23G30G31
  -1217904.55948   -891940.94946
                  21633674.7814                                   21633669.1374
                                                                        52.7504
        40.0004
    697190.89148    577878.59846
                  20619073.2814                                   20619069.5634
                                                                        52.2504
        41.7504
   2187953.89147   1717356.61345
                  23196188.8364                                   23196184.4534
                                                                        46.7504
        34.7504
  -1783078.53147  -1318971.34445
                  23016535.7894                                   23016531.4494
                                                                        46.0004
        30.5004
   3632104.31346   2819636.63344
                  24182850.3524                                   24182847.3834
                                                                        41.5004
        27.5004
   3217055.25847   2502831.26644
                  23343540.2584                                   23343535.6954
                                                                        43.0004
        26.5004
      3331.36348     47169.84445
                  21996342.1954                                   21996335.6134
                                                                        49.0004
        35.7504
    717967.57447    593271.59845
                  22609952.4534                                   22609948.7194
                                                                        47.0004
        31.7504
    686997.52047    568376.20744
                  23731926.8524                                   23731922.3164
                                                                        44.0004
        29.0004
 09 10  5 23 22  0.0000000  0  9G02G04G12G13G17G20G23G30G31
  -1387349.14548  -1023975.68746
                  21601430.8754                                   21601424.7664
                                                                        52.7504
        40.2504
    605789.28148    506656.52346
                  20601680.2664                                   20601676.4804
                                                                        52.0004
        41.7504
   2154628.06647   1691388.46945
                  23189847.3444                                   23189842.8874
                                                                        46.7504
        34.2504
  -1975193.76647  -1468671.51645
                  22979977.6804                                   22979973.0394
                                                                        47.2504
        30.5004
   3651176.43846   2834497.91844
                  24186480.1954                                   24186477.0394
                                                                        41.2504
        27.5004
   3221332.52347   2506164.17244
                  23344354.7664                                   23344349.8014
                                                                        42.7504
        25.5004
   -114881.07848    -44943.73845
                  21973846.6724                                   21973840.2894
                                                                        49.0004
        35.7504
    628842.44547    523823.41045
                  22592992.5634                                   22592989.2704
                                                                        46.7504
        31.7504
    595489.35947    497071.14544
                  23714513.3444                                   23714509.0234
                                                                        43.5004
        29.2504
 09 10  5 23 22 30.0000000  0  9G02G04G12G13G17G20G23G30G31
  -1556419.05948  -1155718.45346
                  21569257.5634                                   21569251.9494
                                                                        52.7504
        40.0004
    514933.51648    435859.83246
                  20584391.1954                                   20584387.1334
                                                                        51.0004
        41.7504
   2121775.80547   1665789.35245
                  23183595.7424                                   23183591.7544
                                                                        46.5004
        34.5004
  -2166953.27347  -1618094.50045
                  22943486.7194                                   22943482.5984
                                                                        47.0004
        31.0004
   3670375.09847   2849457.94944
                  24190134.1174                                   24190130.2814
                                                                        43.0004
        29.7504
   3225855.71147   2509688.73044
                  23345214.9064                                   23345210.5474
                                                                        42.2504
        26.0004
   -232494.85247   -136590.86346
                  21951466.3134                                   21951459.2424
                                                                        47.7504
        36.5004
    540374.83247    454887.59045
                  22576157.9454                                   22576154.2544
                                                                        47.2504
        31.5004
    504558.60247    426216.00844
                  23697209.7894                                   23697205.4224
                                                                        43.5004
        29.7504
 09 10  5 23 23  0.0000000  0  9G02G04G12G13G17G20G23G30G31
  -1725108.05548  -1287164.40246
                  21537157.3594                                   21537151.2664
                                                                        53.0004
        40.2504
    424627.27348    365491.38347
                  20567205.8444                                   20567202.4024
                                                                        51.0004
        42.7504
   2089398.63747   1640560.39845
                  23177434.2584                                   23177430.0744
                                                                        45.2504
        34.7504
  -2358350.51247  -1767235.18744
                  22907064.9304                                   22907060.2814
                                                                        46.2504
        29.0004
   3689701.41047   2864517.38744
                  24193811.9304                                   24193807.5514
                                                                        43.7504
        28.0004
   3230626.43446   2513406.11344
                  23346122.9614                                   23346119.0434
                                                                        41.2504
        25.5004
   -349505.02048   -227767.60945
                  21929199.5784                                   21929193.1374
                                                                        49.0004
        34.7504
    452567.86347    386466.51645
                  22559448.5864                                   22559444.9384
                                                                        47.5004
        32.0004
    414209.60247    355814.14844
                  23680017.0634                                   23680012.6214
                                                                        43.5004
        29.2504
 09 10  5 23 23 30.0000000  0  9G02G04G12G13G17G20G23G30G31
  -1893410.36348  -1418309.01646
                  21505130.2664                                   21505124.3984
                                                                        53.0004
        40.2504
    334874.02748    295553.80947
                  20550126.7734                                   20550123.0084
                                                                        52.0004
        42.2504
   2057497.94147   1615702.70345
                  23171364.0314                                   23171359.8634
                                                                        45.5004
        34.0004
  -2549378.58247  -1916088.24644
                  22870713.8524                                   22870709.1334
                                                                        46.0004
        29.2504
   3709157.14847   2879677.66444
                  24197513.8914                                   24197510.1414
                                                                        43.5004
        28.2504
   3235646.09047   2517317.52044
                  23347078.0474                                   23347074.1374
                                                                        42.7504
        25.5004
   -465906.86748   -318470.32445
                  21907049.5164                                   21907042.7664
                                                                        50.0004
        35.5004
    365425.24647    318563.18845
                  22542866.0164                                   22542862.6724
                                                                        47.2504
        32.5004
    324445.80947    285868.35245
                  23662935.6174                                   23662931.2814
                                                                        44.5004
        30.7504
 09 10  5 23 24  0.0000000  0  9G02G04G12G13G17G20G23G30G31
  -2061320.71148  -1549148.25846
                  21473178.1094                                   21473171.8284
                                                                        53.0004
        40.5004
    245677.07048    226049.66847
                  20533153.0554                                   20533149.5824
                                                                        50.7504
        42.0004
   2026075.45747   1591217.65245
                  23165384.3284                                   23165379.8594
                                                                        44.7504
        33.5004
  -2740030.82847  -2064648.39845
                  22834434.0634                                   22834429.4964
                                                                        47.2504
        30.0004
   3728743.21947   2894939.50444
                  24201241.8674                                   24201237.1684
                                                                        44.7504
        28.5004
   3240915.20747   2521423.34444
                  23348081.1724                                   23348076.6644
                                                                        42.7504
        25.2504
   -581696.26648   -408695.83246
                  21885015.3364                                   21885008.4454
                                                                        49.5004
        36.0004
    278949.86747    251179.80145
                  22526410.1804                                   22526406.7734
                                                                        44.2504
        30.7504
    235270.31647    216380.95344
                  23645965.8204                                   23645961.2774
                                                                        44.0004
        29.0004
 09 10  5 23 24 30.0000000  0  9G02G04G12G13G17G20G23G30G31
  -2228832.07048  -1679676.62146
                  21441301.7424                                   21441295.9344
                                                                        52.5004
        40.5004
    157041.32048    156982.81647
                  20516286.3984                                   20516282.7424
                                                                        50.7504
        42.2504
   1995133.38747   1567106.93445
                  23159496.3754                                   23159492.4224
                                                                        46.2504
        33.5004
  -2930299.78948  -2212909.93045
                  22798226.9924                                   22798222.2074
                                                                        48.0004
        30.2504
   3748462.64547   2910305.36744
                  24204992.6884                                   24204989.4774
                                                                        42.5004
        28.5004
   3246437.34447   2525726.31344
                  23349131.9924                                   23349127.3714
                                                                        42.7504
        24.2504
   -696867.48448   -498439.63345
                  21863098.8204                                   21863092.0634
                                                                        49.0004
        35.7504
    193146.35247    184319.94945
                  22510082.7034                                   22510078.9804
                                                                        44.5004
        32.0004
    146687.79747    147355.62944
                  23629109.2504                                   23629105.1724
                                                                        43.2504
        28.5004
 09 10  5 23 25  0.0000000  0  9G02G04G12G13G17G20G23G30G31
  -2395938.21948  -1809889.19146
                  21409502.6254                                   21409496.4384
                                                                        53.0004
        40.5004
     68970.76648     88356.43447
                  20499527.3054                                   20499523.0084
                                                                        52.0004
        42.2504
   1964673.69547   1543372.11345
                  23153699.7584                                   23153695.7344
                                                                        46.0004
        33.0004
  -3120177.80147  -2360866.86345
                  22762094.2584                                   22762089.7194
                                                                        47.5004
        30.0004
   3768316.95747   2925776.21544
                  24208771.8524                                   24208768.0274
                                                                        42.7504
        27.7504
   3252213.85247   2530227.48443
                  23350230.9384                                   23350226.3404
                                                                        42.0004
        22.7504
   -811415.42248   -587697.77045
                  21841301.1724                                   21841294.1914
                                                                        50.5004
        35.7504
    108018.25447    117986.34845
                  22493882.7274                                   22493879.1764
                                                                        46.0004
        31.2504
     58702.32047     78795.49644
                  23612366.0234                                   23612361.5664
                                                                        42.2504
        29.0004
 09 10  5 23 25 30.0000000  0  9G02G04G12G13G17G20G23G30G31
  -2562634.53548  -1939782.41046
                  21377781.3284                                   21377775.2664
                                                                        52.7504
        40.7504
    -18532.02348     20172.42647
                  20482875.6414                                   20482872.1374
                                                                        51.5004
        42.2504
   1934696.80947   1520013.46145
                  23147995.7194                                   23147990.9344
                                                                        44.5004
        33.5004
  -3309659.03947  -2508514.56644
                  22726037.0004                                   22726032.6054
                                                                        47.2504
        29.7504
   3788306.78147   2941352.67644
                  24212575.5004                                   24212571.7544
                                                                        44.0004
        26.5004
   3258245.50847   2534927.48043
                  23351378.7344                                   23351373.9024
                                                                        42.0004
        23.5004
   -925336.75448   -676467.60945
                  21819622.8524                                   21819616.0084
                                                                        50.0004
        35.7504
     23568.14547     52181.16445
                  22477812.5944                                   22477808.9964
                                                                        45.7504
        30.7504
    -28683.37547     10702.80544
                  23595736.8204                                   23595732.5314
                                                                        42.0004
        29.5004
 09 10  5 23 26  0.0000000  0  9G02G04G12G13G17G20G23G30G31
  -2728912.58648  -2069349.72346
                  21346139.8134                                   21346133.6214
                                                                        53.0004
        40.2504
   -105460.89548    -47564.32447
                  20466333.9614                                   20466330.0514
                                                                        52.0004
        42.2504
   1905207.18047   1497034.46945
                  23142384.0084                                   23142379.8714
                                                                        46.0004
        34.2504
  -3498733.94947  -2655845.66445
                  22690057.2114                                   22690053.3874
                                                                        47.5004
        30.5004
   3808436.03947   2957037.80944
                  24216406.7814                                   24216402.0044
                                                                        44.0004
        27.7504
   3264536.05546   2539829.18844
                  23352575.6094                                   23352571.2814
                                                                        41.0004
        24.5004
  -1038624.28948   -764743.59846
                  21798064.8284                                   21798057.9924
                                                                        50.5004
        36.0004
    -60198.27047    -13091.33245
                  22461872.0394                                   22461868.6294
                                                                        46.0004
        31.0004
   -115463.27347    -56917.87545
                  23579223.7504                                   23579218.8324
                                                                        44.2504
        30.2504
 09 10  5 23 26 30.0000000  0  8G02G04G12G13G20G23G30G31
  -2894770.09848  -2198589.32046
                  21314578.1644                                   21314572.1174
                                                                        53.2504
        40.5004
   -191815.68048   -114853.79747
                  20449901.0784                                   20449896.6454
                                                                        51.5004
        42.0004
   1876202.77747   1474433.59845
                  23136864.7344                                   23136860.5784
                                                                        45.5004
        33.5004
  -3687399.73847  -2802857.93745
                  22654155.5084                                   22654151.0474
                                                                        47.0004
        30.2504
   3271083.58646   2544931.12544
                  23353821.9224                                   23353817.1684
                                                                        40.5004
        26.0004
  -1151276.80548   -852524.77045
                  21776627.5554                                   21776620.9344
                                                                        49.0004
        35.7504
   -143281.32447    -77831.46945
                  22446061.8754                                   22446058.7384
                                                                        46.5004
        31.2504
   -201637.14147   -124066.29344
                  23562825.4224                                   23562820.5474
                                                                        44.2504
        28.7504
 09 10  5 23 27  0.0000000  0  8G02G04G12G13G20G23G30G31
  -3060211.49248  -2327504.67646
                  21283095.5084                                   21283089.6484
                                                                        53.0004
        40.5004
   -277603.60948   -181701.62547
                  20433576.2664                                   20433572.1254
                                                                        52.5004
        42.0004
   1847674.73847   1452203.91845
                  23131436.0554                                   23131431.7074
                                                                        46.5004
        33.5004
  -3875659.76647  -2949554.05145
                  22618330.5704                                   22618326.0744
                                                                        46.5004
        30.2504
   3277879.31346   2550226.43444
                  23355115.1094                                   23355110.6954
                                                                        40.5004
        24.0004
  -1263300.07848   -939815.62145
                  21755310.5784                                   21755303.9734
                                                                        49.5004
        35.2504
   -225688.09447   -142044.57045
                  22430380.7274                                   22430377.2274
                                                                        46.0004
        31.0004
   -287212.21547   -190748.19544
                  23546540.9694                                   23546536.3714
                                                                        42.5004
        29.2504
 09 10  5 23 27 30.0000000  0  8G02G04G12G13G20G23G30G31
  -3225220.98448  -2456083.49246
                  21251695.0784                                   21251688.5704
                                                                        52.7504
        41.0004
   -362810.27348   -248096.38747
                  20417361.9064                                   20417357.8204
                                                                        52.0004
        42.2504
   1819634.57047   1430354.46945
                  23126099.9694                                   23126095.6884
                                                                        45.5004
        33.5004
  -4063496.81247  -3095920.56645
                  22582586.4694                                   22582582.4414
                                                                        47.0004
        30.0004
   3284935.18846   2555724.53144
                  23356457.5004                                   23356453.4734
                                                                        41.2504
        26.0004
  -1374679.60948  -1026604.84846
                  21734115.7114                                   21734109.1954
                                                                        49.5004
        36.0004
   -307405.05547   -205720.19945
                  22414830.5314                                   22414826.7544
                                                                        47.5004
        30.7504
   -372174.85947   -256952.89844
                  23530372.7194                                   23530367.6914
                                                                        43.5004
        29.2504
 09 10  5 23 28  0.0000000  0  8G02G04G12G13G20G23G30G31
  -3389783.98048  -2584314.36346
                  21220379.7734                                   21220373.7704
                                                                        52.7504
        41.0004
   -447423.72348   -314028.89547
                  20401260.4534                                   20401256.6024
                                                                        50.5004
        42.0004
   1792092.13747   1408892.83245
                  23120858.9224                                   23120854.6954
                                                                        46.2504
        32.7504
  -4250895.57047  -3241945.54744
                  22546926.1484                                   22546921.0744
                                                                        47.2504
        29.5004
   3292260.98046   2561432.94944
                  23357852.1884                                   23357847.5864
                                                                        41.5004
        25.2504
  -1485402.57848  -1112882.47346
                  21713045.2814                                   21713038.9844
                                                                        48.7504
        36.0004
   -388420.04347   -268848.76245
                  22399414.0004                                   22399410.3204
                                                                        44.5004
        31.0004
   -456512.81647   -322670.82044
                  23514323.5164                                   23514318.9924
                                                                        43.7504
        27.7504
 09 10  5 23 28 30.0000000  0  8G02G04G12G13G20G23G30G31
  -3553896.28548  -2712194.04746
                  21189150.2894                                   21189144.2624
                                                                        53.0004
        41.5004
   -531442.12148   -379497.86747
                  20385272.2584                                   20385268.4384
                                                                        52.0004
        42.0004
   1765047.80147   1387819.32845
                  23115712.6644                                   23115708.6844
                                                                        47.0004
        33.0004
  -4437850.78548  -3387624.92645
                  22511349.6954                                   22511344.7384
                                                                        48.0004
        31.0004
   3299856.83246   2567351.80144
                  23359297.6254                                   23359292.8634
                                                                        40.5004
        24.0004
  -1595465.89548  -1198646.08245
                  21692101.2584                                   21692094.5394
                                                                        50.2504
        35.7504
   -468731.44547   -331428.98845
                  22384131.1254                                   22384127.4024
                                                                        46.7504
        30.2504
   -540223.79747   -387900.13744
                  23498394.1724                                   23498389.6024
                                                                        43.0004
        28.0004
 09 10  5 23 29  0.0000000  0  8G02G04G12G13G20G23G30G31
  -3717567.98448  -2839730.41446
                  21158004.6804                                   21157998.7814
                                                                        53.0004
        41.2504
   -614877.37948   -444512.30547
                  20369395.1804                                   20369391.0944
                                                                        53.0004
        42.2504
   1738487.32047   1367122.82045
                  23110658.3674                                   23110653.8204
                                                                        45.7504
        33.5004
  -4624371.29347  -3532965.56245
                  22475855.8444                                   22475850.8484
                                                                        46.7504
        30.5004
   3307708.53546   2573469.99243
                  23360791.0004                                   23360786.6254
                                                                        39.5004
        22.7504
  -1704880.66448  -1283904.34046
                  21671280.4304                                   21671273.5904
                                                                        50.5004
        36.0004
   -548351.91847   -393470.82845
                  22368979.4384                                   22368976.0634
                                                                        47.0004
        30.5004
   -623319.97347   -452650.37944
                  23482581.8364                                   23482576.9184
                                                                        44.5004
        28.5004
 09 10  5 23 29 30.0000000  0  8G02G04G12G13G20G23G30G31
  -2305366.45348  -1739313.57846
                  21426737.9844                                   21426731.5474
                                                                        52.0004
        40.2504
    877697.93448    718533.43046
                  20653422.9224                                   20653418.7384
                                                                        51.7504
        41.7504
   3287834.14147   2574406.06645
                  23405489.3754                                   23405484.6174
                                                                        47.0004
        33.0004
  -3235023.09847  -2450356.58245
                  22740239.6644                                   22740234.9804
                                                                        46.5004
        30.5004
   4891238.81346   3807389.74243
                  23662126.9384                                   23662122.1564
                                                                        39.7504
        22.0004
   -238217.82048   -141050.17245
                  21950377.1024                                   21950370.3794
                                                                        50.0004
        35.7504
    948145.07047    772630.73045
                  22653753.5394                                   22653750.0704
                                                                        46.0004
        30.2504
    869625.77347    710684.01244
                  23766679.7034                                   23766675.0474
                                                                        44.2504
        28.2504
 09 10  5 23 30  0.0000000  0  8G02G04G12G13G20G23G30G31
  -2468149.17648  -1866157.20746
                  21395760.9144                                   21395755.3014
                                                                        52.0004
        40.7504
    795429.11348    654427.84847
                  20637767.3984                                   20637763.7894
                                                                        52.2504
        42.2504
   3262235.58647   2554459.14145
                  23400617.7974                                   23400613.7194
                                                                        45.5004
        32.5004
  -3420664.39847  -2595012.14845
                  22704913.0944                                   22704908.6174
                                                                        46.2504
        31.0004
   4899597.04746   3813902.69943
                  23663717.2274                                   23663712.6884
                                                                        41.5004
        22.7504
   -346332.43748   -225295.34446
                  21929803.3054                                   21929797.1414
                                                                        50.0004
        36.5004
    869905.35547    711664.68445
                  22638865.1254                                   22638861.7734
                                                                        46.7504
        30.5004
    787758.33247    646891.15644
                  23751101.0004                                   23751096.0784
                                                                        45.0004
        28.7504
 09 10  5 23 30 30.0000000  0  8G02G04G12G13G20G23G30G31
  -2630489.93448  -1992656.46146
                  21364868.6954                                   21364862.5354
                                                                        51.7504
        41.0004
    713737.53148    590772.03547
                  20622222.0864                                   20622218.5594
                                                                        53.0004
        42.5004
   3237108.89547   2534879.88345
                  23395836.4534                                   23395832.2854
                                                                        45.5004
        33.0004
  -3605866.68447  -2739325.58645
                  22669670.8284                                   22669666.1684
                                                                        46.7504
        30.7504
   4908199.60947   3820605.99644
                  23665354.5634                                   23665350.2544
                                                                        42.2504
        24.7504
   -453801.68448   -309037.58646
                  21909352.7734                                   21909346.1054
                                                                        51.0004
        36.0004
    792349.82847    651231.78545
                  22624106.7424                                   22624103.4264
                                                                        47.7504
        31.5004
    706499.45747    583572.56644
                  23735637.9304                                   23735633.2934
                                                                        45.0004
        28.5004
 09 10  5 23 31  0.0000000  0  8G02G04G12G13G20G23G30G31
  -2792384.89548  -2118808.36346
                  21334061.1024                                   21334054.6764
                                                                        52.0004
        40.5004
    632624.98448    527567.53146
                  20606787.0314                                   20606782.9104
                                                                        53.2504
        41.5004
   3212453.72747   2515667.99645
                  23391144.7584                                   23391140.6724
                                                                        46.0004
        33.7504
  -3790625.23847  -2883293.28945
                  22634512.4064                                   22634507.5004
                                                                        47.5004
        31.2504
   4917046.26247   3827499.48444
                  23667038.3524                                   23667033.8714
                                                                        43.0004
        25.5004
   -560623.09848   -392275.02045
                  21889025.4224                                   21889018.7774
                                                                        50.5004
        35.7504
    715479.42647    591332.72745
                  22609478.5164                                   22609475.3634
                                                                        47.5004
        30.7504
    625850.41447    520729.14144
                  23720290.9224                                   23720285.8244
                                                                        44.2504
        27.7504
 09 10  5 23 31 30.0000000  0  8G02G04G12G13G20G23G30G31
  -2953832.77048  -2244611.87946
                  21303338.1954                                   21303332.5124
                                                                        52.0004
        40.7504
    552090.39848    464813.31646
                  20591461.7734                                   20591457.8244
                                                                        53.2504
        41.7504
   3188267.20747   2496821.32045
                  23386542.3284                                   23386538.2074
                                                                        46.0004
        33.0004
  -3974937.67247  -3026913.37145
                  22599438.8444                                   22599434.1764
                                                                        47.7504
        32.2504
   4926133.98447   3834580.80144
                  23668767.1094                                   23668763.0634
                                                                        42.2504
        26.0004
   -666796.79748   -475007.78546
                  21868820.8914                                   21868814.2274
                                                                        50.7504
        36.2504
    639293.15647    531966.84445
                  22594981.5864                                   22594978.2734
                                                                        46.7504
        31.2504
    545810.40647    458360.31644
                  23705059.7114                                   23705055.1134
                                                                        44.5004
        29.0004
 09 10  5 23 32  0.0000000  0  8G02G04G12G13G20G23G30G31
  -3114832.23448  -2370065.97746
                  21272701.6484                                   21272695.3834
                                                                        51.7504
        41.0004
    472132.39548    402508.28947
                  20576246.3444                                   20576242.3984
                                                                        53.0004
        42.0004
   3164546.40247   2478337.54345
                  23382028.4774                                   23382024.5234
                                                                        46.2504
        32.5004
  -4158801.62947  -3170183.97745
                  22564450.1484                                   22564446.3244
                                                                        46.5004
        30.5004
   4935460.49646   3841848.23444
                  23670541.7194                                   23670538.0864
                                                                        40.7504
        24.0004
   -772322.79348   -557235.84846
                  21848740.4224                                   21848733.4454
                                                                        50.0004
        36.0004
    563789.16047    473132.55945
                  22580612.7814                                   22580609.8554
                                                                        46.5004
        30.5004
    466378.07047    396464.95744
                  23689944.4614                                   23689939.4184
                                                                        45.2504
        28.2504
 09 10  5 23 32 30.0000000  0  8G02G04G12G13G20G23G30G31
  -3275379.10548  -2495167.43446
                  21242150.3364                                   21242144.3914
                                                                        52.0004
        41.2504
    392753.18848    340654.32447
                  20561140.8984                                   20561137.4494
                                                                        52.5004
        42.2504
   3141290.30547   2460215.91045
                  23377602.8594                                   23377598.3244
                                                                        46.0004
        32.2504
  -4342212.45347  -3313101.49245
                  22529548.5004                                   22529544.0084
                                                                        47.0004
        31.2504
   4945025.27046   3849301.27343
                  23672362.6414                                   23672357.7814
                                                                        38.7504
        22.2504
   -877198.72748   -638957.35945
                  21828782.8674                                   21828776.2854
                                                                        50.0004
        35.5004
    488968.53147    414830.75045
                  22566375.4224                                   22566372.1254
                                                                        47.0004
        30.2504
    387554.99647    335044.34844
                  23674944.6334                                   23674940.3714
                                                                        45.0004
        27.7504
 09 10  5 23 33  0.0000000  0  8G02G04G12G13G20G23G30G31
  -3435471.89548  -2619915.05146
                  21211685.5164                                   21211679.5124
                                                                        51.5004
        41.2504
    313952.05148    279250.82847
                  20546145.3834                                   20546142.0004
                                                                        52.5004
        42.2504
   3118496.77347   2442454.71145
                  23373265.0704                                   23373261.1564
                                                                        46.2504
        31.2504
  -4525167.17647  -3455663.59045
                  22494733.7734                                   22494728.5944
                                                                        47.5004
        31.7504
   4954825.60246   3856937.94143
                  23674226.7664                                   23674222.3524
                                                                        39.5004
        20.7504
   -981424.52348   -720172.26245
                  21808949.7424                                   21808942.9304
                                                                        50.0004
        35.5004
    414830.69547    357061.03945
                  22552267.4534                                   22552264.1484
                                                                        45.5004
        31.5004
    309340.41447    274097.90244
                  23660061.0704                                   23660057.0004
                                                                        44.7504
        28.5004
 09 10  5 23 33 30.0000000  0  8G02G04G12G13G20G23G30G31
  -3595105.27048  -2744304.69546
                  21181308.3284                                   21181302.2894
                                                                        51.2504
        41.2504
    235731.86348    218300.05547
                  20531260.9144                                   20531256.6684
                                                                        53.0004
        42.0004
   3096166.48447   2425054.48845
                  23369016.5084                                   23369011.8484
                                                                        47.0004
        32.7504
  -4707659.75847  -3597865.59445
                  22460006.0164                                   22460001.2734
                                                                        47.2504
        31.0004
   4964862.87946   3864759.19143
                  23676136.8284                                   23676132.2704
                                                                        39.5004
        20.7504
  -1084996.20748   -800877.43045
                  21789240.3134                                   21789234.0164
                                                                        50.2504
        35.7504
    341378.16047    299825.34045
                  22538289.4844                                   22538286.2304
                                                                        46.2504
        31.0004
    231737.27347    213627.97344
                  23645293.4844                                   23645289.2034
                                                                        44.7504
        29.0004
 09 10  5 23 34  0.0000000  0  8G02G04G12G13G20G23G30G31
  -3754282.03948  -2868338.53946
                  21151018.0704                                   21151011.8984
                                                                        51.2504
        41.0004
    158087.32448    157797.89546
                  20516485.4454                                   20516481.2734
                                                                        51.5004
        41.7504
   3074292.50447   2408009.88745
                  23364853.9064                                   23364849.1054
                                                                        46.7504
        32.2504
  -4889691.80147  -3739708.76645
                  22425366.8204                                   22425362.3874
                                                                        47.0004
        31.7504
   4975129.84446   3872759.44943
                  23678091.0234                                   23678086.3324
                                                                        39.2504
        22.2504
  -1187918.18748   -881076.37946
                  21769654.9924                                   21769648.1054
                                                                        49.2504
        36.0004
    268604.93847    243118.96145
                  22524441.4454                                   22524437.6954
                                                                        45.5004
        31.5004
    154739.98047    153630.10544
                  23630641.6334                                   23630637.0124
                                                                        44.5004
        28.7504
 09 10  5 23 34 30.0000000  0  8G02G04G12G13G20G23G30G31
  -3912998.54348  -2992013.70346
                  21120815.2114                                   21120809.1454
                                                                        51.0004
        41.5004
     81019.88348     97745.37946
                  20501819.8364                                   20501816.0474
                                                                        53.0004
        41.5004
   3052873.82847   2391319.99245
                  23360778.5554                                   23360773.7464
                                                                        46.5004
        32.5004
  -5071258.64847  -3881189.42645
                  22390816.0084                                   22390811.4304
                                                                        47.7504
        32.5004
   4985626.27046   3880938.46944
                  23680088.3524                                   23680083.8364
                                                                        40.0004
        25.5004
  -1290188.70348   -960767.66045
                  21750193.6954                                   21750186.7074
                                                                        49.0004
        35.5004
    196511.59447    186942.25845
                  22510722.2814                                   22510719.0634
                                                                        46.2504
        31.7504
     78349.62547     94105.15644
                  23616104.8134                                   23616099.9304
                                                                        44.0004
        28.0004
 09 10  5 23 35  0.0000000  0  8G02G04G12G13G20G23G30G31
  -4071251.13348  -3115327.40246
                  21090700.7034                                   21090694.6484
                                                                        52.0004
        41.0004
      4530.52048     38143.33647
                  20487264.3754                                   20487260.3444
                                                                        53.2504
        42.0004
   3031909.97747   2374984.58645
                  23356788.7194                                   23356784.2894
                                                                        46.5004
        33.0004
  -5252355.84048  -4022304.09845
                  22356354.0234                                   22356349.3874
                                                                        48.2504
        32.2504
   4996351.64546   3889295.83243
                  23682129.4224                                   23682125.0824
                                                                        41.0004
        23.0004
  -1391805.28548  -1039949.41046
                  21730856.3984                                   21730849.9224
                                                                        49.5004
        36.2504
    125099.41447    131296.39145
                  22497133.3914                                   22497129.9614
                                                                        46.0004
        31.0004
      2567.42247     35054.07044
                  23601683.6254                                   23601679.5824
                                                                        44.2504
        28.0004
 09 10  5 23 35 30.0000000  0  8G02G04G12G13G20G23G30G31
  -4229037.07048  -3238277.48846
                  21060675.0084                                   21060669.0124
                                                                        51.2504
        41.2504
    -71380.52048    -21008.09447
                  20472819.0784                                   20472815.3754
                                                                        52.5004
        42.7504
   3011398.73847   2359001.79745
                  23352885.6954                                   23352881.0314
                                                                        47.5004
        33.0004
  -5432979.82848  -4163050.07045
                  22321982.2034                                   22321978.1334
                                                                        48.0004
        32.0004
   5007304.44946   3897830.46544
                  23684213.7114                                   23684209.7074
                                                                        39.5004
        24.5004
  -1492767.03148  -1118620.91446
                  21711644.0394                                   21711637.2584
                                                                        49.2504
        36.0004
     54367.86747     76180.83245
                  22483673.9224                                   22483669.6374
                                                                        45.0004
        30.2504
    -72606.69147    -23523.13344
                  23587378.4534                                   23587374.2934
                                                                        45.0004
        29.0004
 09 10  5 23 36  0.0000000  0  8G02G04G12G13G20G23G30G31
  -4386354.72748  -3360862.69946
                  21030738.5004                                   21030732.5164
                                                                        50.7504
        41.2504
   -146713.79748    -79709.38347
                  20458483.8054                                   20458479.7384
                                                                        53.0004
        42.0004
   2991338.07447   2343370.07845
                  23349067.8914                                   23349063.6484
                                                                        46.7504
        32.0004
  -5613127.69148  -4303425.02345
                  22287701.0634                                   22287696.8714
                                                                        48.5004
        32.2504
   5018482.45646   3906540.55243
                  23686340.1484                                   23686336.5664
                                                                        40.0004
        22.0004
  -1593073.84048  -1196782.04745
                  21692556.3524                                   21692549.5434
                                                                        48.5004
        35.5004
    -15684.34847     21594.73045
                  22470342.8204                                   22470339.6644
                                                                        45.0004
        30.7504
   -147173.30147    -81626.96544
                  23573189.7734                                   23573185.0124
                                                                        44.0004
        28.5004
 09 10  5 23 36 30.0000000  0  8G02G04G12G13G20G23G30G31
  -4543201.31648  -3483080.74246
                  21000891.2734                                   21000885.4774
                                                                        50.0004
        41.5004
   -221468.78948   -137959.94547
                  20444257.9614                                   20444254.3954
                                                                        53.0004
        42.0004
   2971725.66047   2328087.60545
                  23345335.9384                                   23345332.2814
                                                                        47.5004
        32.0004
  -5792795.76647  -4443426.09045
                  22253511.8054                                   22253507.0784
                                                                        47.5004
        32.2504
   5029883.89846   3915424.76643
                  23688510.5474                                   23688506.1644
                                                                        40.0004
        21.5004
  -1692724.83648  -1274432.16045
                  21673593.6954                                   21673586.5124
                                                                        48.2504
        35.7504
    -85057.21147    -32461.95345
                  22457141.9774                                   22457138.7464
                                                                        45.0004
        30.7504
   -221132.49247   -139257.52744
                  23559115.5704                                   23559110.6214
                                                                        45.0004
        29.7504
 09 10  5 23 37  0.0000000  0  8G02G04G12G13G20G23G30G31
  -4699582.78148  -3604936.36347
                  20971132.8834                                   20971127.1054
                                                                        50.7504
        42.0004
   -295654.33248   -195766.87946
                  20430141.1884                                   20430137.4024
                                                                        52.7504
        41.7504
   2952551.27747   2313146.44545
                  23341687.5084                                   23341683.2894
                                                                        47.0004
        31.5004
  -5971989.31648  -4583057.44145
                  22219412.1954                                   22219407.9844
                                                                        48.0004
        32.2504
   5041498.99646   3924475.44543
                  23690720.6334                                   23690715.9064
                                                                        40.5004
        20.2504
  -1791727.27048  -1351576.89846
                  21654753.7974                                   21654747.3094
                                                                        48.2504
        36.0004
   -153759.78147    -85996.38745
                  22444068.1804                                   22444064.8634
                                                                        44.5004
        31.0004
   -294492.58247   -196421.20744
                  23545155.0864                                   23545150.9494
                                                                        45.2504
        29.0004
 09 10  5 23 37 30.0000000  0  8G02G04G12G13G20G23G30G31
  -3280064.98848  -2498818.59846
                  21241258.3984                                   21241252.2114
                                                                        51.2504
        41.2504
   1206159.29748    974477.49647
                  20715926.7424                                   20715922.9384
                                                                        53.5004
        42.2504
   4509240.67647   3526151.13745
                  23637915.2344                                   23637911.0274
                                                                        47.0004
        31.0004
  -4575272.04348  -3494706.28545
                  22485198.7974                                   22485194.5124
                                                                        48.2504
        32.0004
   6628752.64847   5161296.45743
                  23992765.1954                                   23992760.2464
                                                                        43.5004
        22.0004
   -314650.39148   -200607.89846
                  21935832.0314                                   21935825.4384
                                                                        49.0004
        36.5004
   1353636.47347   1088598.07845
                  22730916.1334                                   22730912.9614
                                                                        43.7504
        30.5004
   1208175.02347    974488.62144
                  23831103.6174                                   23831099.0634
                                                                        45.2504
        28.0004
 09 10  5 23 38  0.0000000  0  8G02G04G12G13G20G23G30G31
  -3435496.63748  -2619934.16446
                  21211680.6564                                   21211674.5984
                                                                        51.2504
        41.5004
   1133126.17648    917568.54346
                  20702029.0704                                   20702025.1174
                                                                        53.2504
        41.7504
   4490949.64147   3511898.40245
                  23634434.4844                                   23634429.9104
                                                                        47.0004
        32.0004
  -4753493.07847  -3633579.79745
                  22451284.6414                                   22451280.1524
                                                                        47.5004
        32.2504
   6640803.00047   5170686.37943
                  23995057.9224                                   23995053.8284
                                                                        43.0004
        22.0004
   -412341.12948   -276730.56646
                  21917242.2894                                   21917235.5474
                                                                        48.5004
        36.0004
   1286285.65647   1036116.98045
                  22718099.4614                                   22718096.2154
                                                                        45.5004
        30.2504
   1136024.63347    918267.56344
                  23817373.8984                                   23817368.7384
                                                                        45.5004
        28.5004
 09 10  5 23 38 30.0000000  0  8G02G04G12G13G20G23G30G31
  -3590452.04748  -2740678.63746
                  21182193.3834                                   21182187.7624
                                                                        51.5004
        41.5004
   1060666.72348    861106.60547
                  20688240.3134                                   20688236.6174
                                                                        53.7504
        42.2504
   4473094.92647   3497985.59845
                  23631037.3834                                   23631032.8554
                                                                        47.2504
        31.2504
  -4931225.43448  -3772072.53545
                  22417463.3594                                   22417458.5234
                                                                        48.0004
        32.5004
   6653065.95347   5180241.94143
                  23997391.7734                                   23997387.3054
                                                                        42.5004
        22.7504
   -509377.41048   -352343.25846
                  21898777.2424                                   21898769.9804
                                                                        50.0004
        36.5004
   1219607.48847    984160.05545
                  22705411.0314                                   22705407.1884
                                                                        45.2504
        30.2504
   1064476.43447    862515.73844
                  23803758.7194                                   23803754.3954
                                                                        45.0004
        28.7504
 09 10  5 23 39  0.0000000  0  8G02G04G12G13G20G23G30G31
  -3744927.57048  -2861049.19546
                  21152798.0234                                   21152791.5704
                                                                        50.5004
        41.5004
    988782.27348    805092.74646
                  20674561.4614                                   20674557.3874
                                                                        53.5004
        41.5004
   4455675.98047   3484412.36345
                  23627722.5314                                   23627718.2234
                                                                        47.2504
        31.7504
  -5108463.89848  -3910180.42645
                  22383735.6094                                   22383731.2384
                                                                        48.0004
        32.5004
   6665541.66046   5189963.32043
                  23999765.5004                                   23999761.2074
                                                                        41.5004
        22.2504
   -605756.83248   -427444.09445
                  21880436.5784                                   21880429.8874
                                                                        48.2504
        35.2504
   1153602.75447    932727.82845
                  22692850.8364                                   22692847.0474
                                                                        44.2504
        30.2504
    993531.61347    807234.06344
                  23790258.1954                                   23790253.7664
                                                                        45.2504
        28.5004
 09 10  5 23 39 30.0000000  0  8G02G04G12G13G20G23G30G31
  -3898919.60548  -2981042.96546
                  21123494.1094                                   21123488.0904
                                                                        51.0004
        41.0004
    917473.60248    749527.56346
                  20660991.6644                                   20660987.8094
                                                                        53.0004
        41.7504
   4438691.05547   3471177.27045
                  23624490.2504                                   23624485.9384
                                                                        47.0004
        30.5004
  -5285205.00048  -4047900.75845
                  22350103.1564                                   22350098.3524
                                                                        48.0004
        32.5004
   6678228.32046   5199849.03143
                  24002180.1954                                   24002175.6604
                                                                        41.2504
        21.2504
   -701478.23848   -502032.19145
                  21862221.1024                                   21862214.5514
                                                                        49.5004
        35.5004
   1088271.21947    881820.14845
                  22680418.6724                                   22680415.4804
                                                                        45.0004
        30.5004
    923190.46147    752422.77344
                  23776872.9144                                   23776867.6454
                                                                        45.5004
        28.0004
 09 10  5 23 40  0.0000000  0  8G02G04G12G13G20G23G30G31
  -4052423.74248  -3100656.59046
                  21094283.4064                                   21094277.1254
                                                                        50.2504
        41.2504
    846742.77748    694412.62947
                  20647532.1174                                   20647528.2424
                                                                        52.5004
        42.0004
   4422141.03547   3458281.16845
                  23621341.3524                                   23621336.9734
                                                                        46.2504
        31.5004
  -5461442.82048  -4185228.94945
                  22316565.9534                                   22316560.9924
                                                                        48.2504
        32.2504
   6691127.36346   5209900.20743
                  24004634.0314                                   24004630.0044
                                                                        40.5004
        20.0004
   -796538.70348   -576105.25446
                  21844131.5314                                   21844125.2274
                                                                        48.0004
        36.0004
   1023614.95347    831438.69545
                  22668115.2274                                   22668111.1914
                                                                        45.2504
        30.5004
    853455.23047    698083.64544
                  23763602.8204                                   23763597.7544
                                                                        45.2504
        28.0004
 09 10  5 23 40 30.0000000  0  8G02G04G12G13G20G23G30G31
  -4205441.00448  -3219890.80946
                  21065165.0864                                   21065158.9924
                                                                        51.5004
        41.2504
    776586.26248    639745.19947
                  20634181.7584                                   20634178.3244
                                                                        52.5004
        42.2504
   4406020.25447   3445719.54745
                  23618273.0234                                   23618269.1024
                                                                        46.0004
        31.5004
  -5637177.28548  -4322164.86745
                  22283124.6954                                   22283120.3164
                                                                        48.2504
        32.2504
   6704233.54746   5220112.80143
                  24007129.0394                                   24007124.1644
                                                                        41.0004
        20.7504
   -890940.91048   -649665.41446
                  21826167.9224                                   21826161.3484
                                                                        49.2504
        36.2504
    959629.57847    781579.98845
                  22655939.0554                                   22655935.3244
                                                                        46.2504
        30.0004
    784322.04747    644213.66044
                  23750447.1174                                   23750442.5824
                                                                        42.0004
        28.2504
 09 10  5 23 41  0.0000000  0  8G02G04G12G13G20G23G30G31
  -4357968.00048  -3338742.97346
                  21036140.0554                                   21036133.6054
                                                                        51.2504
        41.2504
    707005.24648    585526.18047
                  20620940.8674                                   20620937.0784
                                                                        53.0004
        42.2504
   4390327.61347   3433491.54745
                  23615286.6564                                   23615282.8014
                                                                        47.0004
        31.0004
  -5812404.50048  -4458705.53945
                  22249780.1174                                   22249775.3094
                                                                        48.5004
        32.2504
   6717546.38746   5230486.45343
                  24009661.5944                                   24009657.3954
                                                                        40.5004
        20.0004
   -984683.41048   -722711.50846
                  21808329.2974                                   21808322.8014
                                                                        49.5004
        36.0004
    896315.38747    732244.28545
                  22643890.9614                                   22643886.5594
                                                                        46.2504
        30.2504
    715791.29347    590813.07844
                  23737406.2974                                   23737400.8054
                                                                        43.5004
        29.0004
 09 10  5 23 41 30.0000000  0  8G02G04G12G13G20G23G30G31
  -4510005.57848  -3457213.80946
                  21007208.3204                                   21007202.4224
                                                                        52.0004
        41.7504
    637996.08248    531752.77747
                  20607808.9614                                   20607805.1844
                                                                        53.0004
        42.2504
   4375057.61347   3421592.79345
                  23612381.2424                                   23612376.9574
                                                                        46.5004
        31.2504
  -5987124.24248  -4594850.82045
                  22216532.1254                                   22216527.3364
                                                                        48.7504
        32.5004
   6731060.89146   5241017.19943
                  24012234.0784                                   24012229.3014
                                                                        41.2504
        22.2504
  -1077769.14548   -795245.84845
                  21790615.6024                                   21790609.2584
                                                                        49.2504
        35.7504
    833668.17247    683428.34445
                  22631969.1334                                   22631965.1644
                                                                        46.5004
        30.0004
    647859.72747    537879.41444
                  23724479.1024                                   23724473.9024
                                                                        43.7504
        27.5004
 09 10  5 23 42  0.0000000  0  8G02G04G12G13G20G23G30G31
  -4661552.69548  -3575302.45746
                  20978369.8524                                   20978363.9384
                                                                        52.0004
        41.5004
    569557.27048    478423.82847
                  20594785.7664                                   20594781.8714
                                                                        53.5004
        42.0004
   4360207.06647   3410020.91045
                  23609555.3834                                   23609551.2734
                                                                        46.0004
        31.5004
  -6161334.19548  -4730598.87545
                  22183381.1484                                   22183376.6844
                                                                        49.0004
        32.5004
   6744774.12146   5251702.84043
                  24014843.1334                                   24014839.0314
                                                                        41.5004
        22.5004
  -1170198.66448   -867268.86345
                  21773027.0474                                   21773020.2544
                                                                        50.0004
        35.5004
    771686.12147    635130.64545
                  22620174.2734                                   22620170.0554
                                                                        44.7504
        30.2504
    580525.43847    485411.15644
                  23711665.5394                                   23711660.6564
                                                                        43.5004
        27.2504
 09 10  5 23 42 30.0000000  0  8G02G04G12G13G20G23G30G31
  -4812607.09448  -3693007.21946
                  20949625.3364                                   20949619.6604
                                                                        52.2504
        41.5004
    501688.88748    425539.33647
                  20581870.7664                                   20581866.7624
                                                                        52.7504
        42.5004
   4345774.28947   3398774.58245
                  23606808.7734                                   23606804.6334
                                                                        46.5004
        31.2504
  -6335031.20348  -4865947.13345
                  22150328.0704                                   22150323.1214
                                                                        49.2504
        33.0004
   6758684.57846   5262542.17643
                  24017490.0944                                   24017486.2304
                                                                        41.5004
        21.7504
  -1261971.17648   -938779.91045
                  21755563.1254                                   21755556.2854
                                                                        49.5004
        35.5004
    710368.40247    587350.59845
                  22608506.2344                                   22608501.8834
                                                                        46.5004
        30.0004
    513788.02047    433407.96544
                  23698966.3364                                   23698961.4494
                                                                        44.0004
        26.0004
 09 10  5 23 43  0.0000000  0  8G02G04G12G13G20G23G30G31
  -4963163.23448  -3810323.66046
                  20920975.2274                                   20920969.3444
                                                                        51.7504
        41.7504
    434393.90648    373101.66447
                  20569064.7344                                   20569060.8324
                                                                        53.5004
        42.5004
   4331759.71147   3387854.11745
                  23604142.2814                                   23604137.6994
                                                                        45.5004
        30.5004
  -6508208.93048  -5000890.82045
                  22117373.0944                                   22117368.4654
                                                                        49.0004
        33.0004
   6772793.84046   5273536.35543
                  24020174.8284                                   24020170.3204
                                                                        38.5004
        18.2504
  -1353083.28148  -1009776.35945
                  21738225.0704                                   21738218.3094
                                                                        50.7504
        35.7504
    649717.21947    540089.92644
                  22596964.9144                                   22596961.1644
                                                                        46.2504
        29.7504
    447650.11347    381871.92644
                  23686380.0784                                   23686375.7584
                                                                        43.7504
        26.5004
 09 10  5 23 43 30.0000000  0  8G02G04G12G13G20G23G30G31
  -5113217.04748  -3927248.67246
                  20892421.3284                                   20892414.8324
                                                                        52.5004
        41.7504
    367673.75048    321111.83246
                  20556368.7344                                   20556364.7114
                                                                        53.0004
        41.5004
   4318163.42647   3377259.63745
                  23601554.2504                                   23601550.1954
                                                                        45.7504
        30.5004
  -6680862.43448  -5135426.04745
                  22084517.9384                                   22084513.7074
                                                                        49.0004
        33.2504
   6787101.97746   5284685.51242
                  24022897.6334                                   24022893.4844
                                                                        39.0004
        16.7504
  -1443532.80548  -1080256.50845
                  21721012.9924                                   21721006.3054
                                                                        50.5004
        35.7504
    589733.41447    493349.25044
                  22585549.9844                                   22585545.8324
                                                                        46.7504
        28.5004
    382113.46147    330804.37944
                  23673908.4384                                   23673904.1684
                                                                        44.5004
        26.7504
 09 10  5 23 44  0.0000000  0  8G02G04G12G13G20G23G30G31
  -5262771.86348  -4043784.87147
                  20863961.6334                                   20863955.4184
                                                                        52.0004
        42.0004
    301522.72748    269565.57046
                  20543780.0784                                   20543776.2544
                                                                        52.7504
        41.5004
   4304977.31647   3366984.70345
                  23599045.2664                                   23599041.6054
                                                                        46.0004
        30.2504
  -6852994.55548  -5269554.98045
                  22051762.2034                                   22051757.9614
                                                                        49.2504
        32.7504
   6801601.91846   5295984.21943
                  24025657.2344                                   24025653.0394
                                                                        40.0004
        20.2504
  -1533325.09848  -1150224.53545
                  21703926.4614                                   21703919.5904
                                                                        50.0004
        35.5004
    530410.33247    447123.43044
                  22574261.1804                                   22574257.0274
                                                                        46.0004
        29.2504
    317171.91847    280200.59444
                  23661550.4064                                   23661545.8364
                                                                        43.5004
        26.2504
 09 10  5 23 44 30.0000000  0  8G02G04G12G13G20G23G30G31
  -5411817.91448  -4159924.62546
                  20835598.9144                                   20835592.6804
                                                                        52.7504
        41.5004
    235947.92248    218468.28947
                  20531301.9144                                   20531298.2384
                                                                        53.2504
        42.0004
   4292207.42247   3357034.21545
                  23596615.6644                                   23596610.9024
                                                                        45.7504
        31.2504
  -7024594.06648  -5403268.83645
                  22019108.4534                                   22019103.9384
                                                                        49.7504
        33.2504
   6816299.48046   5307436.83643
                  24028453.4694                                   24028449.5044
                                                                        38.0004
        20.5004
  -1622451.74248  -1219673.84845
                  21686965.9614                                   21686959.3014
                                                                        50.5004
        35.0004
    471755.00047    401417.93844
                  22563099.3204                                   22563095.6524
                                                                        46.0004
        29.2504
    252832.06647    230065.69144
                  23649307.7814                                   23649302.4454
                                                                        43.2504
        24.5004
 09 10  5 23 45  0.0000000  0  8G02G04G12G13G20G23G30G31
  -5560358.97348  -4275670.87947
                  20807332.5704                                   20807326.5124
                                                                        52.7504
        42.2504
    170943.34448    167815.43447
                  20518932.1254                                   20518928.3834
                                                                        53.5004
        42.0004
   4279844.84847   3347401.07845
                  23594262.7814                                   23594258.5944
                                                                        45.7504
        30.7504
  -7195663.82048  -5536569.94945
                  21986554.8524                                   21986550.3984
                                                                        50.0004
        34.2504
   6831186.61346   5319037.16043
                  24031287.2034                                   24031282.6684
                                                                        39.7504
        22.0004
  -1710919.20748  -1288609.53545
                  21670131.0944                                   21670124.1214
                                                                        50.0004
        35.5004
    413760.00447    356227.02344
                  22552063.4384                                   22552059.8364
                                                                        45.7504
        29.0004
    189086.83247    180394.06344
                  23637176.8594                                   23637172.1564
                                                                        42.7504
        27.2504
 09 10  5 23 45 30.0000000  0  8G02G04G12G13G20G23G30G31
  -5708393.44148  -4391022.39547
                  20779162.5864                                   20779156.6804
                                                                        53.0004
        42.2504
    106507.66448    117605.82446
                  20506670.2424                                   20506666.2304
                                                                        52.5004
        41.5004
   4267887.18847   3338083.45745
                  23591987.3134                                   23591983.2544
                                                                        45.5004
        30.5004
  -7366201.57448  -5669456.49245
                  21954102.6484                                   21954097.9694
                                                                        50.0004
        33.5004
   6846261.37147   5330783.68844
                  24034156.6094                                   24034152.0904
                                                                        42.7504
        25.5004
  -1798727.39848  -1357031.52346
                  21653421.7584                                   21653414.8794
                                                                        50.0004
        36.0004
    356424.04347    311549.72344
                  22541152.3914                                   22541149.0514
                                                                        46.0004
        29.7504
    125935.68447    131185.39544
                  23625159.6174                                   23625154.9614
                                                                        43.0004
        25.2504
 09 10  5 23 46  0.0000000  0  8G02G04G12G13G20G23G30G31
  -4280494.28948  -3278373.69146
                  21050882.8834                                   21050876.5594
                                                                        52.2504
        41.5004
   1618062.54348   1295440.78146
                  20794309.6024                                   20794305.6954
                                                                        52.7504
        41.5004
   5831752.30947   4556679.71945
                  23889580.7504                                   23889576.6844
                                                                        47.0004
        30.2504
  -5960778.73848  -4574321.79345
                  22221545.4224                                   22221541.0004
                                                                        50.2504
        34.5004
   8436941.10947   6570274.36343
                  24336852.1254                                   24336848.0554
                                                                        42.5004
        22.0004
   -310453.54748   -197337.59445
                  21936630.6334                                   21936623.6414
                                                                        49.7504
        35.0004
   1875167.65647   1494986.32044
                  22830160.1334                                   22830156.7664
                                                                        45.7504
        29.7504
   1638799.54347   1310040.35944
                  23913048.3594                                   23913043.6174
                                                                        42.5004
        26.5004
 09 10  5 23 46 30.0000000  0  8G02G04G12G13G20G23G30G31
  -4427510.27048  -3392931.57847
                  21022906.7194                                   21022900.8874
                                                                        51.7504
        42.0004
   1554762.56648   1246116.12946
                  20782263.8984                                   20782260.1054
                                                                        52.0004
        41.7504
   5820596.16047   4547986.62545
                  23887458.1884                                   23887453.5984
                                                                        45.7504
        30.2504
  -6130244.37548  -4706372.96145
                  22189297.0944                                   22189293.0594
                                                                        49.0004
        33.5004
   8452384.61346   6582308.30143
                  24339790.5164                                   24339786.6764
                                                                        39.2504
        19.2504
   -396943.80148   -264732.63745
                  21920172.0164                                   21920165.4964
                                                                        50.2504
        35.7504
   1819144.63347   1451331.96944
                  22819498.8134                                   22819495.9534
                                                                        45.5004
        29.5004
   1576832.43046   1261754.27744
                  23901256.7114                                   23901251.3204
                                                                        41.0004
        27.5004
 09 10  5 23 47  0.0000000  0  8G02G04G12G13G20G23G30G31
  -4574016.02348  -3507091.88347
                  20995027.5394                                   20995021.3244
                                                                        51.5004
        42.0004
   1492027.75448   1197231.83647
                  20770326.1094                                   20770322.0234
                                                                        51.7504
        42.2504
   5809835.34847   4539601.66445
                  23885409.6094                                   23885406.0124
                                                                        46.0004
        30.0004
  -6299171.39148  -4838004.35945
                  22157151.4924                                   22157147.3984
                                                                        49.0004
        34.0004
   8468008.15246   6594482.49642
                  24342763.4694                                   24342760.4534
                                                                        37.5004
        16.7504
   -482777.02348   -331615.64545
                  21903838.6254                                   21903831.9494
                                                                        50.0004
        34.7504
   1763774.70347   1408186.57045
                  22808962.6804                                   22808959.0984
                                                                        45.2504
        30.0004
   1515454.53546   1213927.35944
                  23889576.5394                                   23889571.6724
                                                                        41.2504
        27.0004
 09 10  5 23 47 30.0000000  0  8G02G04G12G13G20G23G30G31
  -4720008.89548  -3620852.56247
                  20967245.7894                                   20967240.0164
                                                                        52.0004
        42.0004
   1429857.98848   1148787.86747
                  20758495.2894                                   20758491.8754
                                                                        52.7504
        42.5004
   5799467.87147   4531523.12145
                  23883437.5944                                   23883432.9454
                                                                        45.5004
        30.5004
  -6467556.53148  -4969213.48045
                  22125108.7974                                   22125104.3484
                                                                        49.0004
        33.2504
   8483810.16046   6606795.77342
                  24345770.1954                                   24345766.9304
                                                                        38.2504
        16.2504
   -567952.73048   -397986.34845
                  21887630.3834                                   21887623.5044
                                                                        50.2504
        34.7504
   1709056.18847   1365548.70745
                  22798549.7734                                   22798546.4694
                                                                        44.5004
        30.0004
   1454665.09847   1166558.98044
                  23878009.0474                                   23878003.6644
                                                                        43.7504
        29.0004
 09 10  5 23 48  0.0000000  0  8G02G04G12G13G20G23G30G31
  -4865487.94148  -3734212.85947
                  20939562.2814                                   20939556.0084
                                                                        52.5004
        42.5004
   1368251.71948   1100783.02046
                  20746772.1334                                   20746768.4844
                                                                        52.5004
        41.7504
   5789490.52347   4523748.64545
                  23881539.0004                                   23881534.5944
                                                                        44.7504
        30.0004
  -6635398.21548  -5099999.18445
                  22093169.5474                                   22093165.1764
                                                                        48.7504
        33.5004
   8499787.70746   6619245.81643
                  24348811.2664                                   24348806.8204
                                                                        41.0004
        20.2504
   -652472.10248   -463845.62945
                  21871546.8594                                   21871540.2544
                                                                        49.5004
        35.2504
   1654986.89847   1323416.66044
                  22788261.0314                                   22788257.5084
                                                                        46.0004
        29.7504
   1394462.61746   1119647.96944
                  23866552.8054                                   23866547.4774
                                                                        41.5004
        28.0004
 09 10  5 23 48 30.0000000  0  8G02G04G12G13G20G23G30G31
  -5010452.35548  -3847172.09847
                  20911976.4304                                   20911970.4884
                                                                        52.2504
        42.2504
   1307207.38348   1053216.03947
                  20735155.8054                                   20735152.2504
                                                                        53.5004
        42.0004
   5779899.52047   4516275.18845
                  23879713.6414                                   23879709.2624
                                                                        45.7504
        30.0004
  -6802694.15248  -5230359.60245
                  22061334.0784                                   22061330.0594
                                                                        49.0004
        33.5004
   8515938.10246   6631830.62543
                  24351884.2194                                   24351880.2384
                                                                        41.5004
        21.2504
   -736336.13348   -529194.26245
                  21855588.2664                                   21855581.4224
                                                                        49.5004
        35.0004
   1601564.69547   1281788.84445
                  22778094.9774                                   22778091.6484
                                                                        45.0004
        30.5004
   1334844.66047   1073192.43444
                  23855207.9304                                   23855203.1094
                                                                        44.0004
        27.7504
 09 10  5 23 49  0.0000000  0  8G02G04G12G13G20G23G30G31
  -5154901.90248  -3959730.22346
                  20884488.5314                                   20884482.2624
                                                                        52.0004
        41.7504
   1246722.29348   1006084.78146
                  20723645.6804                                   20723642.1174
                                                                        53.7504
        41.7504
   5770690.99247   4509099.77745
                  23877960.7114                                   23877956.4964
                                                                        44.5004
        30.0004
  -6969443.55948  -5360294.21545
                  22029603.2034                                   22029598.4064
                                                                        49.0004
        33.0004
   8532257.48847   6644546.96543
                  24354990.4384                                   24354985.7034
                                                                        42.0004
        22.0004
   -819546.33248   -594033.35245
                  21839753.9454                                   21839746.8134
                                                                        50.2504
        35.0004
   1548786.50047   1240662.87945
                  22768051.9924                                   22768048.9964
                                                                        45.2504
        30.5004
   1275808.89847   1027190.54344
                  23843974.1414                                   23843968.9104
                                                                        45.0004
        28.5004
 09 10  5 23 49 30.0000000  0  7G02G04G12G13G23G30G31
  -5298834.89548  -4071885.82446
                  20857098.8914                                   20857092.6954
                                                                        51.5004
        41.7504
   1186795.66848    959388.60247
                  20712242.1564                                   20712238.0124
                                                                        53.2504
        42.0004
   5761861.84047   4502219.94144
                  23876280.6094                                   23876276.8834
                                                                        44.5004
        29.7504
  -7135643.61748  -5489800.72745
                  21997975.8914                                   21997971.5044
                                                                        49.7504
        34.0004
   -902103.46148   -658363.55145
                  21824043.8594                                   21824036.7704
                                                                        50.0004
        35.5004
   1496650.37547   1200037.25444
                  22758130.6094                                   22758127.6094
                                                                        43.7504
        29.7504
   1217353.89147    981641.20344
                  23832850.2894                                   23832845.2774
                                                                        44.2504
        28.2504
 09 10  5 23 50  0.0000000  0  7G02G04G12G13G23G30G31
  -5442254.82848  -4183641.60246
                  20829806.9774                                   20829800.8954
                                                                        51.0004
        41.7504
   1127421.36348    913122.78946
                  20700943.7274                                   20700939.9304
                                                                        53.0004
        41.7504
   5753404.09847   4495629.50044
                  23874671.2584                                   23874666.8634
                                                                        44.2504
        28.0004
  -7301297.60248  -5618881.71545
                  21966452.9924                                   21966448.8874
                                                                        49.2504
        33.5004
   -984013.07048   -722189.23045
                  21808456.6884                                   21808449.8954
                                                                        49.0004
        35.5004
   1445149.47347   1159906.56344
                  22748330.6804                                   22748326.7384
                                                                        44.2504
        29.7504
   1159472.68847    936538.96544
                  23821835.9694                                   23821831.2234
                                                                        44.2504
        29.2504
 09 10  5 23 50 30.0000000  0  7G02G04G12G13G23G30G31
  -5585152.85248  -4294990.70747
                  20802614.5634                                   20802608.6294
                                                                        51.5004
        42.2504
   1068605.64848    867292.32446
                  20689751.7194                                   20689747.6994
                                                                        53.5004
        41.5004
   5745321.97347   4489331.68845
                  23873133.7344                                   23873129.0394
                                                                        45.0004
        30.2504
  -7466395.90248  -5747529.75045
                  21935035.9144                                   21935031.0984
                                                                        49.7504
        33.5004
  -1065268.59048   -785505.21545
                  21792994.3284                                   21792987.8984
                                                                        48.7504
        35.0004
   1394289.14547   1120275.06645
                  22738652.4384                                   22738648.2464
                                                                        45.2504
        30.0004
   1102171.23447    891888.48444
                  23810931.6174                                   23810927.1414
                                                                        43.2504
        27.5004
 09 10  5 23 51  0.0000000  0  7G02G04G12G13G23G30G31
  -5727517.04348  -4405923.82447
                  20775523.8674                                   20775517.7584
                                                                        52.0004
        42.5004
   1010358.41848    821904.87546
                  20678667.2894                                   20678663.7704
                                                                        53.0004
        41.7504
   5737623.83647   4483333.12145
                  23871668.8594                                   23871664.1214
                                                                        45.5004
        31.0004
  -7630924.73848  -5875734.02345
                  21903727.1724                                   21903722.4804
                                                                        49.7504
        33.7504
  -1145859.59848   -848303.38345
                  21777658.1954                                   21777651.3204
                                                                        48.5004
        35.0004
   1344078.35547   1081149.71145
                  22729097.7584                                   22729094.4264
                                                                        45.0004
        30.0004
   1045459.29747    847697.35244
                  23800139.5634                                   23800134.7734
                                                                        43.7504
        28.5004
 09 10  5 23 51 30.0000000  0  7G02G04G12G13G23G30G31
  -5869345.30148  -4516439.30947
                  20748534.4844                                   20748528.2504
                                                                        52.0004
        42.0004
    952678.55548    776959.52346
                  20667691.3054                                   20667687.5594
                                                                        52.7504
        41.5004
   5730307.23047   4477631.84045
                  23870276.3594                                   23870272.0314
                                                                        45.2504
        30.0004
  -7794881.84848  -6003492.79745
                  21872526.8914                                   21872522.1174
                                                                        50.0004
        34.0004
  -1225786.52048   -910584.20345
                  21762448.8594                                   21762442.2304
                                                                        49.0004
        34.7504
   1294515.64147   1042529.34045
                  22719666.2504                                   22719662.8714
                                                                        45.2504
        30.0004
    989335.59047    803964.58244
                  23789459.6334                                   23789454.8714
                                                                        43.5004
        29.2504
 09 10  5 23 52  0.0000000  0  8G02G04G12G13G29G23G30G31
  -6010640.41848  -4626539.39547
                  20721647.0164                                   20721640.7074
                                                                        51.0004
        42.0004
    895561.25048    732452.64846
                  20656822.1954                                   20656818.4734
                                                                        53.0004
        41.5004
   5723364.91047   4472222.16044
                  23868955.6094                                   23868950.9654
                                                                        44.2504
        29.7504
  -7958269.25448  -6130807.62145
                  21841435.4454                                   21841430.8554
                                                                        49.7504
        34.2504
   7633235.03556   5995272.83653
                  24319047.9694                                   24319044.2274
                                                                        40.2504
        22.5004
  -1305054.27348   -972351.43445
                  21747364.6564                                   21747358.2664
                                                                        49.2504
        35.0004
   1245594.62147   1004409.00444
                  22710356.9304                                   22710353.8364
                                                                        44.0004
        29.5004
    933794.55947    760685.84844
                  23778890.7584                                   23778885.9384
                                                                        44.2504
        29.2504
 09 10  5 23 52 30.0000000  0  8G02G04G12G13G29G23G30G31
  -6151410.28548  -4736230.18747
                  20694859.2504                                   20694853.1604
                                                                        52.0004
        42.7504
    838995.37148    688375.40246
                  20646057.9534                                   20646054.0204
                                                                        52.7504
        41.5004
   5716784.72347   4467094.63744
                  23867703.7274                                   23867698.9024
                                                                        44.7504
        29.0004
  -8121093.67248  -6257683.78945
                  21810451.1094                                   21810446.6214
                                                                        50.0004
        34.5004
   7435673.25846   5841328.64844
                  24281452.6724                                   24281449.9454
                                                                        41.5004
        26.0004
  -1383672.93448  -1033612.83645
                  21732404.0634                                   21732397.5864
                                                                        49.2504
        35.2504
   1197303.96547    966779.91045
                  22701167.1724                                   22701164.1484
                                                                        45.5004
        30.0004
    878825.01246    717852.41444
                  23768430.3444                                   23768425.3634
                                                                        41.2504
        27.5004
 09 10  5 23 53  0.0000000  0  8G02G04G12G13G29G23G30G31
  -6291666.21948  -4845520.53547
                  20668169.7114                                   20668163.4844
                                                                        51.0004
        42.0004
    782967.21548    644717.14146
                  20635396.2504                                   20635392.5594
                                                                        53.2504
        41.7504
   5710550.82447   4462236.95744
                  23866517.2194                                   23866513.0744
                                                                        44.0004
        28.5004
  -8283365.70348  -6384129.52045
                  21779571.5164                                   21779566.7544
                                                                        49.5004
        34.5004
   7238351.09446   5687571.15244
                  24243904.0634                                   24243900.6914
                                                                        41.0004
        25.7504
  -1461655.42648  -1094378.38345
                  21717564.4454                                   21717558.0164
                                                                        48.0004
        34.7504
   1149628.81347    929630.45345
                  22692095.2664                                   22692091.4304
                                                                        44.5004
        30.0004
    824412.73047    675453.25044
                  23758075.7194                                   23758070.9384
                                                                        42.2504
        28.0004
 09 10  5 23 53 30.0000000  0  8G02G04G12G13G29G23G30G31
  -6431406.66448  -4954409.22747
                  20641577.7504                                   20641571.4184
                                                                        51.5004
        42.0004
    727475.70748    601476.96147
                  20624836.5084                                   20624832.5744
                                                                        53.0004
        42.0004
   5704660.42247   4457647.05544
                  23865395.8364                                   23865392.1294
                                                                        44.5004
        28.7504
  -8445083.15648  -6510143.09045
                  21748797.8204                                   21748793.4064
                                                                        50.0004
        34.0004
   7041270.73046   5534002.11344
                  24206399.9454                                   24206397.6374
                                                                        41.0004
        24.5004
  -1539002.85248  -1154649.06645
                  21702846.2344                                   21702839.0904
                                                                        49.0004
        34.7504
   1102567.37547    892959.17244
                  22683139.6724                                   22683136.1174
                                                                        45.5004
        29.5004
    770556.15647    633487.10544
                  23747826.7504                                   23747822.3134
                                                                        43.7504
        27.7504
 09 10  5 23 54  0.0000000  0  8G02G04G12G13G29G23G30G31
  -4995199.14148  -3835286.47746
                  20914878.9694                                   20914872.6644
                                                                        51.5004
        41.7504
   2247947.99648   1786260.48846
                  20914172.9224                                   20914168.9454
                                                                        52.2504
        41.7504
   7274537.41447   5680927.87544
                  24164133.0784                                   24164129.6914
                                                                        43.7504
        29.2504
  -7030811.70748  -5408113.38745
                  22017924.6414                                   22017919.7154
                                                                        49.7504
        33.7504
   8419867.93446   6608233.74243
                  24468738.4384                                   24468735.5744
                                                                        39.5004
        22.7504
    -40286.39848     13182.01245
                  21988042.0474                                   21988035.2774
                                                                        48.7504
        34.7504
   2631545.67247   2084370.84844
                  22974094.3524                                   22974090.8324
                                                                        43.7504
        29.0004
   2292682.45746   1819559.53544
                  24037477.8054                                   24037473.8954
                                                                        40.2504
        26.5004
 09 10  5 23 54 30.0000000  0  8G02G04G12G13G29G23G30G31
  -5133887.12948  -3943355.05947
                  20888487.5084                                   20888481.1094
                                                                        51.5004
        42.0004
   2193543.72348   1743867.51646
                  20903820.1094                                   20903816.3714
                                                                        53.5004
        41.7504
   7269342.48447   5676879.89844
                  24163144.9614                                   24163140.6954
                                                                        45.0004
        29.5004
  -7191395.77348  -5533243.82445
                  21987366.7274                                   21987361.2544
                                                                        49.7504
        34.5004
   8223296.47746   6455061.27344
                  24431332.1724                                   24431329.7974
                                                                        39.7504
        26.2504
   -116348.17648    -46086.84445
                  21973567.9844                                   21973560.8714
                                                                        49.5004
        35.5004
   2585722.65247   2048664.63344
                  22965375.0234                                   22965370.8134
                                                                        43.5004
        28.7504
   2239950.32847   1778469.59044
                  24027443.5704                                   24027438.5514
                                                                        42.2504
        25.7504
 09 10  5 23 55  0.0000000  0  8G02G04G12G13G29G23G30G31
  -5272039.53148  -4051006.29347
                  20862198.0944                                   20862191.7074
                                                                        50.7504
        42.2504
   2139688.48049   1701902.41447
                  20893571.7274                                   20893567.9344
                                                                        54.0004
        42.0004
   7264498.16447   5673105.10944
                  24162223.6024                                   24162219.2814
                                                                        45.5004
        29.0004
  -7351402.60248  -5657924.45745
                  21956918.5864                                   21956913.8244
                                                                        50.0004
        34.7504
   8026990.07846   6302095.35944
                  24393976.7344                                   24393973.5314
                                                                        41.0004
        26.5004
   -191761.36747   -104850.36345
                  21959216.8284                                   21959210.4144
                                                                        47.5004
        34.7504
   2540522.70747   2013443.93044
                  22956773.4844                                   22956769.8984
                                                                        43.5004
        29.5004
   2187784.97347   1737821.27744
                  24017516.6804                                   24017511.8754
                                                                        43.5004
        25.7504
 09 10  5 23 55 30.0000000  0  8G02G04G12G13G29G23G30G31
  -5409658.27348  -4158241.71147
                  20836009.7664                                   20836003.7584
                                                                        51.5004
        42.0004
   2086377.47748   1660361.37146
                  20883426.9454                                   20883422.9804
                                                                        53.5004
        41.7504
   7259998.09847   5669598.60544
                  24161367.0704                                   24161362.2894
                                                                        45.5004
        29.2504
  -7510833.44148  -5782156.28545
                  21926579.9224                                   21926575.2974
                                                                        50.0004
        35.2504
   7830948.39846   6149335.66044
                  24356670.7034                                   24356667.7774
                                                                        40.5004
        24.5004
   -266530.16848   -163111.76645
                  21944989.0554                                   21944982.6174
                                                                        48.0004
        35.5004
   2495940.69947   1978704.70744
                  22948289.3444                                   22948285.8014
                                                                        44.5004
        29.0004
   2136181.43447   1697610.69144
                  24007696.8674                                   24007691.8244
                                                                        43.2504
        26.5004
 09 10  5 23 56  0.0000000  0  8G02G04G12G13G29G23G30G31
  -5546742.48048  -4265060.61747
                  20809923.6954                                   20809917.8834
                                                                        50.5004
        42.0004
   2033609.19148   1619243.25446
                  20873385.3364                                   20873381.5164
                                                                        53.5004
        41.5004
   7255839.12547   5666357.84444
                  24160575.3134                                   24160570.8364
                                                                        44.7504
        28.5004
  -7669686.84448  -5905938.16045
                  21896350.8284                                   21896346.1684
                                                                        50.0004
        35.0004
   7635172.72746   5996783.17044
                  24319415.7734                                   24319412.4304
                                                                        39.2504
        25.5004
   -340655.79347   -220872.06645
                  21930883.6484                                   21930876.6374
                                                                        47.5004
        34.7504
   2451973.68847   1944444.69544
                  22939922.5784                                   22939919.4344
                                                                        44.5004
        28.7504
   2085137.79747   1657836.48444
                  23997983.7034                                   23997978.2974
                                                                        43.7504
        26.2504
 09 10  5 23 56 30.0000000  0  8G02G04G12G13G29G23G30G31
  -5683290.84048  -4371461.94547
                  20783939.2894                                   20783933.4884
                                                                        51.2504
        42.7504
   1981382.64148   1578547.31347
                  20863447.1884                                   20863443.3404
                                                                        53.5004
        42.2504
   7252018.17647   5663380.43044
                  24159848.7894                                   24159843.6174
                                                                        45.0004
        29.2504
  -7827959.85948  -6029267.78545
                  21866232.5944                                   21866227.8984
                                                                        49.7504
        34.5004
   7439666.24647   5844440.50444
                  24282212.5784                                   24282208.8244
                                                                        42.0004
        24.5004
   -414138.86347   -278131.62945
                  21916900.2894                                   21916893.7194
                                                                        47.5004
        35.2504
   2408619.95747   1910662.57044
                  22931672.7734                                   22931668.9844
                                                                        44.5004
        29.0004
   2034652.11747   1618497.00844
                  23988376.8524                                   23988371.5044
                                                                        43.5004
        25.2504
 09 10  5 23 57  0.0000000  0  8G02G04G12G13G29G23G30G31
  -5819306.16448  -4477447.89547
                  20758056.5084                                   20758050.5904
                                                                        51.5004
        42.5004
   1929691.89548   1538268.80946
                  20853610.7194                                   20853606.9924
                                                                        52.5004
        41.7504
   7248527.82847   5660660.66044
                  24159183.7734                                   24159180.0394
                                                                        44.2504
        29.2504
  -7985655.26248  -6152147.33645
                  21836223.9144                                   21836219.4384
                                                                        50.0004
        34.7504
   7244426.72347   5692305.89844
                  24245059.4144                                   24245056.5514
                                                                        42.7504
        28.0004
   -486984.63348   -334894.57845
                  21903038.2894                                   21903031.4924
                                                                        48.7504
        35.0004
   2365872.36347   1877352.75044
                  22923538.1334                                   22923535.1564
                                                                        43.5004
        29.5004
   1984718.55547   1579587.78544
                  23978874.5784                                   23978869.5784
                                                                        44.0004
        27.5004
 09 10  5 23 57 30.0000000  0  9G02G04G12G13G29G10G23G30G31
  -5954780.56648  -4583012.32047
                  20732276.9924                                   20732270.4884
                                                                        52.0004
        42.7504
   1878542.16449   1498411.84046
                  20843877.3204                                   20843873.6484
                                                                        54.0004
        41.7504
   7245372.18847   5658201.73444
                  24158584.0394                                   24158579.6644
                                                                        44.0004
        28.0004
  -8142764.47748  -6274570.16845
                  21806327.2664                                   21806322.6644
                                                                        49.7504
        34.7504
   7049463.05547   5540386.21144
                  24207958.6644                                   24207955.9804
                                                                        42.5004
        26.0004
   9188920.50857   7182423.33654
                  24153060.1564                                   24153056.7304
                                                                        42.5004
        26.7504
   -559187.98448   -391156.93745
                  21889298.3054                                   21889292.0704
                                                                        48.2504
        34.7504
   2323735.60947   1844518.87544
                  22915519.8594                                   22915517.1214
                                                                        45.5004
        29.7504
   1935341.69147   1541112.29744
                  23969478.1954                                   23969473.4844
                                                                        43.0004
        26.5004
 09 10  5 23 58  0.0000000  0  9G02G04G12G13G29G10G23G30G31
  -6089721.65648  -4688161.16847
                  20706598.3754                                   20706592.1414
                                                                        51.2504
        42.5004
   1827923.38748   1458968.65246
                  20834244.6414                                   20834241.0204
                                                                        53.5004
        41.0004
   7242538.82047   5655993.92244
                  24158045.0314                                   24158040.4304
                                                                        44.2504
        27.0004
  -8299293.80948  -6396541.07845
                  21776540.3834                                   21776535.8244
                                                                        49.2504
        35.0004
   6854768.74246   5388676.33244
                  24170909.2974                                   24170906.4654
                                                                        41.5004
        25.2504
   8975271.67247   7015943.75044
                  24112404.0784                                   24112400.7774
                                                                        42.5004
        27.2504
   -630758.23448   -446925.96945
                  21875679.2194                                   21875672.7934
                                                                        49.5004
        35.0004
   2282198.75447   1812152.42245
                  22907616.0784                                   22907612.8284
                                                                        44.5004
        30.2504
   1886511.10547   1503062.44544
                  23960186.1094                                   23960180.8324
                                                                        43.2504
        27.7504
 09 10  5 23 58 30.0000000  0  9G02G04G12G13G29G10G23G30G31
  -6224136.33248  -4792899.82847
                  20681019.8674                                   20681013.6804
                                                                        51.7504
        43.2504
   1777826.21148   1419931.87946
                  20824711.5554                                   20824707.6644
                                                                        53.0004
        41.0004
   7240016.25447   5654028.29344
                  24157565.0704                                   24157560.3674
                                                                        44.5004
        27.7504
  -8455249.71948  -6518065.12545
                  21746863.0944                                   21746858.6884
                                                                        49.5004
        35.2504
   6660338.39546   5237172.19544
                  24133910.3364                                   24133907.7424
                                                                        40.5004
        25.7504
   8761768.55947   6849577.73044
                  24071775.9224                                   24071772.1954
                                                                        43.5004
        25.7504
   -701704.16848   -502208.50845
                  21862178.4534                                   21862172.2704
                                                                        48.7504
        35.2504
   2241251.42647   1780245.41445
                  22899823.9144                                   22899820.4654
                                                                        45.0004
        30.0004
   1838217.22347   1465430.84044
                  23950995.9384                                   23950992.0824
                                                                        43.0004
        27.2504
 09 10  5 23 59  0.0000000  0  9G02G04G12G13G29G10G23G30G31
  -6358019.02748  -4897223.96147
                  20655543.0394                                   20655536.5554
                                                                        52.0004
        42.7504
   1728253.65648   1381303.92246
                  20815278.1884                                   20815274.3554
                                                                        53.7504
        41.7504
   7237806.60547   5652306.50844
                  24157144.3524                                   24157140.0354
                                                                        44.2504
        29.2504
  -8610626.02048  -6639137.60945
                  21717296.8524                                   21717291.6644
                                                                        49.5004
        35.5004
   6466179.18846   5085879.32444
                  24096962.7194                                   24096960.9024
                                                                        40.0004
        26.0004
   8548417.25047   6683329.97744
                  24031176.2734                                   24031172.2894
                                                                        42.0004
        24.5004
   -772023.14548   -557002.53945
                  21848797.2584                                   21848790.9494
                                                                        49.0004
        35.2504
   2200895.39147   1748799.15644
                  22892144.3134                                   22892140.6054
                                                                        45.5004
        29.7504
   1790462.12947   1428219.03144
                  23941908.3284                                   23941904.2974
                                                                        42.2504
        28.5004
 09 10  5 23 59 30.0000000  0  9G02G04G12G13G29G10G23G30G31
  -6491370.18748  -5001133.95747
                  20630167.0084                                   20630160.3324
                                                                        51.7504
        42.7504
   1679202.59448   1343082.32446
                  20805944.2894                                   20805940.3484
                                                                        52.0004
        41.7504
   7235905.09047   5650824.82044
                  24156782.3524                                   24156778.1374
                                                                        44.2504
        28.2504
  -8765421.77348  -6759757.66845
                  21687839.6884                                   21687834.7624
                                                                        50.0004
        35.5004
   6272291.35247   4934797.98044
                  24060068.4304                                   24060065.1054
                                                                        42.0004
        28.2504
   8335218.28946   6517201.00444
                  23990605.8834                                   23990602.7304
                                                                        41.0004
        25.7504
   -841717.52348   -611309.81645
                  21835534.7664                                   21835528.4964
                                                                        48.5004
        35.7504
   2161126.38347   1717810.30145
                  22884576.9064                                   22884573.4694
                                                                        45.2504
        30.0004
   1743242.30946   1391424.33644
                  23932923.1564                                   23932918.3834
                                                                        40.2504
        27.5004
