     2.11           OBSERVATION DATA    G (GPS)             RINEX VERSION / TYPE
teqc  2019Feb25                         20221121 12:28:16UTCPGM / RUN BY / DATE
OSX ker:10.11.6|Core i5|gcc 4.3 -m64|OSX ker:10.10+|=+      COMMENT
BIT 2 OF LLI FLAGS DATA COLLECTED UNDER A/S CONDITION       COMMENT
04712851                                                    MARKER NAME
2851                                                        MARKER NUMBER
-Unknown-           -Unknown-                               OBSERVER / AGENCY
0220400471          TRIMBLE R7          2.30                REC # / TYPE / VERS
-Unknown-           TRM39105.00     NONE                    ANT # / TYPE
  1449460.6235 -1709241.4247  5952443.7385                  APPROX POSITION XYZ
        0.0000        0.0000        0.0000                  ANTENNA: DELTA H/E/N
     1     1                                                WAVELENGTH FACT L1/2
    20    L1    L2    L5    L6    L7    L8    C1    P1    C2# / TYPES OF OBSERV
          P2    C5    C6    C7    C8    S1    S2    S5    S6# / TYPES OF OBSERV
          S7    S8                                          # / TYPES OF OBSERV
    30.0000                                                 INTERVAL
    15                                                      LEAP SECONDS
Forced Modulo Decimation to 30 seconds                      COMMENT
 SNR is mapped to RINEX snr flag value [0-9]                COMMENT
  L1 & L2: min(max(int(snr_dBHz/6), 0), 9)                  COMMENT
teqc edited: Beidou # 1 - 37 excluded                       COMMENT
  2009    10    12    23    10   30.0000000     GPS         TIME OF FIRST OBS
                                                            END OF HEADER
 09 10 12 23 10 30.0000000  0  7G02G04G12G13G23G30G31
   -298007.98058   -196826.00456
                  21055596.1884                                   21055589.8634
                                                                        51.0004
        41.0004
   -132700.51658    -87930.00856
                  20584982.2114                                   20584977.9614
                                                                        52.7504
        41.7504
    -24737.86357    -17234.11355
                  23543625.3594                                   23543620.6334
                                                                        46.7504
        30.7504
   -342271.35958   -225914.07455
                  22276107.8054                                   22276103.2974
                                                                        48.5004
        32.0004
   -184092.59458   -121656.86755
                  21776748.4304                                   21776742.0164
                                                                        48.7504
        35.0004
   -122443.81657    -81080.89154
                  22592223.1094                                   22592218.8554
                                                                        45.2504
        29.2504
   -128488.43757    -87743.35554
                  23693218.5394                                   23693214.2384
                                                                        44.5004
        29.2504
 09 10 12 23 11  0.0000000  0  8G02G04G12G13G20G23G30G31
   -448532.32048   -314117.71946
                  21026952.3284                                   21026946.0824
                                                                        51.5004
        41.2504
   -199274.10948   -139805.53546
                  20572313.3524                                   20572310.1054
                                                                        52.2504
        41.7504
    -37462.26647    -27149.23845
                  23541204.0634                                   23541199.4694
                                                                        46.0004
        30.5004
   -515151.97748   -360626.19545
                  22243209.9844                                   22243205.4064
                                                                        48.7504
        32.0004
     26858.39856     17207.97753
                  23883737.0634                                   23883732.7274
                                                                        41.5004
        20.5004
   -276748.95348   -193856.62145
                  21759116.3134                                   21759110.0394
                                                                        48.5004
        35.5004
   -183909.68747   -128976.37945
                  22580525.9614                                   22580522.3754
                                                                        45.0004
        30.0004
   -194882.08247   -139478.72744
                  23680584.0474                                   23680580.2234
                                                                        43.7504
        28.7504
 09 10 12 23 11 30.0000000  0  8G02G04G12G13G20G23G30G31
   -597949.07848   -430546.35546
                  20998519.2734                                   20998513.0864
                                                                        51.0004
        41.2504
   -264650.67648   -190748.31646
                  20559872.7114                                   20559868.8484
                                                                        52.2504
        41.7504
    -49135.66847    -36245.40645
                  23538982.8444                                   23538977.6334
                                                                        47.0004
        31.7504
   -686907.57448   -494461.66845
                  22210525.6724                                   22210521.1484
                                                                        49.2504
        31.7504
     43818.32847     30423.53943
                  23886965.3444                                   23886960.4344
                                                                        42.7504
        20.2504
   -368123.89847   -265057.85245
                  21741728.6414                                   21741722.0274
                                                                        47.5004
        35.0004
   -244080.34447   -175862.61745
                  22569076.2894                                   22569072.7544
                                                                        45.7504
        30.5004
   -260049.95747   -190258.75044
                  23668182.4694                                   23668178.6884
                                                                        43.5004
        28.7504
 09 10 12 23 12  0.0000000  0  8G02G04G12G13G20G23G30G31
   -746194.17648   -546062.01646
                  20970309.2814                                   20970303.0984
                                                                        51.0004
        41.2504
   -328769.08648   -240710.72747
                  20547671.4384                                   20547667.5204
                                                                        52.0004
        42.0004
    -59698.75047    -44476.39845
                  23536973.3524                                   23536968.0984
                                                                        47.2504
        31.7504
   -857473.59048   -627370.18745
                  22178068.2034                                   22178063.8094
                                                                        49.2504
        32.0004
     61672.36346     44335.79743
                  23890362.5084                                   23890357.7814
                                                                        41.0004
        21.2504
   -458155.95747   -335212.67245
                  21724595.4844                                   21724588.9184
                                                                        47.7504
        35.2504
   -302895.49647   -221692.70745
                  22557884.2584                                   22557880.5664
                                                                        45.5004
        30.2504
   -323931.77347   -240036.75844
                  23656026.6334                                   23656022.3204
                                                                        42.0004
        27.5004
 09 10 12 23 12 30.0000000  0  8G02G04G12G13G20G23G30G31
   -893263.35548   -660661.38346
                  20942322.9614                                   20942316.3094
                                                                        51.5004
        41.5004
   -391627.34448   -289691.20746
                  20535709.7424                                   20535705.7854
                                                                        52.5004
        41.5004
    -69151.57047    -51842.23445
                  23535174.2114                                   23535169.1994
                                                                        46.5004
        32.0004
  -1026844.63348   -759347.60945
                  22145837.6954                                   22145833.5514
                                                                        48.5004
        32.5004
     80421.03146     58945.15243
                  23893929.6954                                   23893925.8094
                                                                        40.0004
        21.0004
   -546842.41048   -404319.02045
                  21707719.1564                                   21707712.6954
                                                                        48.0004
        34.7504
   -360353.59447   -266465.23044
                  22546950.0864                                   22546946.0234
                                                                        45.5004
        29.5004
   -386525.75447   -288811.23044
                  23644114.9774                                   23644110.3164
                                                                        42.7504
        26.0004
 09 10 12 23 13  0.0000000  0  8G02G04G12G13G20G23G30G31
  -1039179.52748   -774362.30146
                  20914555.9144                                   20914549.8794
                                                                        50.5004
        41.0004
   -453251.00448   -337709.65246
                  20523983.1414                                   20523979.3594
                                                                        52.0004
        41.7504
    -77521.32847    -58364.12145
                  23533581.3524                                   23533576.9654
                                                                        46.7504
        31.7504
  -1195042.88747   -890411.22745
                  22113830.7034                                   22113826.0314
                                                                        47.5004
        31.7504
    100037.12946     74230.40643
                  23897663.6804                                   23897658.6054
                                                                        39.0004
        21.0004
   -634207.71147   -472395.89145
                  21691094.0784                                   21691087.5354
                                                                        47.0004
        34.2504
   -416480.63347   -310200.55945
                  22536269.1334                                   22536265.7734
                                                                        44.5004
        30.0004
   -447857.42647   -336602.02344
                  23632443.8284                                   23632439.4494
                                                                        42.0004
        26.7504
 09 10 12 23 13 30.0000000  0  8G02G04G12G13G20G23G30G31
  -1183973.53548   -887188.78146
                  20887002.4774                                   20886996.2814
                                                                        51.5004
        41.2504
   -513673.58248   -384792.20346
                  20512485.2424                                   20512481.2974
                                                                        52.5004
        41.2504
    -84843.65247    -64069.88745
                  23532187.6804                                   23532183.5004
                                                                        46.0004
        31.5004
  -1362098.11348  -1020584.13745
                  22082041.0314                                   22082036.2934
                                                                        48.2504
        32.0004
    120486.08646     90164.59443
                  23901553.8674                                   23901549.7424
                                                                        38.5004
        20.5004
   -720284.78948   -539468.94545
                  21674714.1564                                   21674707.4654
                                                                        48.2504
        35.2504
   -471310.90247   -352925.43445
                  22525835.2894                                   22525831.6094
                                                                        46.2504
        30.0004
   -507960.49647   -383435.51644
                  23621006.5394                                   23621002.2664
                                                                        43.5004
        28.2504
 09 10 12 23 14  0.0000000  0  8G02G04G12G13G20G23G30G31
  -1327685.62548   -999172.23046
                  20859654.6564                                   20859648.7584
                                                                        52.0004
        41.2504
   -572937.75848   -430972.09046
                  20501207.5554                                   20501203.8244
                                                                        53.5004
        41.5004
    -91162.84847    -68993.98845
                  23530984.9454                                   23530981.1254
                                                                        44.7504
        30.0004
  -1528049.68448  -1149897.04745
                  22050461.2274                                   22050457.0634
                                                                        48.7504
        32.0004
    141723.39846    106713.08643
                  23905595.5474                                   23905591.6724
                                                                        39.5004
        21.5004
   -805115.95348   -605571.17645
                  21658571.6484                                   21658565.1914
                                                                        48.2504
        35.5004
   -524887.56647   -394673.46944
                  22515640.3984                                   22515636.4844
                                                                        46.2504
        29.7504
   -566878.32447   -429345.41844
                  23609794.9064                                   23609790.4414
                                                                        44.0004
        28.0004
 09 10 12 23 14 30.0000000  0  8G02G04G12G13G20G23G30G31
    105077.23048    117266.37547
                  21132300.7114                                   21132294.3794
                                                                        51.5004
        42.0004
    944343.95748    751325.31346
                  20789936.8754                                   20789932.8634
                                                                        52.0004
        41.7504
   1478904.48847   1154435.02345
                  23829758.9924                                   23829754.8954
                                                                        45.0004
        30.7504
   -117502.80948    -50769.62545
                  22318880.0554                                   22318875.2584
                                                                        49.0004
        32.5004
   1739132.74246   1351447.58643
                  24209571.7664                                   24209568.4804
                                                                        39.5004
        21.5004
    686688.66447    556874.02745
                  21942452.0004                                   21942445.8324
                                                                        47.5004
        35.5004
    998175.86747    792129.25044
                  22805469.2424                                   22805465.1564
                                                                        45.0004
        29.2504
    950776.71547    753242.97344
                  23898595.0554                                   23898590.3054
                                                                        43.2504
        27.0004
 09 10 12 23 15  0.0000000  0  8G02G04G12G13G20G23G30G31
    -36564.42248      6896.24647
                  21105347.2274                                   21105341.0314
                                                                        52.0004
        42.0004
    887295.44548    706871.89847
                  20779080.7734                                   20779077.0274
                                                                        52.7504
        42.0004
   1474484.55147   1150990.94145
                  23828917.6414                                   23828913.3284
                                                                        45.7504
        30.0004
   -281337.74248   -178433.19945
                  22287702.8914                                   22287698.1524
                                                                        49.5004
        32.2504
   1761841.62546   1369142.87943
                  24213893.9144                                   24213889.4024
                                                                        41.0004
        21.0004
    604251.33248    492637.17245
                  21926764.9144                                   21926758.2894
                                                                        49.0004
        35.2504
    947002.97347    752254.23444
                  22795731.4144                                   22795727.7664
                                                                        44.5004
        29.7504
    894127.97347    709101.05144
                  23887815.2194                                   23887810.7154
                                                                        44.0004
        28.2504
 09 10 12 23 15 30.0000000  0  8G02G04G12G13G20G23G30G31
   -177207.42248   -102695.71146
                  21078583.7034                                   21078577.7114
                                                                        52.5004
        41.5004
    831314.69148    663250.50846
                  20768427.7894                                   20768423.8244
                                                                        52.5004
        41.2504
   1470970.78947   1148252.93844
                  23828249.3594                                   23828245.0784
                                                                        45.5004
        29.7504
   -444149.18048   -305299.23045
                  22256720.9614                                   22256716.8054
                                                                        49.5004
        31.5004
   1785244.23846   1387378.72743
                  24218347.9774                                   24218342.8554
                                                                        41.2504
        19.2504
    522971.49648    429302.29345
                  21911297.9144                                   21911291.8164
                                                                        49.7504
        34.5004
    896990.75847    713283.73844
                  22786214.1024                                   22786210.1094
                                                                        44.5004
        29.0004
    838573.24647    665811.67644
                  23877243.4694                                   23877238.7074
                                                                        43.2504
        26.7504
 09 10 12 23 16  0.0000000  0  8G02G04G12G13G20G23G30G31
   -316888.90248   -211538.42246
                  21052003.3914                                   21051996.9964
                                                                        52.7504
        41.2504
    776361.58248    620429.88346
                  20757970.6884                                   20757967.0394
                                                                        53.0004
        41.2504
   1468322.10547   1146189.02344
                  23827745.8054                                   23827740.8954
                                                                        46.0004
        29.7504
   -605973.86748   -431396.35945
                  22225926.8834                                   22225922.2664
                                                                        48.5004
        32.7504
   1809299.34046   1406122.99643
                  24222924.7664                                   24222920.1684
                                                                        39.7504
        20.0004
    442809.98848    366838.83645
                  21896043.9694                                   21896037.2774
                                                                        49.0004
        34.5004
    848098.71947    675186.03944
                  22776910.6094                                   22776906.7774
                                                                        44.5004
        29.5004
    784072.49647    623343.58244
                  23866872.1644                                   23866867.4884
                                                                        44.5004
        26.0004
 09 10 12 23 16 30.0000000  0  8G02G04G12G13G20G23G30G31
   -455636.31248   -319653.30946
                  21025600.6024                                   21025594.6024
                                                                        53.0004
        41.5004
    722406.40648    578386.88346
                  20747703.2664                                   20747699.7894
                                                                        52.5004
        41.2504
   1466506.76647   1144774.46945
                  23827400.5704                                   23827395.2504
                                                                        46.5004
        30.2504
   -766838.11348   -556745.13345
                  22195315.1884                                   22195310.7424
                                                                        48.7504
        32.2504
   1833975.59046   1425351.32843
                  24227620.1484                                   24227615.9064
                                                                        39.0004
        19.5004
    363737.61748    305224.03945
                  21880996.5164                                   21880990.0394
                                                                        49.2504
        34.7504
    800296.33647    637937.39544
                  22767814.1954                                   22767809.8134
                                                                        45.0004
        29.2504
    730595.36347    581673.10244
                  23856696.3284                                   23856690.9414
                                                                        44.5004
        26.5004
 09 10 12 23 17  0.0000000  0  8G02G04G12G13G20G23G30G31
   -593472.39848   -427058.08246
                  20999371.0084                                   20999365.1644
                                                                        51.2504
        41.7504
    669423.61348    537101.58646
                  20737620.9614                                   20737617.0164
                                                                        52.7504
        41.0004
   1465497.25447   1143987.82845
                  23827208.5164                                   23827203.1334
                                                                        46.5004
        30.2504
   -926763.77348   -681362.54345
                  22164882.3054                                   22164877.6414
                                                                        49.0004
        32.2504
   1859246.03946   1445042.51243
                  24232428.4924                                   24232424.9614
                                                                        38.5004
        19.0004
    285729.48848    244438.51245
                  21866152.2274                                   21866145.2734
                                                                        48.7504
        34.5004
    753557.43847    601517.47844
                  22758920.0314                                   22758916.2464
                                                                        43.5004
        29.2504
    678116.09847    540780.07844
                  23846709.8594                                   23846704.6604
                                                                        44.2504
        26.5004
 09 10 12 23 17 30.0000000  0  8G02G04G12G13G20G23G30G31
   -730422.25048   -533772.33246
                  20973310.4144                                   20973304.2774
                                                                        52.5004
        41.2504
    617386.02048    496552.80546
                  20727719.0634                                   20727714.8914
                                                                        52.7504
        40.5004
   1465263.80947   1143805.88345
                  23827163.4614                                   23827158.6254
                                                                        45.7504
        30.5004
  -1085774.57048   -805267.01645
                  22134623.7194                                   22134618.9654
                                                                        49.5004
        32.0004
   1885082.38746   1465174.69543
                  24237345.6804                                   24237341.2154
                                                                        39.5004
        19.5004
    208759.05548    184461.55945
                  21851505.2504                                   21851498.6024
                                                                        49.5004
        35.2504
    707853.51247    565904.03544
                  22750223.1564                                   22750219.0554
                                                                        44.0004
        28.7504
    626606.85247    500642.92244
                  23836907.4924                                   23836902.6334
                                                                        44.7504
        26.7504
 09 10 12 23 18  0.0000000  0  8G02G04G12G13G20G23G30G31
   -866504.44548   -639810.46146
                  20947414.7894                                   20947408.9304
                                                                        51.5004
        41.5004
    566272.07048    456723.75046
                  20717991.9454                                   20717988.4184
                                                                        52.5004
        41.2504
   1465783.81347   1144211.06345
                  23827262.5634                                   23827258.3554
                                                                        44.7504
        30.7504
  -1243888.85548   -928472.92645
                  22104535.9224                                   22104530.4064
                                                                        49.2504
        32.2504
   1911461.87146   1485730.17643
                  24242365.2424                                   24242361.5234
                                                                        41.0004
        21.2504
    132805.41048    125276.87545
                  21837051.6954                                   21837045.1174
                                                                        49.2504
        34.5004
    663163.27347    531080.48444
                  22741718.4924                                   22741714.6684
                                                                        43.7504
        29.7504
    576046.68047    461245.38344
                  23827286.5784                                   23827281.2344
                                                                        44.5004
        26.5004
 09 10 12 23 18 30.0000000  0  8G02G04G12G13G20G23G30G31
  -1001739.95748   -745188.80147
                  20921680.4224                                   20921674.3014
                                                                        52.0004
        42.0004
    516058.02348    417595.92646
                  20708436.5784                                   20708432.4654
                                                                        53.2504
        41.5004
   1467031.78147   1145183.45345
                  23827499.7894                                   23827495.9614
                                                                        44.5004
        30.0004
  -1401126.93048  -1050996.08245
                  22074613.9774                                   22074609.4924
                                                                        48.5004
        33.2504
   1938359.35946   1506689.24643
                  24247483.7194                                   24247479.5084
                                                                        40.2504
        20.5004
     57845.50448     66866.49645
                  21822787.5004                                   21822780.9454
                                                                        50.2504
        34.7504
    619461.93447    497027.51244
                  22733402.2504                                   22733398.6294
                                                                        45.5004
        29.7504
    526410.87547    422568.22344
                  23817840.8134                                   23817836.2384
                                                                        44.7504
        26.7504
 09 10 12 23 19  0.0000000  0  8G02G04G12G13G20G23G30G31
  -1136142.06648   -849917.74646
                  20896104.6644                                   20896098.4064
                                                                        52.0004
        41.7504
    466728.12148    379157.05546
                  20699049.4774                                   20699045.6724
                                                                        53.5004
        41.2504
   1468989.67247   1146709.05544
                  23827872.2584                                   23827868.1414
                                                                        45.0004
        29.5004
  -1557501.14148  -1172846.11345
                  22044856.8594                                   22044852.4964
                                                                        49.7504
        33.5004
   1965757.69146   1528038.62943
                  24252697.9144                                   24252693.2974
                                                                        39.7504
        20.0004
    -16135.59848      9218.86345
                  21808709.1414                                   21808702.5864
                                                                        49.5004
        34.7504
    576732.47747    463731.78144
                  22725271.5634                                   22725267.6334
                                                                        45.0004
        29.7504
    477683.43447    384598.84044
                  23808568.3984                                   23808563.6724
                                                                        45.0004
        27.5004
 09 10 12 23 19 30.0000000  0  8G02G04G12G13G20G23G30G31
  -1269729.73848   -954012.05146
                  20870684.0394                                   20870677.5434
                                                                        51.5004
        41.7504
    418260.88348    341390.39546
                  20689826.4774                                   20689822.6094
                                                                        53.0004
        41.7504
   1471634.68847   1148770.09444
                  23828376.1414                                   23828371.6644
                                                                        44.2504
        29.5004
  -1713029.27048  -1294036.84845
                  22015261.0864                                   22015256.8244
                                                                        49.5004
        33.5004
   1993634.68046   1549760.93042
                  24258001.5394                                   24257998.1484
                                                                        39.0004
        17.7504
    -89159.16848    -47682.61745
                  21794813.3754                                   21794806.6804
                                                                        48.7504
        35.0004
    534953.17247    431176.39544
                  22717320.9614                                   22717317.6724
                                                                        45.7504
        29.5004
    429842.78147    347320.36744
                  23799464.3754                                   23799460.2854
                                                                        44.2504
        27.7504
 09 10 12 23 20  0.0000000  0  8G02G04G12G13G20G23G30G31
  -1402517.23048  -1057482.84846
                  20845415.0394                                   20845409.1724
                                                                        52.2504
        41.5004
    370639.64848    304282.93846
                  20680764.4534                                   20680760.4494
                                                                        53.0004
        41.2504
   1474947.79747   1151351.69944
                  23829006.4144                                   23829001.8484
                                                                        46.5004
        29.0004
  -1867724.59448  -1414578.66445
                  21985823.5394                                   21985819.4964
                                                                        49.0004
        33.0004
   2021972.28946   1571842.21543
                  24263395.3674                                   24263391.2384
                                                                        40.5004
        19.5004
   -161241.15648   -103850.48045
                  21781096.5234                                   21781090.3054
                                                                        49.5004
        35.0004
    494106.56347    399347.89145
                  22709548.1254                                   22709544.5004
                                                                        45.2504
        30.5004
    382871.79347    310719.65244
                  23790525.8674                                   23790522.1214
                                                                        43.5004
        26.7504
 09 10 12 23 20 30.0000000  0  8G02G04G12G13G20G23G30G31
  -1534518.24648  -1160340.78947
                  20820296.1024                                   20820290.4304
                                                                        52.5004
        42.0004
    323847.78148    267821.71946
                  20671860.2664                                   20671856.2074
                                                                        53.2504
        41.0004
   1478911.21547   1154440.11344
                  23829760.8444                                   23829755.4304
                                                                        45.5004
        29.5004
  -2021600.32448  -1534481.82045
                  21956541.6564                                   21956537.2854
                                                                        49.0004
        33.5004
   2050752.66046   1594268.46943
                  24268872.1334                                   24268867.2194
                                                                        40.2504
        19.5004
   -232397.60948   -159297.13345
                  21767555.9454                                   21767549.7034
                                                                        49.0004
        34.5004
    454175.25447    368232.58244
                  22701949.6024                                   22701945.4144
                                                                        44.7504
        29.5004
    336753.35247    274783.21544
                  23781749.7194                                   23781746.0554
                                                                        43.5004
        26.0004
 09 10 12 23 21  0.0000000  0  8G02G04G12G13G20G23G30G31
  -1665744.87548  -1262595.34846
                  20795324.3134                                   20795318.5314
                                                                        51.7504
        41.5004
    277870.60548    231995.33246
                  20663111.1024                                   20663107.1374
                                                                        53.0004
        41.2504
   1483508.16847   1158022.18845
                  23830635.3364                                   23830630.2464
                                                                        46.2504
        30.0004
  -2174667.66848  -1653755.09045
                  21927414.3054                                   21927409.4144
                                                                        48.7504
        33.0004
   2079959.73446   1617027.18043
                  24274428.8134                                   24274425.4774
                                                                        39.7504
        20.7504
   -302642.81248   -214033.69145
                  21754188.8754                                   21754182.2464
                                                                        49.5004
        34.7504
    415143.93047    337818.57845
                  22694522.0314                                   22694518.1804
                                                                        44.5004
        30.0004
    291472.82847    239499.70344
                  23773133.2814                                   23773129.2504
                                                                        42.0004
        25.5004
 09 10 12 23 21 30.0000000  0  7G02G04G12G13G23G30G31
  -1796208.54348  -1364255.37146
                  20770498.4384                                   20770492.1254
                                                                        52.0004
        41.7504
    232694.53148    196793.19546
                  20654514.1884                                   20654510.7274
                                                                        52.2504
        41.0004
   1488723.08247   1162085.74644
                  23831627.7194                                   23831623.3244
                                                                        45.0004
        29.0004
  -2326936.65248  -1772406.21945
                  21898438.2974                                   21898433.4184
                                                                        49.0004
        32.7504
   -371989.40648   -268070.02345
                  21740992.7274                                   21740986.2384
                                                                        48.7504
        34.7504
    376997.68047    308094.23844
                  22687262.8754                                   22687259.0004
                                                                        44.0004
        29.7504
    247015.92546    204857.97444
                  23764672.9614                                   23764669.5084
                                                                        41.2504
        26.5004
 09 10 12 23 22  0.0000000  0  7G02G04G12G13G23G30G31
  -1925920.64848  -1465329.77347
                  20745815.0554                                   20745808.6884
                                                                        52.0004
        42.0004
    188305.07848    162204.02046
                  20646067.0474                                   20646063.3914
                                                                        52.5004
        41.7504
   1494539.88747   1166618.31344
                  23832734.1564                                   23832729.6024
                                                                        44.0004
        29.0004
  -2478418.15248  -1890443.72345
                  21869612.4924                                   21869607.8404
                                                                        49.0004
        32.5004
   -440451.34048   -321416.96145
                  21727964.3444                                   21727958.0394
                                                                        48.5004
        35.0004
    339721.50447    279047.84444
                  22680169.7034                                   22680165.9924
                                                                        45.5004
        29.5004
    203367.83647    170846.52044
                  23756366.9144                                   23756363.2464
                                                                        42.5004
        28.0004
 09 10 12 23 22 30.0000000  0  7G02G04G12G13G23G30G31
  -2054887.31248  -1565823.28547
                  20721273.2504                                   20721267.0664
                                                                        51.5004
        42.2504
    144693.70348    128221.16446
                  20637768.3984                                   20637764.4344
                                                                        53.0004
        41.5004
   1500948.27347   1171611.82044
                  23833953.4384                                   23833949.6884
                                                                        44.5004
        28.7504
  -2629117.84048  -2007872.04745
                  21840935.2344                                   21840930.4924
                                                                        50.0004
        33.0004
   -508036.86348   -374081.02745
                  21715103.6884                                   21715097.0864
                                                                        49.0004
        34.7504
    303305.81347    250671.99245
                  22673240.2114                                   22673236.4024
                                                                        44.5004
        30.5004
    160519.81647    137458.52044
                  23748213.8984                                   23748209.8094
                                                                        43.5004
        27.0004
 09 10 12 23 23  0.0000000  0  8G02G04G12G13G29G23G30G31
  -2183112.62148  -1665739.10246
                  20696872.8524                                   20696866.9344
                                                                        51.5004
        41.7504
    101853.46948     94839.14846
                  20629616.2584                                   20629612.3874
                                                                        52.5004
        40.7504
   1507939.75447   1177059.73844
                  23835284.8914                                   23835280.0634
                                                                        44.5004
        28.0004
  -2779038.66048  -2124693.48445
                  21812405.8134                                   21812401.5204
                                                                        49.2504
        33.0004
   1264917.20356   1029739.34453
                  24272980.2114                                   24272975.9964
                                                                        40.0004
        22.5004
   -574752.31648   -426067.13745
                  21702408.2664                                   21702401.8794
                                                                        48.5004
        34.7504
    267743.41847    222961.02045
                  22666472.5554                                   22666469.6054
                                                                        44.7504
        30.0004
    118464.46547    104688.16844
                  23740210.7504                                   23740206.3364
                                                                        42.5004
        27.2504
 09 10 12 23 23 30.0000000  0  8G02G04G12G13G29G23G30G31
  -2310615.01248  -1765091.59847
                  20672609.9614                                   20672604.1134
                                                                        51.5004
        42.0004
     59763.39848     62041.68846
                  20621606.4384                                   20621602.4924
                                                                        53.0004
        41.2504
   1515491.25447   1182944.00044
                  23836721.5004                                   23836717.2304
                                                                        43.5004
        28.2504
  -2928198.52048  -2240921.93745
                  21784021.5234                                   21784017.4344
                                                                        49.5004
        33.0004
   1081314.07847    886671.95743
                  24238041.6804                                   24238037.2194
                                                                        42.0004
        22.7504
   -640617.98048   -477391.09445
                  21689874.4694                                   21689868.0634
                                                                        48.5004
        35.0004
    233012.32447    195897.82045
                  22659863.5634                                   22659860.1524
                                                                        44.2504
        30.0004
     77180.64147     72518.95344
                  23732354.7504                                   23732350.7974
                                                                        42.5004
        27.2504
 09 10 12 23 24  0.0000000  0  8G02G04G12G13G29G23G30G31
   -861987.69548   -636291.07847
                  20948274.7974                                   20948268.8554
                                                                        51.0004
        42.0004
   1593824.92248   1257414.30946
                  20913528.7664                                   20913525.1054
                                                                        52.5004
        41.5004
   3099000.66447   2416847.40644
                  24138053.5234                                   24138049.1804
                                                                        44.5004
        29.7504
  -1501188.59448  -1128966.14845
                  22055572.7584                                   22055568.5434
                                                                        49.5004
        33.0004
   2473570.86346   1971547.36744
                  24502979.8054                                   24502975.2974
                                                                        41.5004
        26.5004
    869768.66848    699533.54745
                  21977291.4144                                   21977284.8714
                                                                        48.7504
        34.5004
   1774512.82447   1397067.06344
                  22953201.3364                                   22953197.8874
                                                                        45.7504
        29.5004
   1612069.07447   1268535.89544
                  24024434.7894                                   24024430.1844
                                                                        43.2504
        27.2504
 09 10 12 23 24 30.0000000  0  8G02G04G12G13G29G23G30G31
   -988080.36748   -734545.10946
                  20924279.9924                                   20924273.6724
                                                                        51.0004
        41.5004
   1553191.29748   1225751.75046
                  20905796.4774                                   20905792.7544
                                                                        53.0004
        41.2504
   3107623.25847   2423566.24245
                  24139694.2664                                   24139690.1884
                                                                        45.0004
        30.5004
  -1648859.61348  -1244034.46945
                  22027471.8054                                   22027467.3914
                                                                        50.0004
        33.2504
   2290834.83246   1829155.66444
                  24468205.7664                                   24468202.8204
                                                                        40.5004
        27.7504
    805559.96548    649500.80545
                  21965073.0314                                   21965066.2774
                                                                        48.2504
        34.5004
   1741397.89147   1371263.23444
                  22946899.6334                                   22946896.2384
                                                                        46.0004
        29.2504
   1572283.07847   1237533.81344
                  24016863.6174                                   24016859.5474
                                                                        43.0004
        27.7504
 09 10 12 23 25  0.0000000  0  8G02G04G12G13G29G23G30G31
  -1113476.75848   -832256.57847
                  20900417.7344                                   20900411.8674
                                                                        51.0004
        42.5004
   1513273.31348   1194646.81646
                  20898200.4304                                   20898196.6174
                                                                        53.0004
        41.5004
   3116766.58647   2430690.90245
                  24141434.6804                                   24141429.9884
                                                                        44.5004
        30.0004
  -1795793.88348  -1358528.69545
                  21999511.1954                                   21999507.0234
                                                                        49.2504
        34.0004
   2108525.24246   1687096.26644
                  24433512.5084                                   24433510.0824
                                                                        39.0004
        24.5004
    742167.69548    600104.23045
                  21953009.3284                                   21953003.5784
                                                                        48.2504
        35.0004
   1709077.10247   1346078.18045
                  22940748.9774                                   22940746.0944
                                                                        44.2504
        30.0004
   1533232.56646   1207104.80544
                  24009432.3594                                   24009428.2384
                                                                        41.5004
        27.5004
 09 10 12 23 25 30.0000000  0  8G02G04G12G13G29G23G30G31
  -1238175.57848   -929424.48847
                  20876687.9304                                   20876682.4414
                                                                        50.5004
        42.0004
   1474069.71548   1164098.55146
                  20890740.0004                                   20890736.3204
                                                                        52.5004
        41.0004
   3126426.99247   2438218.44945
                  24143272.6484                                   24143267.9924
                                                                        44.5004
        30.2504
  -1941988.71948  -1472446.73045
                  21971691.2344                                   21971686.6914
                                                                        49.5004
        34.0004
   1926644.50846   1545371.12144
                  24398901.6724                                   24398899.4774
                                                                        39.0004
        25.0004
    679591.56347    551343.60945
                  21941101.5554                                   21941095.7074
                                                                        47.7504
        34.5004
   1677548.32847   1321510.30944
                  22934749.3834                                   22934746.4064
                                                                        43.7504
        28.7504
   1494916.26646   1177247.97744
                  24002141.2194                                   24002136.8054
                                                                        40.7504
        27.2504
 09 10 12 23 26  0.0000000  0  8G02G04G12G13G29G23G30G31
  -1362186.91848  -1026056.69947
                  20853089.5704                                   20853083.8984
                                                                        50.5004
        42.0004
   1435567.82448   1134097.07046
                  20883413.7034                                   20883410.1024
                                                                        53.0004
        41.2504
   3136590.39547   2446137.95744
                  24145206.5864                                   24145201.6254
                                                                        45.0004
        28.5004
  -2087453.66048  -1585796.03145
                  21944010.4774                                   21944005.9304
                                                                        49.5004
        34.0004
   1745183.65246   1403973.07443
                  24364371.7274                                   24364368.9384
                                                                        39.7504
        23.7504
    617818.91047    503209.08645
                  21929347.0474                                   21929340.3134
                                                                        47.5004
        34.2504
   1646798.08247   1297549.07044
                  22928897.7894                                   22928894.0554
                                                                        43.2504
        28.7504
   1457320.95747   1147952.96944
                  23994986.6254                                   23994982.7154
                                                                        44.0004
        27.5004
 09 10 12 23 26 30.0000000  0  8G02G04G12G13G29G23G30G31
  -1485512.15648  -1122154.30547
                  20829621.7504                                   20829615.8554
                                                                        50.0004
        42.2504
   1397763.58648   1104639.21146
                  20876219.5314                                   20876216.1994
                                                                        53.5004
        41.0004
   3147251.19147   2454445.05144
                  24147234.9924                                   24147230.4264
                                                                        44.5004
        27.5004
  -2232189.44548  -1698577.14845
                  21916467.7504                                   21916463.2934
                                                                        49.5004
        33.7504
   1564142.46146   1262902.07844
                  24329920.6884                                   24329917.3984
                                                                        41.5004
        25.0004
    556846.51248    455698.13345
                  21917744.6254                                   21917737.8834
                                                                        48.5004
        34.7504
   1616821.34447   1274190.57844
                  22923193.7034                                   22923190.2384
                                                                        44.5004
        29.2504
   1420442.38347   1119216.43044
                  23987969.0234                                   23987965.1564
                                                                        43.2504
        26.5004
 09 10 12 23 27  0.0000000  0  9G02G04G12G13G29G23G30G31G10
  -1608156.18448  -1217721.09847
                  20806283.3444                                   20806277.0904
                                                                        50.2504
        43.0004
   1360649.41848   1075719.05946
                  20869157.0394                                   20869153.2114
                                                                        52.7504
        41.0004
   3158400.06347   2463132.48044
                  24149356.3674                                   24149351.7504
                                                                        44.5004
        26.0004
  -2376200.07848  -1810793.21545
                  21889063.8204                                   21889059.1914
                                                                        49.5004
        33.5004
   1383516.87546   1122154.87944
                  24295548.5084                                   24295545.0904
                                                                        40.7504
        24.5004
    496667.05947    408805.07845
                  21906292.6174                                   21906286.2584
                                                                        47.7504
        34.0004
   1587609.88747   1251428.41444
                  22917634.6334                                   22917631.1214
                                                                        45.5004
        29.0004
   1384272.51247   1091032.18844
                  23981086.5944                                   23981081.4884
                                                                        44.0004
        28.2504
   2815377.95757   2241373.59854
                  24188133.0084                                   24188130.1214
                                                                        42.5004
        26.0004
 09 10 12 23 27 30.0000000  0  9G02G04G12G13G29G23G30G31G10
  -1730129.00848  -1312764.85947
                  20783072.9534                                   20783066.6024
                                                                        50.7504
        42.0004
   1324212.75048   1047326.83646
                  20862223.3914                                   20862219.6914
                                                                        52.2504
        41.0004
   3170022.64547   2472189.05544
                  24151568.2034                                   24151563.4734
                                                                        43.2504
        27.5004
  -2519494.81648  -1922451.45745
                  21861795.8674                                   21861791.1414
                                                                        49.7504
        34.5004
   1203297.84046    981724.47744
                  24261254.5394                                   24261250.4304
                                                                        41.0004
        24.0004
    437268.02747    362520.07045
                  21894989.0234                                   21894982.7384
                                                                        47.7504
        34.2504
   1559149.83247   1229251.78944
                  22912219.1414                                   22912215.4574
                                                                        45.5004
        29.0004
   1348798.12547   1063389.86744
                  23974335.5394                                   23974330.9614
                                                                        44.0004
        27.2504
   2616886.99647   2086705.35944
                  24150361.5164                                   24150358.3164
                                                                        43.2504
        24.5004
 09 10 12 23 28  0.0000000  0  9G02G04G12G13G29G23G30G31G10
  -1851436.79748  -1407290.39547
                  20759988.5784                                   20759982.5314
                                                                        51.5004
        42.0004
   1288444.73448   1019455.65646
                  20855416.8674                                   20855413.4774
                                                                        53.2504
        41.5004
   3182108.44547   2481606.55544
                  24153868.0004                                   24153864.0634
                                                                        44.0004
        27.2504
  -2662079.02348  -2033556.04345
                  21834662.9774                                   21834658.5164
                                                                        49.2504
        34.2504
   1023480.48446    841607.07443
                  24227035.9064                                   24227031.9304
                                                                        41.2504
        23.2504
    378641.51247    316837.06645
                  21883833.3834                                   21883826.9654
                                                                        47.5004
        35.2504
   1531431.38347   1207653.03145
                  22906944.6644                                   22906940.9924
                                                                        44.5004
        30.2504
   1314009.73047   1036282.06644
                  23967715.9304                                   23967711.0634
                                                                        42.5004
        26.5004
   2418686.72747   1932263.60544
                  24112645.3594                                   24112641.5784
                                                                        44.0004
        24.5004
 09 10 12 23 28 30.0000000  0  9G02G04G12G13G29G23G30G31G10
  -1972078.30548  -1501296.75847
                  20737031.3524                                   20737025.3014
                                                                        50.5004
        42.2504
   1253343.77048    992104.23846
                  20848737.5944                                   20848733.7194
                                                                        52.7504
        41.0004
   3194654.35247   2491382.55544
                  24156255.8594                                   24156251.6294
                                                                        45.0004
        28.2504
  -2803950.82848  -2144105.49245
                  21807665.4614                                   21807660.9844
                                                                        49.7504
        34.0004
    844067.16046    701804.51643
                  24192894.7034                                   24192891.0744
                                                                        40.0004
        23.7504
    320786.29748    271755.02045
                  21872823.8834                                   21872817.6954
                                                                        48.5004
        35.0004
   1504452.52747   1186630.58244
                  22901810.5634                                   22901806.7624
                                                                        44.7504
        28.7504
   1279905.77746   1009707.57044
                  23961225.3054                                   23961221.2274
                                                                        40.2504
        26.0004
   2220779.23047   1778049.97343
                  24074984.4534                                   24074980.7774
                                                                        44.7504
        23.5004
 09 10 12 23 29  0.0000000  0  9G02G04G12G13G29G23G30G31G10
  -2092053.93048  -1594784.24247
                  20714200.5784                                   20714194.1214
                                                                        51.0004
        42.7504
   1218906.84448    965270.27746
                  20842184.2344                                   20842180.3134
                                                                        51.7504
        41.0004
   3207655.57847   2501513.35245
                  24158730.1804                                   24158725.9064
                                                                        45.7504
        30.5004
  -2945109.73848  -2254099.43745
                  21780803.7814                                   21780799.2074
                                                                        50.0004
        34.5004
    665058.50046    562317.33644
                  24158830.2584                                   24158827.0354
                                                                        39.5004
        24.2504
    263699.57048    227271.81645
                  21861960.4304                                   21861954.5164
                                                                        49.0004
        34.7504
   1478209.25047   1166181.28944
                  22896816.6024                                   22896812.6134
                                                                        44.5004
        29.2504
   1246482.80546    983663.71544
                  23954866.0084                                   23954860.6564
                                                                        40.5004
        26.5004
   2023164.56647   1624064.53544
                  24037379.8284                                   24037376.1024
                                                                        43.5004
        25.5004
 09 10 12 23 29 30.0000000  0  9G02G04G12G13G29G23G30G31G10
  -2211362.91048  -1687752.28147
                  20691496.8284                                   20691491.0044
                                                                        51.0004
        42.0004
   1185132.24648    938952.39846
                  20835757.1414                                   20835753.4184
                                                                        52.2504
        40.5004
   3221108.60547   2511996.22345
                  24161290.2584                                   24161285.7114
                                                                        45.5004
        30.7504
  -3085554.32048  -2363536.77045
                  21754077.8674                                   21754073.2814
                                                                        48.7504
        34.2504
    486456.28546    423146.87944
                  24124843.6414                                   24124840.4534
                                                                        41.2504
        27.0004
    207380.45348    183386.82845
                  21851243.1174                                   21851237.1094
                                                                        48.5004
        34.0004
   1452698.52047   1146302.83244
                  22891961.9534                                   22891958.0554
                                                                        43.7504
        29.0004
   1213738.58246    958148.76244
                  23948634.4534                                   23948629.8714
                                                                        40.7504
        25.5004
   1825844.48046   1470308.67644
                  23999831.3134                                   23999828.0474
                                                                        41.2504
        24.0004
 09 10 12 23 30  0.0000000  0  9G02G04G12G13G29G23G30G31G10
  -2330010.28548  -1780204.78547
                  20668918.9224                                   20668912.8444
                                                                        51.2504
        42.5004
   1152012.14548    913144.53146
                  20829454.6094                                   20829451.1604
                                                                        52.2504
        41.0004
   3235004.11747   2522823.88344
                  24163934.0164                                   24163930.1994
                                                                        44.5004
        29.2504
  -3225288.99248  -2472420.94545
                  21727487.7664                                   21727483.0434
                                                                        48.7504
        34.5004
    308256.66847    284290.09444
                  24090932.9534                                   24090930.0664
                                                                        42.5004
        27.0004
    151821.08648    140093.84445
                  21840670.5164                                   21840664.4574
                                                                        48.5004
        34.0004
   1427911.73047   1126988.47344
                  22887245.0004                                   22887241.2344
                                                                        44.5004
        28.7504
   1181664.80546    933156.21144
                  23942531.4774                                   23942526.2974
                                                                        41.5004
        25.2504
   1628814.54346   1316778.95344
                  23962337.0944                                   23962334.1334
                                                                        40.7504
        25.5004
 09 10 12 23 30 30.0000000  0  9G02G04G12G13G29G23G30G31G10
  -2447995.69548  -1872141.49647
                  20646467.3834                                   20646461.2234
                                                                        52.2504
        42.0004
   1119544.58248    887845.12146
                  20823276.0394                                   20823272.1884
                                                                        52.5004
        41.5004
   3249338.55147   2533993.52744
                  24166661.7894                                   24166657.4454
                                                                        42.5004
        26.5004
  -3364312.32048  -2580750.82845
                  21701032.3594                                   21701027.4104
                                                                        48.5004
        34.7504
    130461.71147    145748.64544
                  24057099.8444                                   24057096.5784
                                                                        42.5004
        28.5004
     97019.85248     97391.54345
                  21830242.4614                                   21830235.8484
                                                                        48.5004
        34.5004
   1403846.33647   1108236.23044
                  22882665.3984                                   22882662.0864
                                                                        45.5004
        28.2504
   1150259.00447    908684.14144
                  23936554.8284                                   23936549.9844
                                                                        42.2504
        25.5004
   1432076.76247   1163476.87544
                  23924899.8754                                   23924896.2734
                                                                        42.7504
        25.5004
 09 10 12 23 31  0.0000000  0  9G02G04G12G13G29G23G30G31G10
  -2565323.32448  -1963565.71547
                  20624140.4924                                   20624134.7624
                                                                        51.7504
        42.0004
   1087722.51648    863048.72746
                  20817220.5944                                   20817217.0354
                                                                        52.2504
        41.5004
   3264103.50046   2545498.63744
                  24169471.7734                                   24169467.2934
                                                                        41.2504
        25.5004
  -3502628.00448  -2688529.27345
                  21674711.5944                                   21674707.1054
                                                                        49.5004
        35.0004
    -46931.88347      7519.91044
                  24023343.3204                                   24023339.3554
                                                                        43.0004
        27.7504
     42970.36748     55275.09845
                  21819957.0234                                   21819950.6414
                                                                        48.0004
        34.5004
   1380494.07447   1090039.62544
                  22878221.8594                                   22878218.4884
                                                                        45.5004
        29.5004
   1119514.10246    884727.09044
                  23930704.2814                                   23930699.4774
                                                                        41.2504
        25.2504
   1235627.23047   1010399.38344
                  23887516.4454                                   23887513.1604
                                                                        44.0004
        26.5004
 09 10 12 23 31 30.0000000  0  9G02G04G12G13G29G23G30G31G10
  -2681995.03948  -2054478.70747
                  20601938.6564                                   20601932.7504
                                                                        52.0004
        42.2504
   1056541.17648    838751.57846
                  20811286.9534                                   20811283.1134
                                                                        52.7504
        41.2504
   3279292.28147   2557334.02044
                  24172361.8754                                   24172356.9384
                                                                        42.5004
        24.5004
  -3640236.98048  -2795757.04345
                  21648525.4144                                   21648521.1524
                                                                        48.7504
        34.5004
   -223925.67247   -130397.32844
                  23989661.6414                                   23989658.3984
                                                                        42.2504
        26.0004
    -10331.89548     13740.88345
                  21809813.5864                                   21809807.4774
                                                                        49.5004
        34.7504
   1357849.00047   1072394.06344
                  22873913.0004                                   22873908.9884
                                                                        46.2504
        29.5004
   1089424.18446    861280.43844
                  23924978.0004                                   23924973.7814
                                                                        41.5004
        25.7504
   1039464.37147    857545.27744
                  23850187.7894                                   23850184.3594
                                                                        44.2504
        28.0004
 09 10 12 23 32  0.0000000  0  9G02G04G12G13G29G23G30G31G10
  -2798014.51648  -2144883.46547
                  20579860.7194                                   20579854.7774
                                                                        51.5004
        42.5004
   1025994.62948    814949.09846
                  20805474.2734                                   20805470.6174
                                                                        52.7504
        41.2504
   3294897.14847   2569493.67244
                  24175331.5234                                   24175326.2154
                                                                        43.5004
        27.0004
  -3777142.32448  -2902436.52045
                  21622473.2424                                   21622468.8094
                                                                        49.0004
        34.2504
   -400521.24246   -268004.25044
                  23956057.0004                                   23956053.2894
                                                                        41.5004
        25.5004
    -62892.68448    -27215.61345
                  21799812.0234                                   21799805.4614
                                                                        48.0004
        34.7504
   1335904.62147   1055294.54344
                  22869736.9774                                   22869733.2424
                                                                        45.5004
        29.0004
   1059983.30146    838339.46944
                  23919375.6174                                   23919371.1094
                                                                        41.5004
        26.7504
    843585.88747    704912.70344
                  23812912.8204                                   23812909.4264
                                                                        43.2504
        26.0004
 09 10 12 23 32 30.0000000  0  9G02G04G12G13G29G23G30G31G10
  -2913383.93048  -2234781.75447
                  20557906.7734                                   20557900.5554
                                                                        52.0004
        42.0004
    996078.09448    791637.51246
                  20799781.2664                                   20799777.3364
                                                                        53.0004
        41.0004
   3310911.93447   2581972.69944
                  24178379.4304                                   24178374.0434
                                                                        44.0004
        27.0004
  -3913345.15248  -3008568.58645
                  21596554.8054                                   21596549.9964
                                                                        49.5004
        35.0004
   -576719.71546   -405301.72343
                  23922527.1334                                   23922523.5944
                                                                        40.5004
        23.5004
   -114716.15648    -67597.47745
                  21789950.1484                                   21789943.8054
                                                                        49.2504
        34.5004
   1314655.06647   1038736.43844
                  22865693.7274                                   22865689.7274
                                                                        44.5004
        29.2504
   1031185.89146    815899.91044
                  23913895.6484                                   23913891.3324
                                                                        41.7504
        27.0004
    647990.85547    552501.03143
                  23775692.4064                                   23775688.5204
                                                                        42.7504
        23.7504
 09 10 12 23 33  0.0000000  0  9G02G04G12G13G29G23G30G31G10
  -3028105.21548  -2324174.96147
                  20536075.8984                                   20536070.2034
                                                                        51.5004
        42.2504
    966786.52048    768812.92246
                  20794207.5164                                   20794203.8204
                                                                        52.5004
        40.2504
   3327330.24647   2594766.17244
                  24181503.8914                                   24181499.2034
                                                                        44.0004
        27.7504
  -4048847.25848  -3114154.62945
                  21570769.4304                                   21570764.6804
                                                                        50.2504
        34.5004
   -752521.94546   -542290.43743
                  23889073.3054                                   23889069.5204
                                                                        39.7504
        22.7504
   -165806.75448   -107408.30545
                  21780227.8204                                   21780221.5944
                                                                        49.0004
        34.0004
   1294094.43847   1022715.09044
                  22861780.7034                                   22861776.7734
                                                                        45.5004
        29.5004
   1003027.22747    793958.10244
                  23908538.2194                                   23908532.8524
                                                                        42.2504
        27.2504
    452677.65247    400308.97744
                  23738525.3984                                   23738522.3164
                                                                        43.0004
        25.2504
 09 10 12 23 33 30.0000000  0  9G02G04G12G13G29G23G30G31G10
  -3142178.83248  -2413063.54747
                  20514368.7344                                   20514362.6454
                                                                        51.2504
        42.5004
    938117.23048    746473.19146
                  20788751.7664                                   20788747.7934
                                                                        52.5004
        40.7504
   3344147.59047   2607870.56344
                  24184703.6884                                   24184699.0314
                                                                        43.0004
        29.0004
  -4183647.98848  -3219194.14545
                  21545117.4924                                   21545113.2424
                                                                        49.2504
        34.0004
   -927926.90246   -678969.59844
                  23855694.9774                                   23855691.4454
                                                                        40.7504
        27.0004
   -216167.78548   -146650.64845
                  21770644.5944                                   21770637.9614
                                                                        50.0004
        34.0004
   1274218.57047   1007227.39844
                  22857998.4534                                   22857995.0204
                                                                        45.2504
        29.5004
    975503.43847    772510.98044
                  23903299.5554                                   23903295.4534
                                                                        42.0004
        27.0004
    257646.52047    248336.71944
                  23701412.1724                                   23701408.8324
                                                                        42.7504
        25.5004
 09 10 12 23 34  0.0000000  0  9G02G04G12G13G29G23G30G31G10
  -1680183.67248  -1273846.52747
                  20792576.9454                                   20792570.6914
                                                                        51.7504
        42.5004
   2485485.43848   1952214.68046
                  21083206.1884                                   21083202.4614
                                                                        51.5004
        41.0004
   4936776.18447   3848879.83644
                  24487770.5704                                   24487766.4924
                                                                        42.5004
        28.0004
  -2742325.34848  -2096085.57845
                  21819392.4304                                   21819387.8914
                                                                        49.7504
        34.5004
    472489.49246    412263.97344
                  24122185.6884                                   24122181.8794
                                                                        41.0004
        28.5004
   1309617.49648   1042272.95345
                  22060991.8364                                   22060984.9104
                                                                        49.2504
        33.5004
   2830441.86347   2219868.93845
                  23154137.9064                                   23154134.5434
                                                                        44.2504
        30.2504
   2524029.45747   1979154.65244
                  24197974.6724                                   24197970.5594
                                                                        42.0004
        27.5004
   1638322.36347   1324188.10544
                  23964146.5944                                   23964142.8794
                                                                        43.5004
        28.7504
 09 10 12 23 34 30.0000000  0  9G02G04G12G13G29G23G30G31G10
  -1792967.27048  -1361729.83647
                  20771115.0084                                   20771108.9844
                                                                        51.7504
        42.5004
   2458046.66448   1930833.81646
                  21077984.7034                                   21077980.9804
                                                                        52.5004
        40.7504
   4954372.95347   3862591.53544
                  24491118.6644                                   24491115.6214
                                                                        42.5004
        26.7504
  -2875727.37148  -2200035.19945
                  21794006.6724                                   21794001.8794
                                                                        49.2504
        34.7504
    297877.12146    276202.44144
                  24088957.7584                                   24088954.0274
                                                                        41.2504
        28.7504
   1260704.03948   1004158.59445
                  22051683.7034                                   22051677.3444
                                                                        49.2504
        34.0004
   2811919.46147   2205435.87944
                  23150613.0634                                   23150609.6454
                                                                        45.7504
        29.7504
   2497760.43046   1958685.23844
                  24192975.8054                                   24192971.7814
                                                                        41.5004
        26.2504
   1443853.39147   1172653.92644
                  23927140.4454                                   23927136.9574
                                                                        43.5004
        28.7504
 09 10 12 23 35  0.0000000  0  9G02G04G12G13G29G23G30G31G10
  -1905107.66848  -1449111.92647
                  20749775.2274                                   20749769.2234
                                                                        52.0004
        42.5004
   2431217.78948   1909928.21146
                  21072879.2734                                   21072875.3794
                                                                        52.2504
        40.7504
   4972351.78147   3876600.96544
                  24494540.5944                                   24494536.4734
                                                                        42.5004
        27.0004
  -3008430.54348  -2303440.26645
                  21768754.1094                                   21768749.4964
                                                                        49.0004
        34.7504
    123661.04746    140449.69144
                  24055805.6024                                   24055802.0124
                                                                        41.0004
        27.2504
   1212508.85248    966603.88745
                  22042512.4844                                   22042506.3794
                                                                        48.5004
        34.0004
   2794066.67247   2191524.54744
                  23147215.8594                                   23147212.0664
                                                                        45.0004
        29.2504
   2472112.44546   1938699.77344
                  24188095.4144                                   24188090.9264
                                                                        41.7504
        26.5004
   1249665.22347   1021338.49644
                  23890187.2814                                   23890184.1884
                                                                        43.5004
        29.0004
 09 10 12 23 35 30.0000000  0  9G02G04G12G13G29G23G30G31G10
  -2016606.64848  -1535994.23847
                  20728557.8674                                   20728551.3554
                                                                        52.0004
        42.0004
   2404993.85548   1889493.98446
                  21067889.0394                                   21067885.6024
                                                                        52.2504
        41.0004
   4990706.22747   3890903.11344
                  24498033.6884                                   24498029.4534
                                                                        43.5004
        27.2504
  -3140436.12948  -2406301.75845
                  21743634.1954                                   21743629.5824
                                                                        49.5004
        35.5004
    -50159.24646      5005.35244
                  24022729.2734                                   24022725.3054
                                                                        40.5004
        27.5004
   1165027.83648    929605.70345
                  22033477.2734                                   22033470.9884
                                                                        49.0004
        34.0004
   2776877.89147   2178130.69544
                  23143945.1414                                   23143941.4264
                                                                        45.5004
        29.5004
   2447080.59846   1919194.46144
                  24183331.7734                                   24183327.1844
                                                                        41.5004
        27.0004
   1055756.66846    870240.95744
                  23853287.7734                                   23853284.3674
                                                                        41.5004
        27.2504
 09 10 12 23 36  0.0000000  0  9G02G04G12G13G29G23G30G31G10
  -2127462.50848  -1622375.43047
                  20707462.6174                                   20707456.3204
                                                                        51.7504
        42.0004
   2379374.81348   1869531.11746
                  21063013.7424                                   21063010.3714
                                                                        52.0004
        41.0004
   5009434.07847   3905496.25444
                  24501597.3054                                   24501592.6804
                                                                        44.5004
        28.0004
  -3271741.40248  -2508617.54745
                  21718647.8134                                   21718643.2234
                                                                        49.7504
        34.7504
   -223580.34446   -130127.93744
                  23989727.7584                                   23989724.0984
                                                                        39.7504
        25.5004
   1118260.77748    893163.82445
                  22024577.7274                                   22024571.4884
                                                                        49.2504
        34.0004
   2760351.26647   2165252.78944
                  23140800.4534                                   23140796.6604
                                                                        45.0004
        29.0004
   2422663.72747   1900168.30144
                  24178685.7114                                   24178681.3134
                                                                        42.5004
        26.5004
    862130.90647    719363.79744
                  23816441.5474                                   23816438.1914
                                                                        42.2504
        26.2504
 09 10 12 23 36 30.0000000  0  9G02G04G12G13G29G23G30G31G10
  -2237678.16848  -1708257.75847
                  20686489.0784                                   20686483.5394
                                                                        52.5004
        42.5004
   2354354.52348   1850034.78946
                  21058252.6724                                   21058249.3134
                                                                        52.0004
        40.5004
   5028528.65647   3920375.17244
                  24505230.8984                                   24505226.4534
                                                                        44.7504
        26.0004
  -3402348.66448  -2610389.42245
                  21693793.7114                                   21693789.3444
                                                                        49.5004
        35.0004
   -396603.96546   -264951.48844
                  23956802.1414                                   23956798.1884
                                                                        40.0004
        26.5004
   1072202.18448    857274.00045
                  22015813.3834                                   22015806.3594
                                                                        48.7504
        34.2504
   2744480.26647   2152885.73444
                  23137779.3984                                   23137776.8054
                                                                        44.0004
        27.5004
   2398855.50447   1881616.43844
                  24174154.9144                                   24174150.3444
                                                                        43.2504
        27.5004
    668786.00447    568705.45344
                  23779650.0314                                   23779645.9454
                                                                        42.0004
        26.0004
 09 10 12 23 37  0.0000000  0  9G02G04G12G13G29G23G30G31G10
  -2347254.05948  -1793641.55147
                  20665637.7974                                   20665631.5394
                                                                        51.5004
        42.7504
   2329929.89848   1831002.61346
                  21053605.1414                                   21053601.1684
                                                                        51.7504
        40.5004
   5047985.15247   3935536.07444
                  24508933.4924                                   24508928.3404
                                                                        42.5004
        26.0004
  -3532257.96148  -2711617.43045
                  21669073.3674                                   21669068.3324
                                                                        50.0004
        35.0004
   -569229.27046   -399464.69944
                  23923953.2584                                   23923948.6174
                                                                        41.0004
        24.2504
   1026848.96148    821933.82445
                  22007182.8204                                   22007176.6254
                                                                        48.5004
        33.5004
   2729260.73847   2141026.34044
                  23134883.6954                                   23134880.3284
                                                                        44.2504
        27.2504
   2375652.35946   1863536.09044
                  24169739.3834                                   24169734.7544
                                                                        41.5004
        27.0004
    475722.51647    418266.40244
                  23742910.5554                                   23742907.5124
                                                                        42.0004
        27.0004
 09 10 12 23 37 30.0000000  0  9G02G04G12G13G29G23G30G31G10
  -2456194.68748  -1878530.29747
                  20644906.8914                                   20644900.8834
                                                                        51.7504
        42.2504
   2306093.64848   1812428.91446
                  21049068.8204                                   21049065.6174
                                                                        51.5004
        40.5004
   5067794.45346   3950971.86744
                  24512702.9384                                   24512698.1374
                                                                        41.7504
        26.5004
  -3661473.35948  -2812304.73846
                  21644484.2424                                   21644479.6524
                                                                        50.0004
        36.0004
   -741459.63546   -533670.17044
                  23891178.7424                                   23891174.6054
                                                                        41.7504
        26.5004
    982194.18448    787137.88745
                  21998684.8524                                   21998678.6954
                                                                        48.2504
        33.0004
   2714684.47747   2129668.20744
                  23132110.3524                                   23132105.8364
                                                                        45.2504
        27.5004
   2353046.58646   1845921.23044
                  24165437.2974                                   24165433.1764
                                                                        39.5004
        25.7504
    282936.32847    268043.43444
                  23706224.3674                                   23706221.4574
                                                                        43.0004
        28.5004
 09 10 12 23 38  0.0000000  0  9G02G04G12G13G29G23G30G31G10
  -2564498.46548  -1962922.85947
                  20624297.3914                                   20624291.3484
                                                                        52.2504
        42.0004
   2282845.17648   1794313.24246
                  21044644.7584                                   21044640.9414
                                                                        51.7504
        40.7504
   5087954.42247   3966680.91444
                  24516539.2734                                   24516534.6024
                                                                        42.5004
        26.7504
  -3789992.00048  -2912449.13745
                  21620027.9384                                   21620023.2154
                                                                        50.7504
        35.0004
   -913291.88747   -667565.39544
                  23858479.7664                                   23858476.6414
                                                                        43.0004
        29.5004
    938237.42248    752885.85545
                  21990320.3204                                   21990314.1024
                                                                        48.5004
        32.2504
   2700749.42247   2118809.71144
                  23129458.3834                                   23129454.2934
                                                                        44.0004
        28.0004
   2331037.14147   1828771.05543
                  24161249.5784                                   24161244.4454
                                                                        42.0004
        23.5004
     90430.76247    118039.09844
                  23669592.4384                                   23669588.8054
                                                                        43.7504
        29.2504
 09 10 12 23 38 30.0000000  0  9G02G04G12G13G29G23G30G31G10
  -2672163.87148  -2046817.96547
                  20603809.2504                                   20603803.3134
                                                                        52.0004
        42.5004
   2260183.12948   1776654.49246
                  21040332.4064                                   21040328.7154
                                                                        52.0004
        40.7504
   5108462.32846   3982661.06344
                  24520441.5704                                   24520437.5664
                                                                        41.0004
        26.0004
  -3917812.01248  -3012049.14545
                  21595704.5234                                   21595699.8634
                                                                        50.0004
        35.2504
  -1084723.25847   -801148.21944
                  23825857.7894                                   23825854.3794
                                                                        43.5004
        29.5004
    894977.40248    719176.73045
                  21982088.6804                                   21982082.0824
                                                                        49.2504
        34.0004
   2687453.23847   2108449.02744
                  23126928.4304                                   23126924.1884
                                                                        45.2504
        27.5004
   2309621.73447   1812083.75843
                  24157173.9534                                   24157169.7584
                                                                        42.0004
        23.5004
   -101792.25047    -31745.02744
                  23633013.6334                                   23633010.2344
                                                                        45.0004
        29.7504
 09 10 12 23 39  0.0000000  0  9G02G04G12G13G29G23G30G31G10
  -2779195.97348  -2130219.59447
                  20583441.6174                                   20583435.3794
                                                                        52.5004
        42.5004
   2238099.90248   1759446.77046
                  21036130.1644                                   21036126.1054
                                                                        52.7504
        41.0004
   5129308.90646   3998905.07044
                  24524409.2664                                   24524404.4964
                                                                        40.5004
        27.5004
  -4044937.80148  -3111108.19145
                  21571513.3284                                   21571509.0394
                                                                        50.2504
        34.7504
  -1255757.34447   -934421.48044
                  23793310.9774                                   23793307.3094
                                                                        43.0004
        29.7504
    852407.23848    686005.17645
                  21973987.7894                                   21973981.6724
                                                                        48.5004
        33.0004
   2674787.32447   2098579.44944
                  23124518.5554                                   23124514.2234
                                                                        44.5004
        28.2504
   2288792.46146   1795853.14843
                  24153209.7504                                   24153205.4384
                                                                        41.0004
        22.2504
   -293736.39547   -181311.87544
                  23596487.7734                                   23596484.0944
                                                                        44.0004
        27.0004
 09 10 12 23 39 30.0000000  0  9G02G04G12G13G29G23G30G31G10
  -2885593.80548  -2213126.97347
                  20563194.8834                                   20563188.6684
                                                                        52.2504
        42.2504
   2216593.82448   1742688.80146
                  21032037.8444                                   21032033.5434
                                                                        52.2504
        41.0004
   5150491.53146   4015410.97344
                  24528439.7814                                   24528435.5084
                                                                        41.7504
        27.2504
  -4171367.88348  -3209625.13345
                  21547454.3834                                   21547450.0354
                                                                        50.0004
        35.5004
  -1426391.59047  -1067383.20344
                  23760839.9774                                   23760836.5904
                                                                        43.0004
        27.7504
    810525.25048    653369.85945
                  21966017.9224                                   21966011.5824
                                                                        49.5004
        33.5004
   2662749.20747   2089199.00844
                  23122227.2894                                   23122223.6174
                                                                        45.0004
        27.2504
   2268547.20346   1780077.57443
                  24149358.1884                                   24149353.2154
                                                                        41.5004
        22.7504
   -485399.25847   -330659.53944
                  23560014.7894                                   23560011.5084
                                                                        42.2504
        27.0004
 09 10 12 23 40  0.0000000  0  8G02G04G13G29G23G30G31G10
  -2991357.12548  -2295539.96147
                  20543068.8134                                   20543063.2274
                                                                        52.0004
        43.0004
   2195662.72748   1726378.88346
                  21028054.3444                                   21028050.7464
                                                                        52.5004
        41.0004
  -4297101.10948  -3307599.03145
                  21523528.4064                                   21523523.7974
                                                                        50.0004
        35.5004
  -1596624.64547  -1200032.29344
                  23728445.8984                                   23728442.3244
                                                                        43.2504
        28.2504
    769328.86348    621268.75045
                  21958178.5394                                   21958171.9384
                                                                        48.7504
        34.7504
   2651335.32047   2080305.05544
                  23120055.8204                                   23120051.9224
                                                                        45.0004
        28.2504
   2248882.98846   1764754.81643
                  24145615.6174                                   24145610.9574
                                                                        41.7504
        23.0004
   -676779.75847   -479787.14844
                  23523596.5474                                   23523592.5744
                                                                        42.5004
        28.0004
 09 10 12 23 40 30.0000000  0  8G02G04G13G29G23G30G31G10
  -3096484.18448  -2377457.18047
                  20523063.8364                                   20523057.8094
                                                                        51.7504
        43.0004
   2175305.44548   1710516.06646
                  21024180.8284                                   21024177.0354
                                                                        52.2504
        40.7504
  -4422135.69948  -3405028.57845
                  21499735.2814                                   21499730.7384
                                                                        50.7504
        35.2504
  -1766453.27347  -1332366.24644
                  23696128.7424                                   23696124.9534
                                                                        44.0004
        27.7504
    728817.53148    589701.48845
                  21950469.4844                                   21950463.1134
                                                                        49.0004
        33.7504
   2640543.53147   2071895.82044
                  23118001.5784                                   23117998.3324
                                                                        44.7504
        28.5004
   2229798.03146   1749883.42643
                  24141984.2034                                   24141979.6644
                                                                        41.5004
        22.0004
   -867875.18747   -628692.60944
                  23487232.7894                                   23487229.0274
                                                                        43.5004
        28.0004
 09 10 12 23 41  0.0000000  0  8G02G04G13G29G23G30G31G10
  -3200978.11348  -2458881.03547
                  20503179.4224                                   20503173.5314
                                                                        52.0004
        42.2504
   2155516.13748   1695095.83646
                  21020414.9924                                   21020410.9884
                                                                        53.0004
        40.7504
  -4546473.92248  -3501915.53145
                  21476073.9694                                   21476069.5594
                                                                        50.0004
        35.7504
  -1935879.32047  -1464386.59844
                  23663887.7734                                   23663883.9224
                                                                        44.5004
        27.0004
    688985.97348    558663.88345
                  21942889.3054                                   21942883.6844
                                                                        48.7504
        33.7504
   2630367.30147   2063966.24644
                  23116065.3054                                   23116062.0354
                                                                        44.5004
        27.0004
   2211286.84847   1735459.13344
                  24138461.6954                                   24138456.8164
                                                                        42.2504
        25.5004
  -1058687.43447   -777377.42644
                  23450922.4534                                   23450918.5434
                                                                        44.0004
        29.0004
 09 10 12 23 41 30.0000000  0  8G02G04G13G29G23G30G31G10
  -3304836.13348  -2539809.35547
                  20483416.0004                                   20483409.9024
                                                                        52.5004
        42.7504
   2136295.12948   1680118.42646
                  21016757.3054                                   21016753.6024
                                                                        52.5004
        40.7504
  -4670112.46548  -3598257.25445
                  21452546.6724                                   21452542.0044
                                                                        50.0004
        35.5004
  -2104898.51247  -1596089.84444
                  23631724.6954                                   23631720.5864
                                                                        45.2504
        27.5004
    649834.10548    528155.90245
                  21935439.1024                                   21935432.9344
                                                                        49.2504
        34.0004
   2620805.61747   2056515.51644
                  23114245.6484                                   23114242.1764
                                                                        44.5004
        28.5004
   2193348.42247   1721481.14844
                  24135048.0554                                   24135043.5824
                                                                        42.7504
        26.0004
  -1249212.71947   -925838.70344
                  23414666.2894                                   23414662.3954
                                                                        43.5004
        28.7504
 09 10 12 23 42  0.0000000  0  8G02G04G13G29G23G30G31G10
  -3408061.32048  -2620244.59047
                  20463772.7814                                   20463766.3054
                                                                        52.5004
        43.0004
   2117636.56648   1665579.26246
                  21013206.7894                                   21013202.8834
                                                                        52.0004
        40.7504
  -4793053.78148  -3694055.68045
                  21429151.5474                                   21429147.0434
                                                                        50.5004
        35.5004
  -2273512.30947  -1727477.21944
                  23599638.5234                                   23599634.3014
                                                                        45.5004
        29.0004
    611356.66448    498173.48045
                  21928116.9534                                   21928110.4774
                                                                        49.0004
        33.5004
   2611851.67647   2049538.44944
                  23112542.1254                                   23112538.5474
                                                                        43.7504
        27.5004
   2175976.43847   1707944.53144
                  24131742.7194                                   24131738.0004
                                                                        42.7504
        27.2504
  -1439452.92646  -1074077.72744
                  23378464.4384                                   23378460.9534
                                                                        41.2504
        28.5004
 09 10 12 23 42 30.0000000  0  9G02G04G05G13G29G23G30G31G10
  -3510658.71948  -2700190.62147
                  20444249.0634                                   20444242.8244
                                                                        52.7504
        42.2504
   2099532.99648   1651472.54346
                  21009762.1334                                   21009757.8364
                                                                        52.5004
        40.5004
   4403266.83256   3476935.18854
                  24207753.0164                                   24207749.1254
                                                                        41.0004
        27.0004
  -4915302.10948  -3789314.09445
                  21405888.4534                                   21405883.6914
                                                                        50.5004
        35.2504
  -2441724.12547  -1858551.35944
                  23567629.0704                                   23567625.1844
                                                                        44.5004
        28.0004
    573546.08248    468710.68445
                  21920922.2504                                   21920915.7424
                                                                        49.0004
        33.0004
   2603496.70347   2043028.07844
                  23110951.6254                                   23110948.2304
                                                                        43.7504
        27.5004
   2159163.04347   1694843.13744
                  24128543.9694                                   24128538.9264
                                                                        42.5004
        28.5004
  -1629412.00447  -1222097.73044
                  23342316.4774                                   23342313.0474
                                                                        42.2504
        29.5004
 09 10 12 23 43  0.0000000  0  9G02G04G05G13G29G23G30G31G10
  -3612632.82448  -2779650.95347
                  20424844.0784                                   20424837.9144
                                                                        52.0004
        42.5004
   2081977.45748   1637792.87546
                  21006421.1414                                   21006417.0864
                                                                        51.5004
        39.7504
   4211946.91447   3327854.83244
                  24171346.0234                                   24171342.0124
                                                                        42.0004
        28.5004
  -5036861.63348  -3884035.80946
                  21382756.3834                                   21382751.6914
                                                                        50.0004
        36.0004
  -2609537.25447  -1989314.83244
                  23535694.7114                                   23535690.8634
                                                                        44.0004
        27.2504
    536395.77348    439762.41045
                  21913852.2504                                   21913845.7934
                                                                        48.7504
        33.0004
   2595732.65647   2036978.17644
                  23109474.8524                                   23109471.1054
                                                                        43.0004
        26.5004
   2142900.59446   1682171.11744
                  24125448.4224                                   24125443.6174
                                                                        40.2504
        27.2504
  -1819093.06247  -1369901.12544
                  23306221.7194                                   23306218.0044
                                                                        42.0004
        28.5004
 09 10 12 23 43 30.0000000  0  9G02G04G05G13G29G23G30G31G10
  -3713986.23848  -2858627.61347
                  20405557.2194                                   20405550.9454
                                                                        52.5004
        43.0004
   2064964.82448   1624536.25846
                  21003183.9224                                   21003180.0864
                                                                        51.5004
        40.2504
   4020819.44947   3178924.39844
                  24134975.5944                                   24134971.3134
                                                                        45.0004
        27.7504
  -5157733.75448  -3978221.87546
                  21359755.3524                                   21359750.8324
                                                                        50.7504
        36.2504
  -2776952.09847  -2119767.91444
                  23503836.4224                                   23503833.7274
                                                                        44.2504
        29.2504
    499900.43848    411324.47345
                  21906907.5554                                   21906901.1844
                                                                        49.0004
        33.0004
   2588553.44147   2031384.00444
                  23108108.5084                                   23108104.6484
                                                                        43.0004
        26.7504
   2127183.73046   1669924.23844
                  24122457.8984                                   24122453.2384
                                                                        39.7504
        27.5004
  -2008497.33647  -1517488.88744
                  23270178.8364                                   23270175.1054
                                                                        42.7504
        28.7504
 09 10 12 23 44  0.0000000  0  9G02G04G05G13G29G23G30G31G10
  -3814719.47748  -2937121.04347
                  20386388.2814                                   20386381.8794
                                                                        52.5004
        42.5004
   2048491.76648   1611700.09846
                  21000048.8524                                   21000045.3094
                                                                        52.2504
        40.2504
   3829883.81647   3030143.41444
                  24098641.9224                                   24098637.8014
                                                                        44.0004
        27.0004
  -5277919.42248  -4071873.05946
                  21336884.8204                                   21336879.9414
                                                                        50.7504
        36.5004
  -2943968.65647  -2249910.66844
                  23472054.8834                                   23472051.3674
                                                                        44.2504
        29.5004
    464056.78548    383394.35245
                  21900086.9454                                   21900080.3984
                                                                        48.7504
        33.7504
   2581954.04747   2026241.62944
                  23106852.6804                                   23106848.8794
                                                                        43.7504
        25.7504
   2112008.34046   1658099.28944
                  24119569.1334                                   24119565.3954
                                                                        41.5004
        26.0004
  -2197624.84447  -1664861.00844
                  23234189.3594                                   23234185.3484
                                                                        43.5004
        27.7504
 09 10 12 23 44 30.0000000  0  9G02G04G05G13G29G23G30G31G10
  -2339407.56248  -1787527.35547
                  20667130.8914                                   20667124.4614
                                                                        52.2504
        42.7504
   3607977.66448   2826883.92246
                  21296809.4774                                   21296805.8204
                                                                        52.5004
        40.5004
   5214569.52247   4109119.29744
                  24362138.8444                                   24362134.6334
                                                                        43.5004
        27.7504
  -3821992.02348  -2937384.13345
                  21613938.2894                                   21613933.7384
                                                                        50.5004
        35.7504
  -1535158.06247  -1152136.18044
                  23740142.3984                                   23740138.9184
                                                                        44.2504
        29.5004
   2004285.38748   1583572.50445
                  22193182.4064                                   22193176.4224
                                                                        49.0004
        32.7504
   4151353.13347   3249150.00044
                  23405499.1254                                   23405495.0984
                                                                        43.5004
        26.0004
   3672793.12146   2874295.16444
                  24416577.0314                                   24416573.0314
                                                                        38.0004
        24.7504
   -811046.23847   -584410.18744
                  23498046.5234                                   23498042.6134
                                                                        44.0004
        27.0004
 09 10 12 23 45  0.0000000  0  9G02G04G05G13G29G23G30G31G10
  -2438895.10548  -1865050.12947
                  20648199.1254                                   20648192.9344
                                                                        52.2504
        42.7504
   3592581.71948   2814887.07846
                  21293879.4844                                   21293875.7424
                                                                        52.2504
        40.0004
   5024027.32046   3960644.89844
                  24325878.8054                                   24325875.7734
                                                                        41.7504
        27.5004
  -3940796.54348  -3029959.03946
                  21591330.4384                                   21591326.0084
                                                                        50.5004
        36.0004
  -1701366.83247  -1281649.47344
                  23708513.6334                                   23708510.2194
                                                                        44.0004
        28.2504
   1969743.59448   1556656.79345
                  22186609.7114                                   22186603.4024
                                                                        49.2504
        32.7504
   4145909.01647   3244907.83244
                  23404463.5394                                   23404459.0634
                                                                        44.0004
        26.0004
   3658696.83246   2863311.03944
                  24413894.1254                                   24413890.7584
                                                                        39.5004
        24.5004
   -999610.01647   -731343.01644
                  23462164.0554                                   23462160.4494
                                                                        43.7504
        29.5004
 09 10 12 23 45 30.0000000  0  9G02G04G05G13G29G23G30G31G10
  -2537757.23848  -1942085.57047
                  20629386.2274                                   20629380.1684
                                                                        53.0004
        42.5004
   3577722.87548   2803308.78146
                  21291051.9534                                   21291047.9774
                                                                        52.5004
        40.2504
   4833685.30947   3812326.50844
                  24289658.0004                                   24289655.1764
                                                                        42.0004
        27.7504
  -4058907.38348  -3121993.44545
                  21568854.8674                                   21568850.5124
                                                                        50.5004
        35.5004
  -1867167.42647  -1410844.74644
                  23676963.0554                                   23676959.1914
                                                                        44.5004
        29.0004
   1935851.49648   1530247.35245
                  22180160.3834                                   22180153.6954
                                                                        49.5004
        33.0004
   4141038.88747   3241112.92644
                  23403536.7274                                   23403532.8404
                                                                        45.0004
        26.7504
   3645137.68846   2852745.47743
                  24411314.0944                                   24411309.9224
                                                                        40.5004
        23.7504
  -1187887.66847   -878052.82045
                  23426336.4144                                   23426332.4964
                                                                        45.2504
        30.0004
 09 10 12 23 46  0.0000000  0  9G02G04G05G13G29G23G30G31G10
  -2635992.50848  -2018632.53947
                  20610692.7664                                   20610686.5824
                                                                        51.5004
        42.5004
   3563400.00448   2792148.10946
                  21288326.2034                                   21288322.4224
                                                                        51.7504
        40.5004
   4643546.43847   3664166.37544
                  24253476.1484                                   24253472.9924
                                                                        42.7504
        29.7504
  -4176322.62548  -3213485.83246
                  21546511.3054                                   21546507.1214
                                                                        51.0004
        36.0004
  -2032556.41447  -1539719.27344
                  23645490.6564                                   23645486.8204
                                                                        44.5004
        28.2504
   1902608.16848   1504343.47345
                  22173834.2424                                   22173827.6174
                                                                        48.7504
        33.0004
   4136741.07847   3237764.01644
                  23402718.8134                                   23402715.2344
                                                                        44.7504
        26.7504
   3632114.20346   2842597.28144
                  24408835.6954                                   24408831.4534
                                                                        40.7504
        25.2504
  -1375876.40247  -1024537.48845
                  23390563.2584                                   23390560.0164
                                                                        45.2504
        32.0004
 09 10 12 23 46 30.0000000  0  9G02G04G05G13G29G23G30G31G10
  -2733601.40248  -2094691.45347
                  20592118.1884                                   20592112.0474
                                                                        52.0004
        42.5004
   3549610.13748   2781402.75846
                  21285702.2114                                   21285698.5124
                                                                        51.0004
        39.7504
   4453611.30146   3516165.05944
                  24217333.2504                                   24217329.1994
                                                                        41.5004
        29.2504
  -4293041.87948  -3304435.88745
                  21524300.7114                                   21524295.8524
                                                                        50.5004
        35.5004
  -2197532.68747  -1668272.23044
                  23614096.6414                                   23614092.8634
                                                                        44.0004
        29.5004
   1870010.69148   1478942.86745
                  22167631.2814                                   22167624.6684
                                                                        48.5004
        33.0004
   4133011.45347   3234857.77744
                  23402009.6174                                   23402005.5164
                                                                        44.0004
        28.2504
   3619622.92246   2832863.91444
                  24406458.5234                                   24406454.3404
                                                                        41.2504
        24.7504
  -1563575.26647  -1170796.28545
                  23354845.0234                                   23354841.3324
                                                                        45.0004
        30.0004
 09 10 12 23 47  0.0000000  0  9G02G04G05G13G29G23G30G31G10
  -2830585.45748  -2170263.45347
                  20573662.8134                                   20573656.4884
                                                                        52.2504
        42.0004
   3536349.05148   2771069.44546
                  21283178.5314                                   21283175.1644
                                                                        52.5004
        40.2504
   4263879.00846   3368321.75044
                  24181228.5084                                   24181224.3634
                                                                        41.7504
        29.2504
  -4409066.38748  -3394844.58246
                  21502221.6334                                   21502217.2934
                                                                        51.5004
        36.0004
  -2362096.20747  -1796503.55544
                  23582781.6954                                   23582777.7154
                                                                        43.7504
        29.0004
   1838054.65648   1454042.04345
                  22161550.2344                                   22161543.6724
                                                                        49.5004
        33.5004
   4129844.87547   3232390.25044
                  23401406.3754                                   23401402.4454
                                                                        44.7504
        28.7504
   3607658.88747   2823541.30543
                  24404182.5164                                   24404177.4144
                                                                        42.5004
        22.7504
  -1750984.84847  -1316829.65244
                  23319181.7194                                   23319178.0394
                                                                        44.0004
        29.0004
 09 10 12 23 47 30.0000000  0  9G02G04G05G13G29G23G30G31G10
  -2926948.02748  -2245351.18047
                  20555325.9304                                   20555319.3204
                                                                        52.2504
        43.0004
   3523611.12948   2761143.80146
                  21280754.9304                                   21280750.9184
                                                                        52.2504
        39.7504
   4074347.62146   3220635.02044
                  24145161.2114                                   24145157.4304
                                                                        41.2504
        28.5004
  -4524399.13748  -3484714.25846
                  21480274.8524                                   21480270.3094
                                                                        51.2504
        36.5004
  -2526248.72747  -1924414.60945
                  23551544.2584                                   23551541.0784
                                                                        43.7504
        30.5004
   1806734.47748   1429636.70745
                  22155590.2664                                   22155584.1684
                                                                        49.5004
        33.0004
   4127234.17247   3230355.89144
                  23400910.1564                                   23400906.1804
                                                                        43.5004
        27.0004
   3596215.91447   2814624.78943
                  24402005.1024                                   24401999.9104
                                                                        42.7504
        22.7504
  -1938106.86747  -1462638.95344
                  23283573.6804                                   23283569.8054
                                                                        43.0004
        29.7504
 09 10 12 23 48  0.0000000  0  9G02G04G05G13G29G23G30G31G10
  -3022690.03548  -2319955.34847
                  20537106.7584                                   20537100.7344
                                                                        52.5004
        43.0004
   3511392.64148   2751622.90246
                  21278429.6644                                   21278425.9574
                                                                        52.2504
        39.5004
   3885017.18846   3073104.89544
                  24109132.8524                                   24109128.4454
                                                                        40.5004
        27.5004
  -4639040.33648  -3574045.05946
                  21458459.3134                                   21458454.7034
                                                                        50.5004
        36.0004
  -2689989.83647  -2052005.10245
                  23520385.4064                                   23520382.1884
                                                                        43.0004
        30.0004
   1776046.65648   1405724.14545
                  22149750.2894                                   22149743.8014
                                                                        48.5004
        33.5004
   4125174.55147   3228750.94144
                  23400517.3284                                   23400514.3404
                                                                        42.2504
        27.0004
   3585289.68847   2806110.92643
                  24399925.5944                                   24399920.4184
                                                                        42.7504
        23.5004
  -2124941.17247  -1608224.06644
                  23248020.4774                                   23248016.4964
                                                                        44.5004
        29.5004
 09 10 12 23 48 30.0000000  0  9G02G04G05G13G29G23G30G31G10
  -3117808.73448  -2394073.80547
                  20519006.2584                                   20518999.6254
                                                                        52.2504
        42.5004
   3499693.93448   2742507.00046
                  21276203.5554                                   21276199.7154
                                                                        51.2504
        40.2504
   3695890.92246   2925733.81344
                  24073142.8364                                   24073139.4964
                                                                        40.7504
        27.2504
  -4752987.02748  -3662834.69546
                  21436776.1414                                   21436771.3134
                                                                        50.7504
        36.2504
  -2853314.84047  -2179271.30945
                  23489305.2814                                   23489302.2114
                                                                        43.0004
        30.0004
   1745991.70348   1382304.71945
                  22144031.0314                                   22144024.8914
                                                                        49.7504
        33.2504
   4123664.99247   3227574.63344
                  23400230.0084                                   23400227.1884
                                                                        42.0004
        27.0004
   3574879.82847   2797999.39544
                  24397945.1254                                   24397939.3554
                                                                        43.5004
        24.0004
  -2311483.53947  -1753581.71544
                  23212522.3204                                   23212518.7154
                                                                        43.0004
        29.5004
 09 10 12 23 49  0.0000000  0  9G02G04G05G13G29G23G30G31G10
  -3212304.50448  -2467706.85547
                  20501024.0944                                   20501018.0434
                                                                        52.2504
        43.2504
   3488512.23848   2733793.99646
                  21274075.8204                                   21274072.0744
                                                                        51.5004
        39.7504
   3506970.76247   2778523.41045
                  24037192.4224                                   24037188.7734
                                                                        42.5004
        30.0004
  -4866239.01248  -3751082.98446
                  21415224.8134                                   21415220.4104
                                                                        51.0004
        36.0004
  -3016222.30547  -2306212.14545
                  23458305.6254                                   23458301.9024
                                                                        43.7504
        30.0004
   1716566.46548   1359375.94945
                  22138431.4534                                   22138425.3324
                                                                        49.0004
        32.7504
   4122701.82847   3226824.09844
                  23400046.5474                                   23400043.6764
                                                                        42.5004
        27.7504
   3564982.89847   2790287.57044
                  24396061.9774                                   24396056.7114
                                                                        43.0004
        25.2504
  -2497732.58247  -1898710.78145
                  23177080.2424                                   23177076.7234
                                                                        44.2504
        30.7504
 09 10 12 23 49 30.0000000  0  9G02G04G05G13G29G23G30G31G10
  -3306178.35948  -2540855.29747
                  20483160.7814                                   20483154.3634
                                                                        51.7504
        42.5004
   3477844.07448   2725481.14846
                  21272045.5704                                   21272041.9614
                                                                        51.2504
        39.7504
   3318256.53947   2631473.42244
                  24001281.6724                                   24001277.9924
                                                                        42.2504
        29.7504
  -4978796.59048  -3838790.21546
                  21393805.8834                                   21393801.5004
                                                                        50.5004
        36.2504
  -3178711.66047  -2432827.21945
                  23427384.7504                                   23427381.1134
                                                                        44.0004
        30.2504
   1687767.93448   1336935.57845
                  22132951.8284                                   22132945.1724
                                                                        49.2504
        32.5004
   4122280.39847   3226495.63344
                  23399967.1724                                   23399963.8754
                                                                        43.0004
        28.0004
   3555595.21546   2782972.51644
                  24394274.4844                                   24394270.3524
                                                                        41.2504
        24.2504
  -2683688.39547  -2043611.38745
                  23141694.3524                                   23141690.4144
                                                                        42.7504
        31.0004
 09 10 12 23 50  0.0000000  0  9G02G04G05G13G29G23G30G31G10
  -3399428.92648  -2613518.06247
                  20465415.4924                                   20465409.3954
                                                                        51.5004
        42.5004
   3467688.18848   2717567.47346
                  21270113.1804                                   21270109.6374
                                                                        51.5004
        39.7504
   3129750.73447   2484585.83244
                  23965410.2894                                   23965406.5084
                                                                        43.2504
        29.7504
  -5090657.88348  -3925954.84446
                  21372519.3914                                   21372514.4144
                                                                        51.0004
        36.2504
  -3340779.73847  -2559114.00445
                  23396544.3524                                   23396540.5274
                                                                        43.2504
        30.0004
   1659594.77048   1314982.53945
                  22127590.1174                                   22127583.9804
                                                                        48.5004
        33.0004
   4122398.41447   3226587.57444
                  23399990.1024                                   23399986.2034
                                                                        43.5004
        27.2504
   3546714.90646   2776052.78943
                  24392584.3444                                   24392580.1994
                                                                        37.5004
        23.5004
  -2869348.10547  -2188281.22745
                  23106364.1644                                   23106360.4964
                                                                        43.7504
        31.0004
 09 10 12 23 50 30.0000000  0  9G02G04G05G13G29G23G30G31G10
  -3492056.49648  -2685695.38747
                  20447788.9384                                   20447782.6374
                                                                        51.0004
        42.5004
   3458041.73848   2710050.76646
                  21268277.3674                                   21268273.8674
                                                                        51.2504
        39.0004
   2941453.35547   2337860.64844
                  23929578.2974                                   23929574.7504
                                                                        43.7504
        29.0004
  -5201822.83248  -4012576.87145
                  21351365.1644                                   21351360.7624
                                                                        51.0004
        35.7504
  -3502425.87947  -2685072.03545
                  23365783.9144                                   23365779.8524
                                                                        43.5004
        30.0004
   1632043.86348   1293514.29345
                  22122347.6414                                   22122341.2584
                                                                        48.5004
        32.7504
   4123051.56347   3227096.52744
                  23400113.9304                                   23400110.0864
                                                                        43.7504
        27.7504
   3538338.12146   2769525.39844
                  24390990.6414                                   24390986.7664
                                                                        40.5004
        26.0004
  -3054710.86747  -2332719.75445
                  23071091.1484                                   23071087.2344
                                                                        43.7504
        31.0004
 09 10 12 23 51  0.0000000  0  9G02G04G05G13G29G23G30G31G10
  -3584059.68448  -2757386.16447
                  20430281.3524                                   20430275.5594
                                                                        51.5004
        42.5004
   3448903.54748   2702930.08646
                  21266538.3674                                   21266535.0044
                                                                        51.0004
        39.2504
   2753367.49247   2191300.26644
                  23893786.5784                                   23893783.1414
                                                                        44.0004
        29.5004
  -5312289.85248  -4098655.06246
                  21330344.4614                                   21330339.3484
                                                                        50.7504
        36.5004
  -3663646.16847  -2810698.21144
                  23335104.3594                                   23335100.5274
                                                                        42.0004
        29.7504
   1605113.86348   1272529.87545
                  22117222.5864                                   22117216.6214
                                                                        49.0004
        31.7504
   4124237.94547   3228021.00044
                  23400340.0314                                   23400336.0164
                                                                        43.7504
        26.0004
   3530463.42246   2763389.26244
                  24389491.3444                                   24389488.1564
                                                                        40.7504
        25.2504
  -3239773.55147  -2476924.45344
                  23035874.4694                                   23035870.5354
                                                                        43.5004
        29.7504
 09 10 12 23 51 30.0000000  0  9G02G04G05G13G29G23G30G31G10
  -3675441.12948  -2828592.46947
                  20412892.1804                                   20412885.6724
                                                                        51.2504
        43.0004
   3440268.68448   2696201.61346
                  21264895.4614                                   21264891.6564
                                                                        51.2504
        39.2504
   2565491.85247   2044903.62144
                  23858034.9614                                   23858031.4224
                                                                        44.2504
        29.5004
  -5422060.71948  -4184190.82846
                  21309455.3834                                   21309451.0164
                                                                        51.2504
        36.7504
  -3824442.06247  -2935993.73844
                  23304505.5004                                   23304502.2934
                                                                        43.0004
        29.2504
   1578800.30548   1252025.78545
                  22112215.6724                                   22112209.0204
                                                                        48.7504
        32.2504
   4125951.09447   3229355.91844
                  23400666.1884                                   23400661.7624
                                                                        43.7504
        25.5004
   3523085.00046   2757639.84444
                  24388088.6414                                   24388084.0634
                                                                        40.5004
        25.5004
  -3424537.21547  -2620896.11745
                  23000715.0864                                   23000711.7034
                                                                        43.0004
        30.5004
 09 10 12 23 52  0.0000000  0  9G02G04G05G13G29G23G30G31G10
  -3766203.04748  -2899316.04747
                  20395620.4144                                   20395614.4454
                                                                        52.5004
        42.5004
   3432132.30548   2689861.57446
                  21263346.7504                                   21263343.1764
                                                                        51.0004
        39.2504
   2377825.48047   1898670.03944
                  23822323.5004                                   23822319.5594
                                                                        43.2504
        29.0004
  -5531137.64148  -4269185.84846
                  21288698.8984                                   21288694.3444
                                                                        51.2504
        36.5004
  -3984813.48047  -3060958.45745
                  23273987.9614                                   23273984.7774
                                                                        43.0004
        30.0004
   1553098.04748   1231998.09445
                  22107324.4144                                   22107317.9804
                                                                        48.5004
        32.2504
   4128185.25447   3231096.87544
                  23401090.5554                                   23401086.9064
                                                                        42.7504
        25.7504
   3516197.69146   2752273.13744
                  24386777.7584                                   24386773.2114
                                                                        39.2504
        26.5004
  -3609002.71947  -2764635.47345
                  22965612.6564                                   22965608.9884
                                                                        43.5004
        32.0004
 09 10 12 23 52 30.0000000  0  9G02G04G05G13G29G23G30G31G10
  -3856342.87948  -2969554.85947
                  20378467.4454                                   20378461.1174
                                                                        52.5004
        43.0004
   3424494.75448   2683910.25046
                  21261893.7194                                   21261889.7424
                                                                        51.0004
        40.0004
   2190372.66847   1752602.94145
                  23786652.6644                                   23786648.6844
                                                                        45.0004
        30.7504
  -5639517.37148  -4353637.62946
                  21268075.0164                                   21268070.3674
                                                                        50.7504
        36.7504
  -4144756.65647  -3185589.52345
                  23243552.1024                                   23243548.5864
                                                                        43.7504
        30.0004
   1528007.17248   1212446.73445
                  22102549.9774                                   22102543.7074
                                                                        48.5004
        31.5004
   4130939.11347   3233242.71544
                  23401614.8754                                   23401611.4884
                                                                        42.5004
        25.2504
   3509800.73047   2747288.49644
                  24385560.5394                                   24385555.9384
                                                                        42.5004
        27.0004
  -3793165.93447  -2908139.26645
                  22930567.8524                                   22930563.4574
                                                                        45.7504
        31.7504
 09 10 12 23 53  0.0000000  0  9G02G04G05G13G29G23G30G31G10
  -3945862.90248  -3039310.69947
                  20361432.5004                                   20361426.1334
                                                                        52.0004
        42.7504
   3417351.19548   2678343.84446
                  21260534.3984                                   21260530.3554
                                                                        51.7504
        39.5004
   2003132.10947   1606701.23445
                  23751021.6414                                   23751017.9774
                                                                        44.5004
        31.2504
  -5747201.75448  -4437547.53945
                  21247583.5164                                   21247578.9024
                                                                        51.0004
        35.5004
  -4304271.44547  -3309886.76245
                  23213197.8984                                   23213194.2814
                                                                        43.5004
        30.7504
   1503523.35948   1193368.46945
                  22097890.6954                                   22097884.3324
                                                                        49.2504
        32.2504
   4134207.47346   3235789.58644
                  23402236.7814                                   23402232.9414
                                                                        41.7504
        26.0004
   3503889.25047   2742682.16044
                  24384435.4924                                   24384430.5784
                                                                        43.2504
        24.5004
  -3977027.48447  -3051407.99645
                  22895580.1174                                   22895575.8324
                                                                        45.2504
        30.5004
 09 10 12 23 53 30.0000000  0  9G02G04G05G13G29G23G30G31G10
  -4034761.26648  -3108582.14547
                  20344515.5944                                   20344509.5314
                                                                        51.7504
        43.0004
   3410701.05548   2673161.91846
                  21259268.8674                                   21259264.8054
                                                                        51.5004
        39.2504
   1816106.40247   1460966.96945
                  23715431.8984                                   23715428.3134
                                                                        43.0004
        30.2504
  -5854188.53148  -4520913.88346
                  21227224.3754                                   21227219.6374
                                                                        50.5004
        36.2504
  -4463355.18047  -3433848.09845
                  23182925.1724                                   23182921.2274
                                                                        43.2504
        31.5004
   1479645.33648   1174762.16045
                  22093347.0164                                   22093340.5354
                                                                        48.5004
        32.7504
   4137987.49246   3238735.03544
                  23402955.9774                                   23402952.2304
                                                                        41.5004
        25.7504
   3498461.61747   2738452.91443
                  24383403.0944                                   24383397.1604
                                                                        43.7504
        22.7504
  -4160584.42247  -3194439.36745
                  22860650.2734                                   22860646.2504
                                                                        45.0004
        31.2504
 09 10 12 23 54  0.0000000  0  9G02G04G05G13G29G23G30G31G10
  -4123041.52748  -3177371.94947
                  20327716.5784                                   20327710.8914
                                                                        51.7504
        43.2504
   3404537.85948   2668359.43846
                  21258095.6954                                   21258092.1564
                                                                        51.0004
        39.5004
   1629293.55147   1315398.57445
                  23679882.0704                                   23679878.6254
                                                                        43.5004
        31.2504
  -5960481.18048  -4603739.30946
                  21206997.1414                                   21206992.4734
                                                                        51.0004
        36.0004
  -4622008.97347  -3557474.41445
                  23152734.1884                                   23152730.7424
                                                                        44.0004
        31.5004
   1456367.36748   1156623.55945
                  22088917.3364                                   22088910.8634
                                                                        49.2504
        32.7504
   4142272.65246   3242074.10544
                  23403771.1804                                   23403767.9804
                                                                        41.5004
        26.5004
   3493511.31347   2734595.59043
                  24382460.5474                                   24382454.8554
                                                                        42.2504
        22.0004
  -4343838.57047  -3337234.78545
                  22825778.0314                                   22825774.3714
                                                                        45.0004
        30.2504
 09 10 12 23 54 30.0000000  0  9G02G04G05G13G29G23G30G31G10
  -2635276.62148  -2018074.60947
                  20610828.7274                                   20610822.2424
                                                                        50.7504
        42.5004
   4974284.10548   3891538.32046
                  21556808.5234                                   21556804.7194
                                                                        50.0004
        39.5004
   3018124.77047   2397604.76244
                  23944168.2344                                   23944164.4264
                                                                        43.0004
        29.0004
  -4490651.17248  -3458417.21146
                  21486696.6254                                   21486692.2274
                                                                        50.7504
        36.5004
  -3204802.17647  -2453157.40245
                  23422419.4384                                   23422415.8094
                                                                        43.7504
        30.7504
   3009111.85548   2366554.38345
                  22384395.4224                                   22384388.7504
                                                                        48.5004
        33.0004
   5722482.60946   4473406.52344
                  23704475.6954                                   23704472.3204
                                                                        41.2504
        25.5004
   5064459.28146   3958710.91843
                  24681402.3674                                   24681396.8164
                                                                        41.2504
        21.2504
  -2951358.46947  -2252185.35245
                  23090758.1724                                   23090754.1884
                                                                        45.5004
        31.5004
 09 10 12 23 55  0.0000000  0  9G02G04G05G13G29G23G30G31G10
  -2722312.22348  -2085894.55947
                  20594266.4694                                   20594260.2704
                                                                        52.0004
        43.2504
   4969096.42648   3887495.95746
                  21555821.4774                                   21555817.7234
                                                                        50.7504
        39.5004
   2831749.77347   2252377.53545
                  23908702.3834                                   23908698.0474
                                                                        44.2504
        30.7504
  -4595545.80548  -3540153.31646
                  21466736.0634                                   21466731.2814
                                                                        50.2504
        36.2504
  -3362583.04747  -2576103.48844
                  23392394.6884                                   23392391.5784
                                                                        43.0004
        29.0004
   2987034.16848   2349350.92645
                  22380193.5004                                   22380187.2704
                                                                        48.2504
        32.7504
   5727774.80547   4477530.34444
                  23705482.0864                                   23705478.9104
                                                                        43.0004
        27.0004
   5060462.71146   3955596.73043
                  24680640.6724                                   24680636.3134
                                                                        39.5004
        20.2504
  -3133994.45747  -2394499.04745
                  23056003.8754                                   23056000.0044
                                                                        44.5004
        31.5004
 09 10 12 23 55 30.0000000  0  9G02G04G05G13G29G23G30G31G10
  -2808728.78148  -2153232.14847
                  20577822.0314                                   20577815.4574
                                                                        52.5004
        42.7504
   4964390.52048   3883829.00446
                  21554925.8284                                   21554922.0744
                                                                        51.0004
        39.0004
   2645592.94147   2107320.27345
                  23873278.1644                                   23873273.8834
                                                                        44.5004
        30.7504
  -4699743.30148  -3621346.19946
                  21446908.0004                                   21446903.4694
                                                                        51.0004
        36.2504
  -3519927.23847  -2698709.31645
                  23362453.2274                                   23362449.4534
                                                                        44.5004
        30.0004
   2965550.97748   2332610.81645
                  22376104.9614                                   22376099.0904
                                                                        48.2504
        32.5004
   5733562.41847   4482040.16844
                  23706583.7584                                   23706580.3634
                                                                        42.7504
        25.5004
   5056935.70746   3952848.40243
                  24679969.7974                                   24679965.2384
                                                                        38.5004
        20.7504
  -3316321.47347  -2536572.03145
                  23021307.9614                                   23021304.3204
                                                                        46.0004
        32.0004
 09 10 12 23 56  0.0000000  0  9G02G04G05G13G29G23G30G31G10
  -2894525.28148  -2220086.56647
                  20561495.3834                                   20561489.5704
                                                                        52.5004
        43.2504
   4960163.90648   3880535.52346
                  21554121.7584                                   21554118.1254
                                                                        50.7504
        39.2504
   2459656.02347   1962434.34445
                  23837895.5944                                   23837891.5314
                                                                        43.7504
        30.5004
  -4803243.25048  -3701995.55546
                  21427212.6644                                   21427208.0314
                                                                        50.5004
        36.0004
  -3676833.55547  -2820973.99245
                  23332594.8674                                   23332591.2544
                                                                        44.5004
        30.7504
   2944659.19548   2316331.50845
                  22372129.6334                                   22372123.1454
                                                                        48.5004
        30.7504
   5739842.14147   4486933.45344
                  23707778.8284                                   23707775.5314
                                                                        42.0004
        27.0004
   5053875.41846   3950463.71943
                  24679386.5864                                   24679383.3054
                                                                        38.5004
        20.7504
  -3498337.91447  -2678403.02345
                  22986671.5864                                   22986667.6174
                                                                        46.0004
        31.0004
 09 10 12 23 56 30.0000000  0  9G02G04G05G13G29G23G30G31G10
  -2979701.64548  -2286457.75447
                  20545286.8054                                   20545280.7664
                                                                        52.5004
        43.2504
   4956414.43848   3877613.85246
                  21553408.4144                                   21553404.5784
                                                                        50.2504
        39.2504
   2273941.00047   1817721.33645
                  23802554.7274                                   23802551.1524
                                                                        43.2504
        30.5004
  -4906045.13748  -3782100.94145
                  21407650.1804                                   21407645.6954
                                                                        51.0004
        35.2504
  -3833298.46147  -2942894.68745
                  23302820.9924                                   23302816.7664
                                                                        45.0004
        31.0004
   2924356.61747   2300511.32445
                  22368266.3594                                   22368260.4184
                                                                        47.5004
        31.7504
   5746611.44547   4492208.26644
                  23709067.3914                                   23709063.4344
                                                                        43.0004
        26.5004
   5051279.57046   3948440.93843
                  24678893.8524                                   24678889.2974
                                                                        39.7504
        22.5004
  -3680041.64547  -2819990.35245
                  22952094.0394                                   22952090.2774
                                                                        45.0004
        31.5004
 09 10 12 23 57  0.0000000  0  9G02G04G05G13G29G23G30G31G10
  -3064257.65648  -2352345.54747
                  20529196.3754                                   20529190.3674
                                                                        52.5004
        43.0004
   4953140.60548   3875062.82846
                  21552785.4454                                   21552781.7774
                                                                        50.7504
        39.5004
   2088449.23047   1673182.34045
                  23767256.8444                                   23767253.2854
                                                                        42.7504
        30.0004
  -5008147.98048  -3861661.59846
                  21388220.6254                                   21388215.8714
                                                                        50.5004
        36.0004
  -3989320.72347  -3064470.49645
                  23273130.6724                                   23273126.8554
                                                                        45.0004
        31.2504
   2904642.01648   2285149.31645
                  22364514.5004                                   22364508.4224
                                                                        48.2504
        32.2504
   5753866.04747   4497861.23844
                  23710447.9454                                   23710444.1764
                                                                        43.2504
        26.5004
   5049144.86347   3946777.50444
                  24678487.7664                                   24678483.6174
                                                                        42.0004
        25.7504
  -3861430.94947  -2961332.67245
                  22917577.2974                                   22917572.9344
                                                                        45.0004
        31.5004
 09 10 12 23 57 30.0000000  0 10G02G04G05G13G29G23G30G31G10G25
  -3148192.86348  -2417749.60947
                  20513223.9614                                   20513218.2814
                                                                        52.5004
        42.7504
   4950339.84448   3872880.39846
                  21552252.2894                                   21552248.8914
                                                                        51.0004
        39.2504
   1903182.83647   1528818.91845
                  23732001.8524                                   23731998.4534
                                                                        43.2504
        31.2504
  -5109551.12548  -3940677.05546
                  21368924.0634                                   21368919.7344
                                                                        50.2504
        36.7504
  -4144897.39147  -3185699.06245
                  23243525.4384                                   23243521.4844
                                                                        45.0004
        31.0004
   2885512.47348   2270243.21145
                  22360873.9304                                   22360867.5554
                                                                        48.5004
        31.7504
   5761603.60247   4503890.53144
                  23711919.9304                                   23711916.3404
                                                                        43.0004
        26.7504
   5047469.06647   3945471.68044
                  24678170.0634                                   24678165.1414
                                                                        43.5004
        27.5004
  -4042503.60947  -3102428.24645
                  22883120.0084                                   22883116.7504
                                                                        46.0004
        31.7504
   7599292.19956   5960956.96953
                  24255704.7274                                   24255701.4144
                                                                        39.5004
        21.0004
 09 10 12 23 58  0.0000000  0 10G02G04G05G13G29G23G30G31G10G25
  -3231510.30948  -2482672.31247
                  20497369.3984                                   20497363.0594
                                                                        52.2504
        43.0004
   4948006.85248   3871062.46146
                  21551808.1884                                   21551804.5664
                                                                        49.7504
        38.5004
   1718139.79347   1384629.57845
                  23696789.3674                                   23696785.2304
                                                                        44.2504
        31.5004
  -5210257.27048  -4019149.41046
                  21349760.5234                                   21349756.0434
                                                                        51.0004
        36.2504
  -4300030.34447  -3306581.86345
                  23214004.0944                                   23214001.1024
                                                                        44.2504
        31.5004
   2866962.58647   2255788.77045
                  22357344.2504                                   22357337.9384
                                                                        47.5004
        32.5004
   5769816.82047   4510290.48044
                  23713482.9144                                   23713479.0554
                                                                        42.5004
        26.0004
   5046245.76647   3944518.46944
                  24677936.0234                                   24677931.9694
                                                                        44.0004
        28.5004
  -4223260.96147  -3243278.11745
                  22848723.2504                                   22848719.2734
                                                                        45.5004
        31.7504
   7434916.32046   5832871.94943
                  24224425.6254                                   24224421.8754
                                                                        41.5004
        22.5004
 09 10 12 23 58 30.0000000  0  9G02G04G05G13G29G23G30G10G25
  -3314213.64848  -2547116.48847
                  20481631.2584                                   20481625.4614
                                                                        52.2504
        42.7504
   4946135.52748   3869604.27346
                  21551452.3984                                   21551448.4384
                                                                        50.0004
        39.0004
   1533318.17247   1240612.75845
                  23661619.1804                                   23661614.5474
                                                                        46.0004
        32.0004
  -5310269.79748  -4097081.23446
                  21330728.4924                                   21330724.2344
                                                                        50.5004
        36.5004
  -4454720.83247  -3427119.86345
                  23184567.5164                                   23184564.5784
                                                                        44.2504
        32.0004
   2848985.82447   2241780.90645
                  22353923.5004                                   22353916.9104
                                                                        47.7504
        32.0004
   5778498.55547   4517055.45744
                  23715134.6804                                   23715131.3014
                                                                        42.5004
        25.0004
  -4403705.05147  -3383883.87945
                  22814385.7034                                   22814381.8634
                                                                        46.0004
        32.2504
   7270865.35547   5705040.11343
                  24193207.2504                                   24193204.0004
                                                                        42.0004
        22.5004
 09 10 12 23 59  0.0000000  0  9G02G04G05G13G29G23G30G10G25
  -3396299.00848  -2611079.09447
                  20466010.8674                                   20466004.7704
                                                                        53.0004
        43.5004
   4944727.78948   3868507.32446
                  21551184.5474                                   21551180.4774
                                                                        50.2504
        38.7504
   1348723.37947   1096772.68445
                  23626491.4304                                   23626487.4344
                                                                        44.7504
        31.0004
  -5409584.63348  -4174469.39546
                  21311829.6174                                   21311824.9104
                                                                        51.0004
        36.5004
  -4608963.21547  -3547308.72745
                  23155216.4454                                   23155212.5084
                                                                        44.2504
        31.5004
   2831584.08248   2228221.12145
                  22350611.9384                                   22350605.7624
                                                                        48.0004
        31.5004
   5787649.49247   4524186.00044
                  23716876.1414                                   23716872.8324
                                                                        42.0004
        24.5004
  -4583830.00047  -3524240.99245
                  22780109.2504                                   22780105.3954
                                                                        45.5004
        32.5004
   7107145.93447   5577466.64143
                  24162052.3204                                   24162048.5554
                                                                        42.5004
        22.7504
 09 10 12 23 59 30.0000000  0  9G02G04G05G13G29G23G30G10G25
  -3477759.88748  -2674555.09047
                  20450509.3134                                   20450503.5044
                                                                        53.0004
        42.7504
   4943787.73048   3867774.80946
                  21551005.3674                                   21551001.5234
                                                                        51.0004
        38.7504
   1164363.43447    953115.60544
                  23591409.2194                                   23591404.8984
                                                                        43.2504
        29.5004
  -5508194.37548  -4251308.16446
                  21293064.9454                                   21293060.3364
                                                                        51.0004
        36.5004
  -4762748.93447  -3667141.75045
                  23125951.8524                                   23125948.5554
                                                                        45.2504
        32.0004
   2814761.74248   2215112.82045
                  22347410.7814                                   22347404.9304
                                                                        48.0004
        31.7504
   5797272.47346   4531684.42444
                  23718707.2584                                   23718703.4264
                                                                        41.7504
        25.5004
  -4763627.88347  -3664343.23845
                  22745894.8054                                   22745890.5784
                                                                        46.2504
        32.0004
   6943767.03547   5450158.46943
                  24130962.7424                                   24130958.3444
                                                                        42.0004
        22.7504
