     2.11           OBSERVATION DATA    G (GPS)             RINEX VERSION / TYPE
teqc  2019Feb25                         20221121 12:28:02UTCPGM / RUN BY / DATE
OSX ker:10.11.6|Core i5|gcc 4.3 -m64|OSX ker:10.10+|=+      COMMENT
BIT 2 OF LLI FLAGS DATA COLLECTED UNDER A/S CONDITION       COMMENT
04712771                                                    MARKER NAME
2771                                                        MARKER NUMBER
-Unknown-           -Unknown-                               OBSERVER / AGENCY
0220400471          TRIMBLE R7          2.30                REC # / TYPE / VERS
-Unknown-           TRM39105.00     NONE                    ANT # / TYPE
  1449460.6501 -1709240.0109  5952441.5749                  APPROX POSITION XYZ
        0.0000        0.0000        0.0000                  ANTENNA: DELTA H/E/N
     1     1                                                WAVELENGTH FACT L1/2
    20    L1    L2    L5    L6    L7    L8    C1    P1    C2# / TYPES OF OBSERV
          P2    C5    C6    C7    C8    S1    S2    S5    S6# / TYPES OF OBSERV
          S7    S8                                          # / TYPES OF OBSERV
    30.0000                                                 INTERVAL
    15                                                      LEAP SECONDS
Forced Modulo Decimation to 30 seconds                      COMMENT
 SNR is mapped to RINEX snr flag value [0-9]                COMMENT
  L1 & L2: min(max(int(snr_dBHz/6), 0), 9)                  COMMENT
teqc edited: Beidou # 1 - 37 excluded                       COMMENT
  2009    10     4    23     9   30.0000000     GPS         TIME OF FIRST OBS
                                                            END OF HEADER
 09 10  4 23  9 30.0000000  0  9G02G04G12G13G17G20G23G30G31
   -252582.87558   -124936.87556
                  22006737.6724                                   22006732.0434
                                                                        51.0004
        39.0004
   -154412.00058    -75638.87557
                  20536051.8594                                   20536048.4344
                                                                        51.2504
        42.2504
    -70782.28157    -35637.41855
                  22751379.8284                                   22751376.0124
                                                                        47.0004
        35.0004
   -282478.25457   -140809.82454
                  23527319.0944                                   23527314.1374
                                                                        43.2504
        26.7504
     17926.57057      8271.55955
                  23385279.3054                                   23385275.8364
                                                                        44.0004
        31.2504
     -8006.41857     -4662.27754
                  22649178.0704                                   22649173.3984
                                                                        46.0004
        29.0004
   -192318.19558    -95352.05555
                  22080262.9774                                   22080256.4224
                                                                        48.0004
        35.2504
   -152652.46157    -79450.91054
                  22524387.7344                                   22524384.2664
                                                                        45.7504
        29.5004
   -152717.36757    -76230.57054
                  23651919.9844                                   23651916.2734
                                                                        43.0004
        28.5004
 09 10  4 23 10  0.0000000  0  9G02G04G12G13G17G20G23G30G31
   -435516.63348   -267482.71946
                  21971926.2894                                   21971921.2114
                                                                        50.5004
        38.0004
   -266013.88748   -162601.48047
                  20514814.8204                                   20514811.4804
                                                                        50.5004
        42.0004
   -123087.69547    -76394.75445
                  22741426.4384                                   22741422.8444
                                                                        46.2504
        35.2504
   -486942.16046   -300132.35244
                  23488410.5314                                   23488406.4844
                                                                        41.7504
        26.0004
     29183.50847     17043.15245
                  23387421.5864                                   23387417.6564
                                                                        44.0004
        31.0004
    -15382.48047    -10409.81644
                  22647773.5634                                   22647769.7854
                                                                        45.7504
        29.5004
   -331652.85547   -203924.55945
                  22053748.5234                                   22053742.6524
                                                                        47.2504
        35.0004
   -265494.84847   -167379.72344
                  22502913.9304                                   22502910.3634
                                                                        44.5004
        29.0004
   -265162.88747   -163850.55144
                  23630523.1334                                   23630518.4304
                                                                        43.5004
        27.5004
 09 10  4 23 10 30.0000000  0  9G02G04G12G13G17G20G23G30G31
   -617940.25448   -409631.05146
                  21937212.3284                                   21937207.0514
                                                                        50.7504
        38.0004
   -376873.98848   -248985.91047
                  20493718.8444                                   20493715.6374
                                                                        51.5004
        42.0004
   -174656.37947   -116578.02745
                  22731613.3134                                   22731609.7154
                                                                        47.2504
        35.2504
   -690949.49647   -459099.10944
                  23449588.3134                                   23449585.0704
                                                                        42.2504
        26.5004
     40841.83647     26127.53545
                  23389640.6094                                   23389636.4574
                                                                        44.5004
        32.0004
    -22236.96547    -15750.98044
                  22646469.8834                                   22646465.6254
                                                                        45.7504
        29.0004
   -470227.30548   -311904.58245
                  22027378.3914                                   22027372.4104
                                                                        48.0004
        34.5004
   -377484.30547   -254644.16844
                  22481602.8134                                   22481599.3984
                                                                        44.0004
        28.5004
   -376837.64147   -250869.50044
                  23609270.6954                                   23609267.1604
                                                                        43.2504
        27.5004
 09 10  4 23 11  0.0000000  0  9G02G04G12G13G17G20G23G30G31
   -799625.91048   -551204.33246
                  21902638.6804                                   21902632.9534
                                                                        50.5004
        37.7504
   -486766.91848   -334616.85247
                  20472806.9144                                   20472803.8404
                                                                        50.0004
        42.0004
   -225264.25447   -156012.67645
                  22721982.6804                                   22721979.4574
                                                                        47.5004
        35.5004
   -894271.39547   -617531.60944
                  23410897.6484                                   23410894.3794
                                                                        42.0004
        26.7504
     53124.94947     35698.80545
                  23391977.6884                                   23391973.6644
                                                                        43.7504
        31.0004
    -28346.25847    -20511.48444
                  22645307.4144                                   22645303.0164
                                                                        45.7504
        28.5004
   -607814.56647   -419115.39145
                  22001196.6254                                   22001190.4534
                                                                        47.7504
        35.5004
   -488394.69147   -341067.77044
                  22460497.3134                                   22460493.8444
                                                                        42.5004
        29.2504
   -487516.00447   -337111.93444
                  23588210.2274                                   23588205.6254
                                                                        43.5004
        27.7504
 09 10  4 23 11 30.0000000  0  9G02G04G12G13G17G20G23G30G31
   -980493.13748   -692139.89546
                  21868220.7344                                   21868215.6094
                                                                        50.5004
        38.5004
   -595613.30148   -419432.18447
                  20452094.1024                                   20452090.7114
                                                                        50.5004
        42.0004
   -274834.29347   -194638.66845
                  22712549.7894                                   22712545.7664
                                                                        47.0004
        35.5004
  -1096826.62547   -775366.91044
                  23372353.4224                                   23372349.4384
                                                                        43.7504
        27.2504
     66109.27047     45816.41845
                  23394448.5634                                   23394445.1644
                                                                        43.0004
        31.5004
    -33634.34847    -24632.11344
                  22644300.8834                                   22644296.6954
                                                                        45.5004
        28.5004
   -744334.71148   -525494.70345
                  21975217.7974                                   21975211.7074
                                                                        48.5004
        35.2504
   -598146.95747   -426589.14145
                  22439612.1254                                   22439609.4534
                                                                        43.0004
        30.0004
   -597119.87547   -422517.44144
                  23567352.6564                                   23567347.9224
                                                                        42.5004
        26.7504
 09 10  4 23 12  0.0000000  0  9G02G04G12G13G17G20G23G30G31
  -1160515.15648   -832416.88746
                  21833963.7814                                   21833958.7034
                                                                        51.0004
        38.7504
   -703387.80948   -503412.32046
                  20431585.3834                                   20431582.0704
                                                                        51.0004
        41.5004
   -323343.20748   -232437.91445
                  22703319.1954                                   22703315.6214
                                                                        48.0004
        35.0004
  -1298586.76647   -932582.66044
                  23333959.4534                                   23333955.5474
                                                                        43.5004
        25.5004
     79817.65247     56498.30545
                  23397056.9454                                   23397052.9654
                                                                        43.5004
        30.7504
    -38078.41047    -28095.05944
                  22643454.7974                                   22643451.1294
                                                                        44.7504
        28.7504
   -879761.40648   -631022.08645
                  21949446.9694                                   21949440.7624
                                                                        48.5004
        35.5004
   -706714.88347   -511187.53144
                  22418952.1644                                   22418949.1804
                                                                        43.7504
        29.2504
   -705622.96147   -507065.25844
                  23546705.2894                                   23546701.3284
                                                                        43.0004
        26.7504
 09 10  4 23 12 30.0000000  0  9G02G04G12G13G17G20G23G30G31
  -1339690.16448   -972033.77046
                  21799868.1094                                   21799863.3284
                                                                        51.5004
        39.0004
   -810090.80148   -586557.46946
                  20411280.4774                                   20411276.8404
                                                                        51.5004
        41.7504
   -370793.34047   -269412.04345
                  22694289.4384                                   22694285.9264
                                                                        47.0004
        35.0004
  -1499549.05947  -1089176.57444
                  23295717.6414                                   23295713.6724
                                                                        44.5004
        25.5004
     94246.86747     67741.80945
                  23399802.5164                                   23399798.8984
                                                                        42.2504
        30.2504
    -41681.80947    -30903.01244
                  22642769.3834                                   22642765.5744
                                                                        44.5004
        28.0004
  -1014093.12547   -735696.06245
                  21923884.4924                                   21923878.2384
                                                                        46.5004
        35.2504
   -814098.38347   -594862.80545
                  22398517.6644                                   22398514.8404
                                                                        45.5004
        30.0004
   -813025.35947   -590755.43444
                  23526267.0004                                   23526263.0514
                                                                        42.2504
        28.5004
 09 10  4 23 13  0.0000000  0  9G02G04G12G13G17G20G23G30G31
  -1518017.12148  -1110989.81646
                  21765933.7734                                   21765928.4414
                                                                        51.0004
        38.5004
   -915723.32448   -668868.55146
                  20391179.1954                                   20391175.9414
                                                                        53.0004
        41.5004
   -417187.45347   -305563.40645
                  22685460.8674                                   22685457.4924
                                                                        47.0004
        34.5004
  -1699711.98447  -1245147.65644
                  23257627.9614                                   23257623.4454
                                                                        45.0004
        26.0004
    109393.16847     79544.04345
                  23402685.0864                                   23402681.3244
                                                                        44.0004
        30.7504
    -44447.74247    -33058.49644
                  22642243.2034                                   22642239.3134
                                                                        45.2504
        28.5004
  -1147330.03948   -839517.05145
                  21898530.2814                                   21898523.9844
                                                                        48.5004
        35.5004
   -920299.21947   -677616.71944
                  22378308.7974                                   22378305.3634
                                                                        46.0004
        29.2504
   -919327.58247   -673588.29344
                  23506038.6724                                   23506034.9414
                                                                        42.5004
        28.0004
 09 10  4 23 13 30.0000000  0  9G02G04G12G13G17G20G23G30G31
  -1695512.84848  -1249298.05946
                  21732157.2664                                   21732152.1564
                                                                        51.0004
        39.2504
  -1020303.78948   -750359.83646
                  20371278.2424                                   20371274.6334
                                                                        51.2504
        41.2504
   -462546.81247   -340908.43745
                  22676829.7424                                   22676826.1294
                                                                        47.5004
        34.7504
  -1899091.49247  -1400508.24644
                  23219686.7664                                   23219682.2424
                                                                        45.0004
        27.0004
    125235.41847     91888.69545
                  23405699.9614                                   23405696.7234
                                                                        44.5004
        31.7504
    -46397.94147    -34578.22744
                  22641872.4224                                   22641868.2584
                                                                        45.0004
        27.5004
  -1279489.70747   -942498.60245
                  21873380.8914                                   21873374.8134
                                                                        47.0004
        35.0004
  -1025335.14547   -759462.69144
                  22358320.9384                                   22358317.7424
                                                                        45.7504
        29.7504
  -1024548.32847   -755578.48044
                  23486015.2734                                   23486011.7704
                                                                        43.7504
        27.7504
 09 10  4 23 14  0.0000000  0  9G02G04G12G13G17G20G23G30G31
   -296769.42648   -159368.12946
                  21998329.4454                                   21998324.1054
                                                                        52.0004
        38.5004
    451572.04748    396556.39146
                  20651367.0704                                   20651363.7274
                                                                        51.0004
        41.5004
   1068529.33247    852137.91445
                  22968183.2584                                   22968180.0554
                                                                        47.2504
        34.7504
   -522276.87947   -327665.56244
                  23481685.9694                                   23481682.1884
                                                                        44.5004
        26.0004
   1717171.36347   1332358.27745
                  23708635.2034                                   23708631.5984
                                                                        44.0004
        31.2504
   1527866.38347   1192121.22344
                  22941445.1254                                   22941440.6764
                                                                        46.0004
        27.7504
    164834.47347    182948.92245
                  22148227.0394                                   22148220.4574
                                                                        47.0004
        35.5004
    446197.82847    387186.51645
                  22638343.8674                                   22638340.8674
                                                                        47.0004
        31.0004
    446716.99247    390862.05544
                  23765987.7974                                   23765984.5904
                                                                        43.7504
        29.5004
 09 10  4 23 14 30.0000000  0  9G02G04G12G13G17G20G23G30G31
   -472664.72348   -296429.34446
                  21964857.3284                                   21964852.2074
                                                                        51.5004
        38.5004
    349029.38348    316653.01247
                  20631853.7504                                   20631850.3204
                                                                        51.5004
        42.0004
   1025168.19147    818349.92245
                  22959932.1804                                   22959928.5744
                                                                        46.2504
        34.0004
   -720147.11747   -481850.15244
                  23444032.3834                                   23444028.8054
                                                                        45.0004
        27.5004
   1734331.64147   1345729.80945
                  23711900.9844                                   23711896.8634
                                                                        45.5004
        30.5004
   1527474.58247   1191815.93844
                  22941370.0164                                   22941365.9384
                                                                        45.0004
        28.5004
     34766.84447     81597.64845
                  22123475.6174                                   22123469.7074
                                                                        46.5004
        35.5004
    343424.88347    307103.72745
                  22618786.8754                                   22618784.1684
                                                                        45.2504
        30.5004
    343593.97747    310506.55944
                  23746364.5314                                   23746360.6054
                                                                        44.2504
        28.5004
 09 10  4 23 15  0.0000000  0  9G02G04G12G13G17G20G23G30G31
   -647794.97748   -432894.53946
                  21931531.0704                                   21931525.6484
                                                                        52.2504
        38.2504
    247467.73848    237514.07046
                  20612527.1254                                   20612523.9024
                                                                        51.5004
        41.7504
    982764.56347    785308.01245
                  22951863.2034                                   22951859.4844
                                                                        47.5004
        33.2504
   -917296.12147   -635472.66444
                  23406516.4454                                   23406512.2894
                                                                        45.7504
        26.7504
   1752109.21147   1359582.37945
                  23715283.1024                                   23715280.6214
                                                                        44.5004
        32.0004
   1527819.77047   1192084.87544
                  22941436.0634                                   22941432.3134
                                                                        45.5004
        28.0004
    -94291.05947    -18966.90245
                  22098916.3364                                   22098910.6884
                                                                        47.2504
        35.5004
    241746.03547    227873.51245
                  22599437.7344                                   22599435.2894
                                                                        45.0004
        31.7504
    241482.33247    230939.24244
                  23726933.4454                                   23726929.4494
                                                                        45.0004
        29.2504
 09 10  4 23 15 30.0000000  0  9G02G04G12G13G17G20G23G30G31
   -822169.98448   -568771.25046
                  21898348.6954                                   21898343.6804
                                                                        51.5004
        39.0004
    146875.40648    159130.41447
                  20593385.1024                                   20593382.2424
                                                                        51.7504
        42.2504
    941304.82447    753001.60245
                  22943973.7734                                   22943970.6054
                                                                        47.0004
        34.2504
  -1113732.95347   -788540.28944
                  23369135.8204                                   23369131.9344
                                                                        46.7504
        28.2504
   1770489.19147   1373904.30545
                  23718781.0864                                   23718777.8364
                                                                        45.0004
        30.0004
   1528887.75447   1192917.00044
                  22941639.0864                                   22941635.5124
                                                                        44.5004
        28.2504
   -222349.61748   -118752.72345
                  22074547.8984                                   22074541.7664
                                                                        48.0004
        35.5004
    141149.31647    149486.44545
                  22580294.8674                                   22580292.1054
                                                                        46.5004
        30.5004
    140369.97747    152150.34044
                  23707692.5004                                   23707688.5634
                                                                        44.0004
        28.2504
 09 10  4 23 16  0.0000000  0  9G02G04G12G13G17G20G23G30G31
   -995808.00448   -704073.64546
                  21865306.4844                                   21865301.5004
                                                                        51.2504
        38.7504
     47232.40648     81486.52046
                  20574423.6414                                   20574420.2304
                                                                        52.0004
        41.5004
    900767.59847    721414.26645
                  22936260.0004                                   22936255.9384
                                                                        47.0004
        34.2504
  -1309474.37947   -941065.98044
                  23331887.1564                                   23331883.6804
                                                                        46.5004
        28.2504
   1789449.50847   1388678.53944
                  23722389.3674                                   23722386.0824
                                                                        44.5004
        29.5004
   1530656.13747   1194294.95744
                  22941975.6644                                   22941971.9924
                                                                        44.2504
        26.5004
   -349427.77748   -217774.60945
                  22050365.5944                                   22050359.5314
                                                                        48.2504
        35.5004
     41615.43447     71927.66845
                  22561354.7894                                   22561351.4804
                                                                        45.7504
        30.2504
     40237.31347     74124.88344
                  23688637.2034                                   23688633.4064
                                                                        44.0004
        28.5004
 09 10  4 23 16 30.0000000  0  9G02G04G12G13G17G20G23G30G31
  -1168725.42248   -838814.48046
                  21832401.5944                                   21832396.1954
                                                                        51.7504
        39.0004
    -51480.12948      4567.57847
                  20555639.3134                                   20555636.1454
                                                                        50.7504
        42.0004
    861131.77747    690529.34045
                  22928717.5084                                   22928713.8244
                                                                        47.5004
        34.5004
  -1504536.53547  -1093062.40244
                  23294767.9534                                   23294764.0634
                                                                        46.2504
        28.0004
   1808969.40647   1403889.10944
                  23726103.9304                                   23726098.8914
                                                                        43.0004
        28.2504
   1533103.48047   1196202.02744
                  22942441.3834                                   22942436.9614
                                                                        45.2504
        26.5004
   -475543.12947   -316046.25445
                  22026366.5704                                   22026360.4534
                                                                        47.5004
        35.5004
    -56874.84047     -4817.98845
                  22542612.2424                                   22542609.7934
                                                                        45.7504
        31.0004
    -58934.07847     -3151.48044
                  23669765.8834                                   23669761.9844
                                                                        43.7504
        29.0004
 09 10  4 23 17  0.0000000  0  9G02G04G12G13G17G20G23G30G31
  -1340936.14548   -973004.65646
                  21799630.9224                                   21799625.6174
                                                                        51.5004
        38.5004
   -149277.14548    -71637.85546
                  20537029.2274                                   20537025.8874
                                                                        52.0004
        41.0004
    822379.62947    660332.85245
                  22921342.7974                                   22921339.3554
                                                                        47.2504
        34.5004
  -1698931.84047  -1244539.11744
                  23257775.8984                                   23257772.1414
                                                                        46.0004
        28.2504
   1829030.00846   1419520.63744
                  23729920.9064                                   23729917.6884
                                                                        41.0004
        28.5004
   1536211.59447   1198623.91844
                  22943032.9384                                   22943028.7194
                                                                        45.2504
        28.0004
   -600709.98448   -413578.79345
                  22002548.1484                                   22002542.0744
                                                                        49.2504
        35.7504
   -154336.88747    -80762.43445
                  22524065.8594                                   22524063.1914
                                                                        46.0004
        30.5004
   -157159.75047    -79690.98844
                  23651074.2974                                   23651070.4804
                                                                        44.2504
        29.0004
 09 10  4 23 17 30.0000000  0  9G02G04G12G13G17G20G23G30G31
  -1512452.40648  -1106653.65646
                  21766992.3364                                   21766986.9884
                                                                        51.5004
        39.5004
   -246173.19148   -147141.29346
                  20518590.6334                                   20518587.1414
                                                                        51.7504
        41.7504
    784494.78147    630812.23845
                  22914133.8754                                   22914130.2704
                                                                        47.2504
        34.0004
  -1892671.68047  -1395505.19944
                  23220907.9844                                   23220903.8874
                                                                        45.7504
        27.5004
   1849614.87547   1435560.69144
                  23733838.4774                                   23733834.5234
                                                                        42.7504
        29.7504
   1539963.94547   1201547.85944
                  22943747.1564                                   22943742.5904
                                                                        45.7504
        28.5004
   -724941.57848   -510382.57445
                  21978907.4454                                   21978901.3054
                                                                        48.2504
        35.2504
   -250784.92247   -155916.82845
                  22505713.0004                                   22505709.6374
                                                                        44.7504
        31.0004
   -254453.16047   -155504.03545
                  23632560.3134                                   23632556.1954
                                                                        44.0004
        30.7504
 09 10  4 23 18  0.0000000  0  9G02G04G12G13G17G20G23G30G31
  -1683290.21948  -1239773.98846
                  21734482.9924                                   21734478.1024
                                                                        51.2504
        39.2504
   -342186.76648   -221957.45346
                  20500319.8524                                   20500316.4654
                                                                        51.2504
        41.5004
    747457.60947    601952.18445
                  22907085.6484                                   22907082.1844
                                                                        45.2504
        34.2504
  -2085770.89847  -1545972.10544
                  23184162.4304                                   23184157.9614
                                                                        46.2504
        26.0004
   1870704.08247   1451993.80145
                  23737851.8594                                   23737848.3954
                                                                        42.7504
        30.7504
   1544340.15247   1204957.82044
                  22944579.2814                                   22944575.7114
                                                                        45.5004
        26.2504
   -848254.39548   -606470.54345
                  21955441.8594                                   21955435.7734
                                                                        48.5004
        35.0004
   -346236.63347   -230294.96145
                  22487548.7974                                   22487545.9694
                                                                        45.0004
        31.2504
   -350832.41447   -230604.77344
                  23614219.4384                                   23614215.7894
                                                                        44.5004
        28.7504
 09 10  4 23 18 30.0000000  0  9G02G04G12G13G17G20G23G30G31
  -1853459.99248  -1372373.85546
                  21702100.6334                                   21702095.7074
                                                                        51.2504
        39.5004
   -437328.42248   -296093.88346
                  20482215.2274                                   20482211.9774
                                                                        52.0004
        41.7504
    711253.88347    573741.53545
                  22900196.5944                                   22900192.5124
                                                                        47.0004
        34.0004
  -2278238.50047  -1695946.86344
                  23147537.1094                                   23147532.6374
                                                                        45.7504
        28.0004
   1892282.61347   1468808.14844
                  23741958.0944                                   23741954.5314
                                                                        43.5004
        29.7504
   1549325.75447   1208842.68444
                  22945528.6884                                   22945524.7704
                                                                        44.5004
        26.7504
   -970659.53548   -701851.25445
                  21932148.9694                                   21932142.9144
                                                                        49.5004
        35.5004
   -440704.19947   -303906.38344
                  22469572.4144                                   22469569.6054
                                                                        43.5004
        29.7504
   -446309.28147   -305002.33644
                  23596050.8914                                   23596046.6684
                                                                        43.7504
        29.0004
 09 10  4 23 19  0.0000000  0  9G02G04G12G13G17G20G23G30G31
  -2022973.89548  -1504462.58246
                  21669843.2974                                   21669838.4884
                                                                        51.5004
        39.5004
   -531613.24248   -369562.53546
                  20464273.6724                                   20464269.8984
                                                                        50.5004
        41.7504
    675866.88347    546167.35945
                  22893462.3204                                   22893458.4384
                                                                        45.7504
        34.0004
  -2470085.94547  -1845438.35544
                  23111029.9614                                   23111025.6644
                                                                        46.2504
        28.5004
   1914333.84047   1485990.93444
                  23746154.3594                                   23746150.6914
                                                                        43.5004
        28.7504
   1554903.78547   1213189.20744
                  22946590.0314                                   22946586.0594
                                                                        45.0004
        27.2504
  -1092170.34848   -796534.99645
                  21909026.0314                                   21909020.4264
                                                                        49.5004
        35.5004
   -534201.72747   -376761.74245
                  22451780.2274                                   22451777.5664
                                                                        42.7504
        30.2504
   -540898.28547   -378708.03944
                  23578051.1484                                   23578047.1954
                                                                        43.0004
        28.5004
 09 10  4 23 19 30.0000000  0  9G02G04G12G13G17G20G23G30G31
  -2191841.50448  -1636047.66846
                  21637708.8204                                   21637703.5664
                                                                        52.0004
        39.2504
   -625052.83248   -442372.60247
                  20446492.5234                                   20446489.3284
                                                                        50.5004
        42.0004
    641282.60947    519218.64845
                  22886881.0554                                   22886876.9574
                                                                        46.7504
        34.5004
  -2661321.96547  -1994453.49244
                  23074639.2274                                   23074634.9734
                                                                        46.2504
        28.5004
   1936843.70347   1503531.06644
                  23750437.3054                                   23750434.4344
                                                                        43.5004
        29.5004
   1561060.18447   1217986.39544
                  22947761.2894                                   22947757.5904
                                                                        45.0004
        27.0004
  -1212797.32048   -890530.04746
                  21886071.7504                                   21886066.2274
                                                                        48.7504
        36.0004
   -626740.26247   -448869.75445
                  22434171.0084                                   22434168.5594
                                                                        43.2504
        30.2504
   -634610.44947   -451730.48044
                  23560217.8834                                   23560213.8634
                                                                        43.0004
        28.5004
 09 10  4 23 20  0.0000000  0  9G02G04G12G13G17G20G23G30G31
  -2360073.09448  -1767137.16846
                  21605695.5164                                   21605690.2074
                                                                        51.7504
        39.0004
   -717659.16848   -514533.39546
                  20428870.1564                                   20428866.9964
                                                                        51.2504
        41.7504
    607487.35247    492884.62145
                  22880449.3984                                   22880446.4804
                                                                        47.0004
        34.0004
  -2851955.10247  -2142998.75844
                  23038362.5394                                   23038358.6374
                                                                        46.0004
        27.7504
   1959797.70347   1521417.19544
                  23754805.0004                                   23754802.3484
                                                                        42.0004
        26.5004
   1567780.41847   1223222.87944
                  22949040.6484                                   22949036.1254
                                                                        45.0004
        26.7504
  -1332551.21548   -983844.73845
                  21863283.3594                                   21863277.4804
                                                                        48.7504
        35.5004
   -718332.37147   -520240.29745
                  22416741.6724                                   22416738.9534
                                                                        43.0004
        31.0004
   -727458.26247   -524079.48044
                  23542549.7344                                   23542545.6254
                                                                        43.7504
        29.2504
 09 10  4 23 20 30.0000000  0  9G02G04G12G13G17G20G23G30G31
  -2527677.08648  -1897737.65246
                  21573801.1564                                   21573796.2424
                                                                        51.7504
        39.2504
   -809442.83248   -586053.22747
                  20411404.0554                                   20411400.6294
                                                                        49.7504
        42.0004
    574470.03947    467157.34445
                  22874166.5784                                   22874163.1604
                                                                        45.5004
        34.0004
  -3041993.21547  -2291080.37944
                  23002199.6564                                   23002195.3204
                                                                        46.0004
        28.5004
   1983183.10247   1539639.51644
                  23759255.4454                                   23759251.3594
                                                                        44.5004
        27.0004
   1575051.51647   1228888.62544
                  22950424.1954                                   22950419.8914
                                                                        45.0004
        26.5004
  -1451441.33247  -1076486.37145
                  21840659.3444                                   21840653.3914
                                                                        47.2504
        35.7504
   -808988.37147   -590881.27045
                  22399490.5634                                   22399487.7234
                                                                        44.5004
        32.0004
   -819451.77746   -595762.87144
                  23525044.1884                                   23525040.3164
                                                                        41.5004
        29.0004
 09 10  4 23 21  0.0000000  0  9G02G04G12G13G17G20G23G30G31
  -2694661.32448  -2027855.13346
                  21542025.4224                                   21542020.0044
                                                                        51.7504
        39.7504
   -900413.34048   -656939.32847
                  20394093.0164                                   20394089.7704
                                                                        52.2504
        42.2504
    542216.93847    442025.44145
                  22868028.5864                                   22868025.3714
                                                                        45.5004
        34.0004
  -3231442.88347  -2438703.44544
                  22966148.7114                                   22966144.3054
                                                                        46.2504
        29.0004
   2006987.71147   1558188.55544
                  23763785.9774                                   23763781.5904
                                                                        45.7504
        29.5004
   1582861.24247   1234974.01244
                  22951910.4694                                   22951906.4694
                                                                        45.0004
        28.0004
  -1569476.65248  -1168461.90245
                  21818198.2194                                   21818191.8244
                                                                        48.5004
        35.5004
   -898717.85247   -660800.12145
                  22382415.1804                                   22382412.5864
                                                                        45.0004
        30.7504
   -910600.77047   -666788.18744
                  23507699.2734                                   23507695.3134
                                                                        43.5004
        27.2504
 09 10  4 23 21 30.0000000  0  9G02G04G12G13G17G20G23G30G31
  -2861031.47748  -2157494.21946
                  21510365.9844                                   21510361.1564
                                                                        52.0004
        39.5004
   -990577.83648   -727197.23847
                  20376935.0164                                   20376931.7464
                                                                        50.7504
        42.2504
    510719.09847    417482.06645
                  22862034.5634                                   22862031.0124
                                                                        45.7504
        34.5004
  -3420309.03147  -2585871.91444
                  22930208.3674                                   22930204.3874
                                                                        46.2504
        28.7504
   2031201.67247   1577056.53545
                  23768393.6644                                   23768390.2624
                                                                        45.0004
        31.2504
   1591200.00447   1241471.64144
                  22953496.7734                                   22953493.2734
                                                                        44.5004
        25.5004
  -1686663.42248  -1259776.32845
                  21795897.9694                                   21795891.8404
                                                                        48.7504
        35.2504
   -987529.16447   -730003.67245
                  22365515.1334                                   22365512.5744
                                                                        43.2504
        31.0004
  -1000912.53547   -737161.10544
                  23490513.3594                                   23490509.2704
                                                                        44.2504
        29.2504
 09 10  4 23 22  0.0000000  0  9G02G04G12G13G17G20G23G30G31
  -3026798.73848  -2286663.45746
                  21478821.8364                                   21478816.6294
                                                                        52.2504
        39.5004
  -1079950.55548   -796838.28947
                  20359928.0864                                   20359924.7934
                                                                        50.0004
        42.0004
    479960.51647    393514.58245
                  22856181.4844                                   22856177.6374
                                                                        46.5004
        33.7504
  -3608601.50847  -2732593.28544
                  22894377.3204                                   22894373.0274
                                                                        45.7504
        28.5004
   2055808.84447   1596230.77345
                  23773076.2664                                   23773072.8674
                                                                        45.2504
        31.2504
   1600052.26647   1248369.50044
                  22955181.2894                                   22955177.9264
                                                                        44.5004
        26.5004
  -1803013.97748  -1350439.23045
                  21773757.0864                                   21773751.5234
                                                                        49.2504
        35.7504
  -1075435.68047   -798502.40245
                  22348786.9614                                   22348784.5514
                                                                        42.7504
        30.5004
  -1090400.26247   -806891.71144
                  23473484.4224                                   23473480.7034
                                                                        42.5004
        28.0004
 09 10  4 23 22 30.0000000  0  9G02G04G12G13G17G20G23G30G31
  -3191968.73048  -2415367.34046
                  21447391.0314                                   21447385.4494
                                                                        51.7504
        39.2504
  -1168538.34048   -865867.73847
                  20343070.3594                                   20343066.8874
                                                                        51.7504
        42.0004
    449931.91047    370115.68045
                  22850466.9844                                   22850463.7814
                                                                        46.0004
        34.5004
  -3796324.90247  -2878871.33244
                  22858654.5004                                   22858650.4144
                                                                        45.5004
        28.2504
   2080799.97747   1615704.30944
                  23777831.9694                                   23777828.6804
                                                                        44.2504
        29.5004
   1609407.59447   1255659.35944
                  22956961.8364                                   22956958.5594
                                                                        43.7504
        27.5004
  -1918534.64548  -1440455.35545
                  21751774.8984                                   21751768.6804
                                                                        49.7504
        35.5004
  -1162444.73447   -866301.91845
                  22332229.8984                                   22332226.9104
                                                                        44.0004
        30.5004
  -1179071.89546   -875986.64544
                  23456611.0004                                   23456607.4694
                                                                        41.2504
        28.0004
 09 10  4 23 23  0.0000000  0  9G02G04G12G13G17G20G23G30G31
  -1781122.92648  -1316007.04746
                  21715865.9224                                   21715860.6254
                                                                        51.7504
        39.5004
    319072.26248    293309.28147
                  20626153.3444                                   20626150.4144
                                                                        51.0004
        42.0004
   1996042.70747   1574877.27045
                  23144682.4384                                   23144678.0704
                                                                        47.0004
        34.2504
  -2408058.81647  -1797105.59445
                  23122832.8134                                   23122829.0824
                                                                        45.2504
        30.0004
   3681583.09847   2863067.69544
                  24082450.7584                                   24082447.6374
                                                                        44.0004
        27.5004
   3194674.82847   2490932.57444
                  23258627.7894                                   23258624.4104
                                                                        44.0004
        25.7504
   -457809.77348   -302228.17245
                  22029741.1024                                   22029734.9064
                                                                        48.5004
        35.5004
    326857.38747    294193.05545
                  22615635.1954                                   22615632.2974
                                                                        45.5004
        30.5004
    308487.62547    283150.77045
                  23739683.7504                                   23739680.5124
                                                                        42.7504
        30.2504
 09 10  4 23 23 30.0000000  0  9G02G04G12G13G17G20G23G30G31
  -1945117.59048  -1443795.09046
                  21684658.6174                                   21684653.5664
                                                                        51.5004
        39.0004
    232028.10248    225482.58247
                  20609589.2894                                   20609586.2234
                                                                        50.5004
        42.0004
   1967442.03547   1552591.03545
                  23139239.7344                                   23139235.9654
                                                                        45.5004
        33.5004
  -2594660.11347  -1942509.16845
                  23087323.7734                                   23087320.2074
                                                                        46.5004
        30.0004
   3707308.88347   2883113.70344
                  24087346.3524                                   24087342.9384
                                                                        43.2504
        27.0004
   3205004.22347   2498981.55944
                  23260593.7114                                   23260589.7464
                                                                        44.2504
        26.2504
   -571693.28948   -390968.57045
                  22008069.7664                                   22008063.2934
                                                                        49.2504
        35.5004
    241617.71147    227772.55545
                  22599414.0234                                   22599411.0944
                                                                        42.7504
        30.2504
    221424.01647    215308.80544
                  23723116.3754                                   23723112.4414
                                                                        43.5004
        28.7504
 09 10  4 23 24  0.0000000  0  9G02G04G12G13G17G20G23G30G31
  -2108535.04748  -1571133.30946
                  21653561.0634                                   21653556.2544
                                                                        52.0004
        39.0004
    145742.32848    158246.84446
                  20593169.9304                                   20593167.0514
                                                                        51.5004
        41.5004
   1939538.87147   1530848.42245
                  23133929.8834                                   23133925.9264
                                                                        45.0004
        33.2504
  -2780709.35547  -2087482.61744
                  23051920.0634                                   23051916.4414
                                                                        46.2504
        29.0004
   3733385.24647   2903432.77744
                  24092308.5164                                   24092305.3364
                                                                        44.0004
        28.7504
   3215803.67647   2507396.76244
                  23262648.7034                                   23262644.6334
                                                                        44.2504
        25.0004
   -684770.20348   -479080.37545
                  21986551.7274                                   21986545.9734
                                                                        48.5004
        35.7504
    157248.64847    162030.51245
                  22583359.3284                                   22583356.6954
                                                                        44.5004
        30.7504
    135150.55147    148082.73044
                  23706699.0634                                   23706695.3554
                                                                        43.0004
        29.5004
 09 10  4 23 24 30.0000000  0  9G02G04G12G13G17G20G23G30G31
  -2271381.01248  -1698026.20746
                  21622572.6174                                   21622567.4924
                                                                        51.7504
        40.5004
     60207.12948     91595.84047
                  20576893.0634                                   20576889.6844
                                                                        52.0004
        42.2504
   1912323.63747   1509641.78945
                  23128750.6884                                   23128747.1804
                                                                        45.0004
        33.5004
  -2966211.07447  -2232029.34444
                  23016620.0234                                   23016616.2344
                                                                        45.5004
        29.2504
   3759802.10547   2924017.28144
                  24097336.0474                                   24097331.9184
                                                                        45.5004
        29.2504
   3227063.32847   2516170.56644
                  23264791.6884                                   23264787.5164
                                                                        44.7504
        26.5004
   -797047.49248   -566569.21145
                  21965186.3914                                   21965180.1994
                                                                        48.7504
        35.2504
     73742.77047     96961.11745
                  22567468.5084                                   22567465.7734
                                                                        45.5004
        30.2504
     49660.27347     81466.97344
                  23690430.8134                                   23690427.2424
                                                                        44.0004
        29.7504
 09 10  4 23 25  0.0000000  0  9G02G04G12G13G17G20G23G30G31
  -2433658.98448  -1824476.53946
                  21591692.0944                                   21591686.9804
                                                                        52.5004
        39.5004
    -24582.61348     25525.82847
                  20560758.4304                                   20560755.3244
                                                                        52.5004
        42.0004
   1885788.27347   1488964.82445
                  23123701.1804                                   23123697.1764
                                                                        46.0004
        32.7504
  -3151167.72747  -2376151.34044
                  22981424.0784                                   22981420.2424
                                                                        46.0004
        28.2504
   3786551.89547   2944861.23044
                  24102426.3054                                   24102422.4264
                                                                        44.0004
        28.2504
   3238775.15647   2525296.69144
                  23267020.4144                                   23267016.0124
                                                                        43.2504
        24.2504
   -908529.12948   -653437.99645
                  21943971.7894                                   21943966.1174
                                                                        49.0004
        35.5004
     -8905.32447     32560.25845
                  22551740.6804                                   22551738.0204
                                                                        45.5004
        31.0004
    -35052.85947     15456.82844
                  23674310.2734                                   23674306.4614
                                                                        43.0004
        28.7504
 09 10  4 23 25 30.0000000  0  9G02G04G12G13G17G20G23G30G31
  -2595373.55148  -1950487.82046
                  21560918.8834                                   21560913.8364
                                                                        52.2504
        39.7504
   -108634.30548    -39969.10947
                  20544764.1024                                   20544761.0274
                                                                        51.7504
        42.2504
   1859924.12547   1468811.04745
                  23118779.3524                                   23118775.5394
                                                                        45.5004
        33.0004
  -3335583.60947  -2519852.03545
                  22946330.8754                                   22946326.8484
                                                                        46.2504
        30.0004
   3813625.04347   2965957.10244
                  24107577.6804                                   24107574.6914
                                                                        42.0004
        26.2504
   3250929.60547   2534767.77744
                  23269333.3054                                   23269329.2464
                                                                        43.2504
        26.7504
  -1019221.52748   -739691.82845
                  21922908.0864                                   21922901.8324
                                                                        48.5004
        35.5004
    -90703.59447    -31178.52345
                  22536174.8134                                   22536172.1454
                                                                        46.7504
        31.0004
   -118995.96547    -49953.27044
                  23658336.8524                                   23658332.6644
                                                                        43.5004
        28.5004
 09 10  4 23 26  0.0000000  0  9G02G04G12G13G17G20G23G30G31
  -2756529.14148  -2076063.62546
                  21530252.0234                                   21530247.0864
                                                                        52.7504
        40.0004
   -191953.52048   -104893.36346
                  20528909.1174                                   20528906.1254
                                                                        52.0004
        41.7504
   1834722.87547   1449173.75045
                  23113983.9304                                   23113980.1524
                                                                        45.2504
        34.0004
  -3519460.84847  -2663133.01245
                  22911340.2974                                   22911336.8094
                                                                        46.5004
        30.5004
   3841013.64147   2987298.75844
                  24112789.8444                                   24112786.6484
                                                                        42.0004
        27.0004
   3263519.07447   2544577.78544
                  23271728.8834                                   23271724.7194
                                                                        43.0004
        25.0004
  -1129129.07448   -825334.05545
                  21901993.3134                                   21901987.3134
                                                                        50.0004
        35.5004
   -171657.75847    -94259.62945
                  22520770.0704                                   22520767.0824
                                                                        45.5004
        31.2504
   -202174.86347   -114767.97345
                  23642508.1414                                   23642504.5704
                                                                        42.2504
        30.0004
 09 10  4 23 26 30.0000000  0  9G02G04G12G13G17G20G23G30G31
  -2917126.66048  -2201204.42246
                  21499691.0704                                   21499686.1564
                                                                        52.2504
        40.0004
   -274544.05548   -169249.65247
                  20513192.3674                                   20513189.6094
                                                                        51.0004
        42.0004
   1810178.53147   1430048.28945
                  23109313.3594                                   23109309.6374
                                                                        46.5004
        33.5004
  -3702800.27047  -2805994.89145
                  22876451.9304                                   22876448.0164
                                                                        46.7504
        30.5004
   3868711.53947   3008881.46544
                  24118061.1884                                   24118057.7974
                                                                        44.0004
        29.2504
   3276537.38347   2554721.99644
                  23274205.6564                                   23274202.2734
                                                                        42.2504
        25.2504
  -1238254.86748   -910367.13345
                  21881227.2424                                   21881221.3914
                                                                        48.7504
        35.0004
   -251772.16047   -156686.56245
                  22505525.1024                                   22505521.9414
                                                                        46.5004
        31.2504
   -284593.26647   -178990.12944
                  23626824.0864                                   23626820.4574
                                                                        44.2504
        29.5004
 09 10  4 23 27  0.0000000  0  9G02G04G12G13G17G20G23G30G31
  -3077173.13348  -2325915.83246
                  21469235.2114                                   21469230.0594
                                                                        52.2504
        40.0004
   -356414.55548   -233044.87946
                  20497612.9064                                   20497610.1454
                                                                        52.0004
        41.7504
   1786280.85947   1411426.83245
                  23104765.5784                                   23104761.9924
                                                                        46.0004
        33.7504
  -3885607.10947  -2948441.73444
                  22841664.6334                                   22841660.9844
                                                                        45.5004
        29.5004
   3896708.23847   3030697.01644
                  24123388.8594                                   24123385.0864
                                                                        44.2504
        28.7504
   3289973.42646   2565191.50844
                  23276762.6644                                   23276759.0314
                                                                        41.5004
        26.0004
  -1346607.00848   -994797.56645
                  21860609.0864                                   21860602.7774
                                                                        49.7504
        35.5004
   -331054.89547   -218465.32445
                  22490437.7664                                   22490434.6024
                                                                        46.7504
        30.5004
   -366259.32047   -242625.94144
                  23611284.0784                                   23611280.2424
                                                                        44.5004
        29.5004
 09 10  4 23 27 30.0000000  0  9G02G04G12G13G17G20G23G30G31
  -3236668.57848  -2450197.89546
                  21438884.1414                                   21438878.8874
                                                                        52.7504
        40.5004
   -437567.30948   -296280.82847
                  20482170.0554                                   20482167.2194
                                                                        49.5004
        42.0004
   1763025.30947   1393305.62545
                  23100340.1954                                   23100336.3674
                                                                        45.5004
        32.7504
  -4067880.87147  -3090473.19544
                  22806979.0864                                   22806974.9924
                                                                        45.7504
        29.5004
   3924999.12147   3052741.93044
                  24128772.2034                                   24128768.6214
                                                                        44.0004
        28.5004
   3303823.07847   2575983.37944
                  23279398.0474                                   23279394.6294
                                                                        43.2504
        26.2504
  -1454186.10948  -1078625.48045
                  21840137.1884                                   21840131.6054
                                                                        48.5004
        35.0004
   -409508.83247   -279598.35245
                  22475508.8204                                   22475505.7304
                                                                        44.0004
        32.0004
   -447176.03947   -305677.98044
                  23595886.3204                                   23595882.1644
                                                                        44.0004
        29.2504
 09 10  4 23 28  0.0000000  0  9G02G04G12G13G17G20G23G30G31
  -3395614.74248  -2574052.09846
                  21408637.7664                                   21408632.5354
                                                                        52.5004
        40.0004
   -518006.08648   -358960.47746
                  20466863.3134                                   20466860.2934
                                                                        51.5004
        41.7504
   1740406.05147   1375680.35945
                  23096035.7274                                   23096031.7344
                                                                        45.5004
        31.7504
  -4249621.97347  -3232089.61744
                  22772395.0164                                   22772391.0474
                                                                        46.5004
        29.7504
   3953578.01247   3075011.20344
                  24134210.1564                                   24134207.0664
                                                                        43.7504
        27.7504
   3318080.15647   2587092.68444
                  23282111.5004                                   23282107.3914
                                                                        43.5004
        26.5004
  -1560995.01248  -1161853.25045
                  21819812.0394                                   21819805.9184
                                                                        49.5004
        35.5004
   -487137.85947   -340088.50445
                  22460736.0864                                   22460733.3134
                                                                        45.7504
        31.7504
   -527346.87547   -368148.85944
                  23580630.0474                                   23580626.2424
                                                                        43.5004
        29.7504
 09 10  4 23 28 30.0000000  0  9G02G04G12G13G17G20G23G30G31
  -3554015.85248  -2697481.52346
                  21378495.0864                                   21378489.5434
                                                                        52.0004
        39.7504
   -597737.16048   -421088.53947
                  20451690.7974                                   20451687.6994
                                                                        53.0004
        43.0004
   1718414.23047   1358543.80545
                  23091850.7114                                   23091846.9104
                                                                        45.0004
        33.5004
  -4430833.71947  -3373293.55945
                  22737912.0234                                   22737907.3754
                                                                        47.5004
        30.2504
   3982436.39547   3097498.23044
                  24139701.9454                                   24139698.6054
                                                                        43.2504
        28.0004
   3332736.80147   2598513.61344
                  23284900.6174                                   23284896.4574
                                                                        43.5004
        24.7504
  -1667039.39548  -1244485.28545
                  21799632.7034                                   21799626.2974
                                                                        48.7504
        35.5004
   -563948.31247   -399940.60245
                  22446119.7114                                   22446116.8714
                                                                        46.0004
        30.5004
   -606778.07047   -430043.29744
                  23565514.4844                                   23565511.2234
                                                                        44.2504
        29.2504
 09 10  4 23 29  0.0000000  0  9G02G04G12G13G17G20G23G30G31
  -3711873.28948  -2820487.21546
                  21348455.9304                                   21348450.7194
                                                                        52.0004
        40.0004
   -676764.43048   -482668.05547
                  20436652.3054                                   20436649.2504
                                                                        52.2504
        42.0004
   1697044.82447   1341892.69545
                  23087784.0164                                   23087780.0124
                                                                        45.7504
        33.2504
  -4611516.87547  -3514085.63344
                  22703528.7274                                   22703524.7344
                                                                        47.5004
        29.7504
   4011568.50047   3120198.57044
                  24145245.4384                                   24145242.2774
                                                                        43.7504
        26.0004
   3347785.75447   2610240.05943
                  23287763.8984                                   23287759.6214
                                                                        42.5004
        22.5004
  -1772322.13348  -1326523.73845
                  21779598.2814                                   21779591.6884
                                                                        50.0004
        35.5004
   -639945.23447   -459158.84845
                  22431658.2194                                   22431654.7584
                                                                        45.5004
        31.0004
   -685473.84447   -491364.73044
                  23550539.4144                                   23550535.8634
                                                                        43.0004
        29.7504
 09 10  4 23 29 30.0000000  0  9G02G04G12G13G17G20G23G30G31
  -3869190.75448  -2943072.08646
                  21318518.7584                                   21318513.6024
                                                                        52.2504
        40.0004
   -755093.85548   -543703.83646
                  20421746.6644                                   20421743.9694
                                                                        52.0004
        41.2504
   1676288.98847   1325719.26245
                  23083834.4924                                   23083830.1454
                                                                        45.5004
        33.0004
  -4791674.05547  -3654467.82045
                  22669245.8984                                   22669241.7814
                                                                        47.0004
        30.0004
   4040966.39547   3143105.88744
                  24150839.6644                                   24150836.2114
                                                                        43.0004
        25.7504
   3363220.13746   2622266.88344
                  23290700.8754                                   23290696.7344
                                                                        41.2504
        25.2504
  -1876847.89548  -1407972.37546
                  21759707.0554                                   21759701.3954
                                                                        50.2504
        36.0004
   -715134.44147   -517748.00845
                  22417349.8754                                   22417346.9494
                                                                        43.0004
        30.7504
   -763439.32046   -552116.80144
                  23535703.1954                                   23535699.1884
                                                                        41.7504
        29.2504
 09 10  4 23 30  0.0000000  0  9G02G04G12G13G17G20G23G30G31
  -4025972.52348  -3065239.48046
                  21288684.4304                                   21288679.1094
                                                                        53.0004
        40.7504
   -832731.74248   -604200.85947
                  20406972.7114                                   20406969.7304
                                                                        51.7504
        42.0004
   1656138.66047   1310017.66845
                  23079999.8914                                   23079995.8634
                                                                        45.7504
        33.0004
  -4971307.92247  -3794442.26245
                  22635062.6334                                   22635058.9024
                                                                        47.2504
        30.0004
   4070621.38747   3166213.57844
                  24156483.2194                                   24156479.3984
                                                                        43.2504
        26.5004
   3379031.04346   2634586.99243
                  23293709.6644                                   23293706.3914
                                                                        41.5004
        22.7504
  -1980621.93748  -1488835.16446
                  21739959.9614                                   21739953.9104
                                                                        49.2504
        36.0004
   -789521.34047   -575711.62145
                  22403194.6724                                   22403191.3324
                                                                        46.7504
        30.0004
   -840682.08247   -612306.05544
                  23521004.3524                                   23521000.3594
                                                                        44.0004
        29.0004
 09 10  4 23 30 30.0000000  0  8G02G04G12G13G20G23G30G31
  -4182217.61348  -3186988.69146
                  21258951.7114                                   21258946.4224
                                                                        52.2504
        40.0004
   -909679.43448   -664160.03946
                  20392329.9694                                   20392326.7464
                                                                        51.7504
        41.7504
   1636589.89147   1294784.77745
                  23076279.8524                                   23076276.2034
                                                                        45.2504
        33.5004
  -5150417.12947  -3934007.93045
                  22600979.5164                                   22600975.9224
                                                                        46.7504
        30.5004
   3395215.34446   2647198.09444
                  23296789.3054                                   23296785.6644
                                                                        40.5004
        25.5004
  -2083645.36748  -1569113.14545
                  21720355.0474                                   21720348.9844
                                                                        49.7504
        35.0004
   -863108.98847   -633052.51644
                  22389191.1094                                   22389187.6844
                                                                        46.7504
        29.5004
   -917202.53547   -671932.30944
                  23506442.9304                                   23506438.6914
                                                                        44.5004
        29.0004
 09 10  4 23 31  0.0000000  0  8G02G04G12G13G20G23G30G31
  -4337929.86348  -3308322.71146
                  21229320.6724                                   21229315.0084
                                                                        53.0004
        40.5004
   -985943.08648   -723586.32847
                  20377817.6644                                   20377814.1884
                                                                        52.0004
        42.0004
   1617635.57047   1280015.13745
                  23072673.1954                                   23072669.1214
                                                                        45.5004
        32.5004
  -5329003.83647  -4073166.37944
                  22566995.2664                                   22566991.6644
                                                                        46.7504
        29.7504
   3411765.08646   2660094.03144
                  23299938.6564                                   23299935.7504
                                                                        40.0004
        25.7504
  -2185923.09048  -1648810.31245
                  21700892.3364                                   21700886.3324
                                                                        49.5004
        35.2504
   -935903.03947   -689775.03545
                  22375338.4614                                   22375335.0864
                                                                        47.0004
        30.2504
   -993007.07447   -731000.76644
                  23492017.7274                                   23492013.3594
                                                                        44.2504
        28.7504
 09 10  4 23 31 30.0000000  0  8G02G04G12G13G20G23G30G31
  -4493102.52348  -3429236.19946
                  21199792.1564                                   21199786.1254
                                                                        52.2504
        40.5004
  -1061517.98048   -782475.90646
                  20363436.0864                                   20363433.0044
                                                                        51.5004
        41.5004
   1599277.87147   1265710.41845
                  23069179.7814                                   23069175.9454
                                                                        45.5004
        33.0004
  -5507060.74247  -4211911.99245
                  22533112.2114                                   22533108.4804
                                                                        46.0004
        30.5004
   3428682.31646   2673276.38744
                  23303158.3594                                   23303154.9494
                                                                        40.2504
        25.5004
  -2287449.62948  -1727922.18045
                  21681572.6094                                   21681566.9144
                                                                        50.2504
        35.5004
  -1007899.46147   -745876.05144
                  22361638.2664                                   22361634.8634
                                                                        45.0004
        29.7504
  -1068091.54347   -789508.15244
                  23477729.3054                                   23477725.3404
                                                                        43.0004
        28.0004
 09 10  4 23 32  0.0000000  0  8G02G04G12G13G20G23G30G31
  -3072310.93048  -2322125.68446
                  21470159.3524                                   21470153.7664
                                                                        52.5004
        40.7504
    439015.88348    386771.14846
                  20648978.1884                                   20648975.3134
                                                                        52.5004
        41.7504
   3156932.73847   2479467.41045
                  23365591.7194                                   23365588.2584
                                                                        45.5004
        32.5004
  -4109161.05147  -3122639.52745
                  22799123.5944                                   22799119.8284
                                                                        46.5004
        30.0004
   5021382.14146   3914341.26644
                  23606238.8444                                   23606235.3204
                                                                        41.2504
        26.0004
   -812802.62948   -578846.74646
                  21962188.7664                                   21962183.0044
                                                                        49.5004
        36.0004
    496321.58647    426244.39145
                  22647881.9774                                   22647878.5514
                                                                        47.5004
        31.0004
    432964.31347    380145.64544
                  23763371.0634                                   23763366.6054
                                                                        43.7504
        28.0004
 09 10  4 23 32 30.0000000  0  8G02G04G12G13G20G23G30G31
  -3226407.09848  -2442200.65646
                  21440835.9614                                   21440830.2814
                                                                        52.5004
        40.5004
    364809.82848    328948.16447
                  20634857.4454                                   20634854.2424
                                                                        51.2504
        42.2504
   3139753.19547   2466080.77045
                  23362322.6334                                   23362319.0474
                                                                        45.0004
        32.7504
  -4286157.14147  -3260558.58245
                  22765442.4064                                   22765438.4184
                                                                        47.2504
        30.5004
   5039020.11346   3928085.19544
                  23609595.1414                                   23609591.4384
                                                                        40.7504
        25.5004
   -912831.99648   -656791.84045
                  21943153.9924                                   21943148.1024
                                                                        49.0004
        34.7504
    425910.84847    371378.94945
                  22634483.0554                                   22634479.6684
                                                                        46.5004
        30.2504
    359312.16047    322754.51644
                  23749355.5004                                   23749351.1604
                                                                        43.2504
        28.2504
 09 10  4 23 33  0.0000000  0  8G02G04G12G13G20G23G30G31
  -3379972.24248  -2561861.87146
                  21411613.4694                                   21411608.0394
                                                                        52.5004
        41.0004
    291277.66048    271650.38747
                  20620864.7034                                   20620862.2304
                                                                        52.0004
        42.7504
   3123148.87147   2453142.31645
                  23359163.0944                                   23359159.0594
                                                                        45.0004
        32.5004
  -4462628.66447  -3398068.81245
                  22731861.8524                                   22731856.8404
                                                                        47.5004
        31.2504
   5057004.61746   3942099.13743
                  23613017.3444                                   23613013.0274
                                                                        39.7504
        21.0004
  -1012122.26248   -734160.96945
                  21924259.6564                                   21924253.8984
                                                                        49.5004
        34.7504
    356281.00847    317121.80545
                  22621232.6484                                   22621229.6954
                                                                        46.0004
        30.2504
    286364.57447    265912.21944
                  23735474.0474                                   23735469.9534
                                                                        44.2504
        27.5004
 09 10  4 23 33 30.0000000  0  8G02G04G12G13G20G23G30G31
  -3533009.78948  -2681111.95346
                  21382491.2974                                   21382485.9064
                                                                        52.0004
        39.7504
    218413.62148    214873.46547
                  20606999.0704                                   20606995.5744
                                                                        52.5004
        42.7504
   3107111.82847   2440645.91445
                  23356111.1954                                   23356107.7274
                                                                        45.5004
        32.5004
  -4638577.99647  -3535172.20345
                  22698379.1174                                   22698375.1294
                                                                        46.2504
        30.7504
   5075327.77346   3956376.91843
                  23616504.0004                                   23616499.9804
                                                                        40.5004
        22.5004
  -1110678.48848   -810958.15246
                  21905505.1254                                   21905499.5004
                                                                        50.7504
        36.0004
    287426.69947    263468.82845
                  22608130.3754                                   22608127.5124
                                                                        46.7504
        31.2504
    214115.90647    209614.49644
                  23721725.5554                                   23721721.4344
                                                                        44.5004
        28.0004
 09 10  4 23 34  0.0000000  0  8G02G04G12G13G20G23G30G31
  -3685524.23048  -2799954.51246
                  21353469.2424                                   21353463.4024
                                                                        52.0004
        40.0004
    146210.28948    158610.94547
                  20593259.3914                                   20593255.9384
                                                                        52.5004
        42.2504
   3091633.57447   2428584.87145
                  23353166.0164                                   23353161.6844
                                                                        44.5004
        32.5004
  -4814008.55547  -3671871.32844
                  22664995.4454                                   22664991.6564
                                                                        46.5004
        29.7504
   5093981.14546   3970912.00443
                  23620053.7814                                   23620049.9654
                                                                        40.7504
        22.2504
  -1208506.16848   -887187.56246
                  21886889.1334                                   21886883.7544
                                                                        50.2504
        36.0004
    219341.12147    210415.03545
                  22595173.8364                                   22595171.1454
                                                                        47.0004
        30.7504
    142559.61347    153856.27344
                  23708108.5704                                   23708105.0234
                                                                        44.5004
        28.2504
 09 10  4 23 34 30.0000000  0  8G02G04G12G13G20G23G30G31
  -3837514.16848  -2918388.20346
                  21324546.4384                                   21324540.8674
                                                                        51.2504
        40.2504
     74666.77348    102862.66046
                  20579645.1724                                   20579642.0204
                                                                        53.2504
        41.5004
   3076710.43447   2416956.38345
                  23350326.0864                                   23350322.1374
                                                                        47.0004
        31.2504
  -4988918.54347  -3808164.80145
                  22631710.9064                                   22631707.5474
                                                                        46.2504
        30.5004
   5112961.18047   3985701.55944
                  23623665.8444                                   23623662.3324
                                                                        42.5004
        24.5004
  -1305606.02748   -962849.82845
                  21868411.5634                                   21868406.1374
                                                                        50.0004
        35.7504
    152022.38347    157958.84845
                  22582364.5784                                   22582361.3754
                                                                        46.5004
        30.7504
     71694.54347     98636.83244
                  23694623.5474                                   23694619.9844
                                                                        44.5004
        28.0004
 09 10  4 23 35  0.0000000  0  8G02G04G12G13G20G23G30G31
  -3988980.34448  -3036413.81246
                  21295723.3594                                   21295717.7894
                                                                        51.7504
        40.7504
      3780.50448     47626.59846
                  20566156.1414                                   20566152.6374
                                                                        52.5004
        41.7504
   3062337.84047   2405756.94145
                  23347590.9614                                   23347587.1334
                                                                        46.5004
        32.5004
  -5163307.38347  -3944052.19945
                  22598526.6564                                   22598522.4574
                                                                        46.7504
        32.0004
   5132263.52347   4000742.30944
                  23627339.5784                                   23627335.7664
                                                                        42.7504
        26.0004
  -1401980.09048  -1037946.52345
                  21850072.2974                                   21850066.6644
                                                                        50.5004
        35.7504
     85466.69147    106097.10545
                  22569699.1724                                   22569696.1954
                                                                        46.0004
        30.7504
      1516.95747     43953.04744
                  23681269.6334                                   23681265.3634
                                                                        44.5004
        27.7504
 09 10  4 23 35 30.0000000  0  8G02G04G12G13G20G23G30G31
  -4139924.57048  -3154032.73446
                  21266999.4844                                   21266994.0164
                                                                        52.2504
        40.7504
    -66452.58248     -7100.48047
                  20552790.8834                                   20552787.9494
                                                                        53.0004
        42.0004
   3048510.00847   2394982.00845
                  23344959.6094                                   23344956.0744
                                                                        45.7504
        32.5004
  -5337175.82847  -4079534.11745
                  22565440.4924                                   22565436.5594
                                                                        47.7504
        31.7504
   5151882.32047   4016029.73444
                  23631072.7814                                   23631068.5864
                                                                        42.2504
        25.5004
  -1497631.39848  -1112480.06246
                  21831870.4844                                   21831864.9574
                                                                        50.0004
        36.0004
     19670.21947     54827.09045
                  22557178.2034                                   22557175.9304
                                                                        47.0004
        30.5004
    -67976.59847    -10197.80544
                  23668045.4454                                   23668041.0234
                                                                        44.5004
        29.0004
 09 10  4 23 36  0.0000000  0  8G02G04G12G13G20G23G30G31
  -4290346.61748  -3271244.66846
                  21238375.1954                                   21238369.8874
                                                                        51.7504
        41.0004
   -136034.52748    -61320.12947
                  20539549.9774                                   20539547.2584
                                                                        53.0004
        42.2504
   3035222.05547   2384627.72745
                  23342430.8594                                   23342427.1174
                                                                        46.5004
        32.0004
  -5510522.63748  -4214609.51245
                  22532453.3914                                   22532450.1374
                                                                        48.2504
        32.0004
   5171813.47746   4031560.48043
                  23634864.8524                                   23634861.5234
                                                                        41.0004
        22.7504
  -1592561.07848  -1186451.21546
                  21813806.1254                                   21813800.2154
                                                                        50.0004
        36.0004
    -45370.00847      4146.38345
                  22544801.7584                                   22544798.9414
                                                                        47.0004
        30.5004
   -136788.56247    -63817.57444
                  23654951.1484                                   23654946.5664
                                                                        44.7504
        28.2504
 09 10  4 23 36 30.0000000  0  8G02G04G12G13G20G23G30G31
  -4440245.44148  -3388048.91846
                  21209850.6484                                   21209844.6844
                                                                        51.7504
        41.0004
   -204966.89548   -115033.65647
                  20526432.7274                                   20526429.4224
                                                                        52.2504
        42.2504
   3022470.82447   2374691.65245
                  23340004.5234                                   23340000.9224
                                                                        46.2504
        31.2504
  -5683345.90647  -4349277.00445
                  22499566.2584                                   22499562.1724
                                                                        47.5004
        31.0004
   5192053.76646   4047332.06343
                  23638716.5234                                   23638712.8674
                                                                        41.0004
        22.2504
  -1686769.65648  -1259860.42645
                  21795878.7584                                   21795872.6524
                                                                        49.2504
        34.7504
   -109655.39547    -45946.09445
                  22532568.8364                                   22532565.4844
                                                                        44.5004
        31.0004
   -204920.27347   -116907.21944
                  23641985.3674                                   23641981.8244
                                                                        44.2504
        27.7504
 09 10  4 23 37  0.0000000  0  8G02G04G12G13G20G23G30G31
  -4589621.23848  -3504445.65246
                  21181425.0944                                   21181419.7934
                                                                        51.2504
        40.5004
   -273252.10548   -168242.91847
                  20513438.2114                                   20513435.4264
                                                                        53.0004
        42.0004
   3010252.60947   2365171.03145
                  23337679.6094                                   23337675.5204
                                                                        45.7504
        31.5004
  -5855644.55147  -4483535.73045
                  22466778.9534                                   22466774.6054
                                                                        47.2504
        30.7504
   5212598.75046   4063341.17243
                  23642626.0084                                   23642621.5124
                                                                        40.0004
        22.0004
  -1780258.74248  -1332708.93745
                  21778088.2034                                   21778082.4964
                                                                        49.7504
        35.5004
   -173189.01647    -95452.81645
                  22520478.8444                                   22520475.6374
                                                                        47.0004
        30.2504
   -272374.30547   -169468.83244
                  23629149.4454                                   23629145.8874
                                                                        44.2504
        28.5004
 09 10  4 23 37 30.0000000  0  8G02G04G12G13G20G23G30G31
  -4738474.31648  -3620435.08246
                  21153099.3594                                   21153093.9694
                                                                        51.0004
        40.5004
   -340892.66048   -220949.80547
                  20500566.6954                                   20500563.5784
                                                                        52.0004
        42.0004
   2998561.79747   2356061.28145
                  23335454.7344                                   23335450.4844
                                                                        45.7504
        31.5004
  -6027418.02048  -4617385.20345
                  22434091.3594                                   22434087.1844
                                                                        48.0004
        30.5004
   5233444.27046   4079584.45743
                  23646592.7114                                   23646588.5434
                                                                        38.5004
        21.0004
  -1873030.57048  -1404998.62146
                  21760434.4774                                   21760427.9774
                                                                        50.0004
        36.0004
   -235973.98047   -144376.13745
                  22508530.8364                                   22508528.1334
                                                                        46.2504
        30.0004
   -339154.10247   -221505.21544
                  23616441.9304                                   23616438.1844
                                                                        44.5004
        28.0004
 09 10  4 23 38  0.0000000  0  8G02G04G12G13G20G23G30G31
  -4886805.97348  -3736018.17646
                  21124872.8134                                   21124866.8134
                                                                        50.5004
        41.2504
   -407892.28148   -273157.25047
                  20487817.1254                                   20487814.0434
                                                                        52.7504
        42.2504
   2987393.36747   2347358.60545
                  23333329.7734                                   23333325.4964
                                                                        46.5004
        31.2504
  -6198666.48448  -4750825.58645
                  22401504.0474                                   22401499.9654
                                                                        48.0004
        30.7504
   5254584.76646   4096057.56643
                  23650615.1724                                   23650611.4384
                                                                        40.2504
        22.2504
  -1965087.48848  -1476731.21546
                  21742916.0944                                   21742910.7934
                                                                        50.2504
        36.0004
   -298014.20747   -192719.21945
                  22496725.3594                                   22496722.4494
                                                                        46.2504
        30.5004
   -405262.74647   -273018.52344
                  23603862.2814                                   23603857.7814
                                                                        44.0004
        28.7504
 09 10  4 23 38 30.0000000  0  8G02G04G12G13G20G23G30G31
  -5034615.88348  -3851194.75846
                  21096745.3524                                   21096740.0744
                                                                        52.0004
        41.0004
   -474253.22748   -324866.99246
                  20475188.8754                                   20475185.8984
                                                                        52.5004
        41.5004
   2976742.67247   2339059.37545
                  23331302.6174                                   23331298.8484
                                                                        47.0004
        32.2504
  -6369388.97348  -4883856.15245
                  22369016.8754                                   22369012.8364
                                                                        48.0004
        31.7504
   5276016.16046   4112757.31343
                  23654694.5704                                   23654690.5204
                                                                        40.0004
        23.7504
  -2056431.15648  -1547907.98045
                  21725534.2734                                   21725528.1804
                                                                        50.0004
        35.7504
   -359312.52047   -240484.09845
                  22485060.3914                                   22485057.6024
                                                                        45.7504
        30.5004
   -470702.74647   -324010.78544
                  23591409.4144                                   23591405.5084
                                                                        42.5004
        29.5004
 09 10  4 23 39  0.0000000  0  8G02G04G12G13G20G23G30G31
  -5181900.07448  -3965961.69546
                  21068718.4304                                   21068712.5864
                                                                        51.5004
        40.7504
   -539974.23448   -376078.18446
                  20462682.4774                                   20462679.7504
                                                                        52.5004
        41.7504
   2966609.21947   2331163.17245
                  23329375.2504                                   23329370.6484
                                                                        46.7504
        32.2504
  -6539580.56248  -5016473.02345
                  22336630.5784                                   22336626.9184
                                                                        48.7504
        31.5004
   5297738.57846   4129683.86744
                  23658827.5394                                   23658824.2464
                                                                        40.2504
        26.5004
  -2147059.43748  -1618527.46546
                  21708288.2974                                   21708282.1764
                                                                        50.7504
        36.5004
   -419867.77347   -287669.93444
                  22473537.1024                                   22473533.9224
                                                                        45.5004
        29.7504
   -535472.29747   -374480.53544
                  23579084.0084                                   23579080.1454
                                                                        42.0004
        28.5004
 09 10  4 23 39 30.0000000  0  8G02G04G12G13G20G23G30G31
  -5328660.29348  -4080320.30946
                  21040790.8984                                   21040785.0904
                                                                        50.5004
        41.5004
   -605059.12548   -426793.71147
                  20450297.4614                                   20450294.6134
                                                                        53.0004
        42.2504
   2956987.28147   2323665.55145
                  23327543.6024                                   23327539.6174
                                                                        47.0004
        32.5004
  -6709241.83248  -5148676.59045
                  22304344.8984                                   22304341.4574
                                                                        48.0004
        32.5004
   5319745.85246   4146832.28543
                  23663015.0634                                   23663011.9654
                                                                        38.0004
        22.7504
  -2236975.30148  -1688591.70745
                  21691177.6644                                   21691171.9534
                                                                        48.5004
        35.5004
   -479684.74247   -334280.53545
                  22462154.5084                                   22462151.2154
                                                                        46.0004
        30.0004
   -599576.70747   -424431.96944
                  23566885.1804                                   23566881.1454
                                                                        43.7504
        29.0004
 09 10  4 23 40  0.0000000  0  8G02G04G12G13G20G23G30G31
  -5474900.83648  -4194273.96146
                  21012961.9384                                   21012956.3984
                                                                        50.0004
        41.2504
   -669514.17248   -477018.35547
                  20438031.8284                                   20438028.8324
                                                                        52.5004
        42.0004
   2947868.13347   2316559.72345
                  23325808.0944                                   23325804.3014
                                                                        46.5004
        31.7504
  -6878375.91448  -5280469.36745
                  22272159.8284                                   22272156.3444
                                                                        48.5004
        31.7504
   5342030.02046   4164196.61343
                  23667255.8054                                   23667252.6374
                                                                        39.5004
        22.0004
  -2326184.29747  -1758105.09045
                  21674201.8284                                   21674195.7664
                                                                        47.2504
        34.7504
   -538770.53947   -380321.48845
                  22450910.9454                                   22450907.7774
                                                                        46.0004
        30.2504
   -663022.37147   -473870.28544
                  23554812.0634                                   23554808.1804
                                                                        44.2504
        28.7504
 09 10  4 23 40 30.0000000  0  8G02G04G12G13G20G23G30G31
  -5620618.05948  -4307819.79346
                  20985232.8914                                   20985227.5784
                                                                        50.7504
        40.7504
   -733338.39848   -526751.54746
                  20425886.3444                                   20425883.4884
                                                                        53.2504
        41.7504
   2939250.75047   2309844.79745
                  23324167.9924                                   23324164.5514
                                                                        47.0004
        31.2504
  -7046978.35248  -5411847.88345
                  22240075.7424                                   22240071.7384
                                                                        48.2504
        32.0004
   5364590.51646   4181776.23843
                  23671549.0704                                   23671545.0704
                                                                        40.5004
        21.2504
  -2414684.81648  -1827066.47345
                  21657360.7734                                   21657354.7464
                                                                        48.7504
        35.7504
   -597124.40647   -425792.08645
                  22439806.4774                                   22439803.4494
                                                                        44.5004
        30.5004
   -725807.41447   -522793.54344
                  23542864.2894                                   23542860.4614
                                                                        43.5004
        29.2504
 09 10  4 23 41  0.0000000  0  8G02G04G12G13G20G23G30G31
  -4190384.68748  -3193352.51246
                  21257397.3054                                   21257392.0434
                                                                        50.5004
        41.0004
    778890.97748    651608.99647
                  20713654.3284                                   20713651.2034
                                                                        52.5004
        42.0004
   4506554.42647   3531120.28145
                  23622416.3284                                   23622412.6374
                                                                        47.0004
        31.5004
  -5639619.55548  -4315204.64545
                  22507887.3594                                   22507883.1844
                                                                        48.2504
        31.5004
   6962845.40646   5427169.62143
                  23975687.3054                                   23975682.8204
                                                                        40.2504
        20.0004
   -927052.33248   -667872.25045
                  21940447.5314                                   21940441.7854
                                                                        48.5004
        35.5004
    920675.75447    756909.26645
                  22728634.1484                                   22728631.2544
                                                                        43.7504
        30.2504
    787489.65647    656398.91844
                  23830834.8284                                   23830831.3244
                                                                        44.5004
        28.7504
 09 10  4 23 41 30.0000000  0  8G02G04G12G13G20G23G30G31
  -4335051.10948  -3306079.45746
                  21229868.2344                                   21229862.7774
                                                                        51.0004
        41.0004
    716324.84848    602856.12947
                  20701748.3594                                   20701745.3444
                                                                        52.7504
        42.2504
   4498932.48047   3525181.23845
                  23620965.8984                                   23620961.7424
                                                                        47.0004
        31.0004
  -5807151.96148  -4445749.35545
                  22476006.8364                                   22476003.1684
                                                                        48.2504
        31.2504
   6985949.73847   5445172.93843
                  23980083.9224                                   23980079.0704
                                                                        43.0004
        22.7504
  -1014137.06248   -735730.43445
                  21923875.8834                                   21923869.9184
                                                                        49.2504
        35.5004
    863781.12547    712575.84445
                  22717807.4144                                   22717804.4264
                                                                        45.0004
        30.5004
    726019.92247    608500.32844
                  23819138.3134                                   23819134.1564
                                                                        44.5004
        28.0004
 09 10  4 23 42  0.0000000  0  8G02G04G12G13G20G23G30G31
  -4479189.31648  -3418394.76646
                  21202439.8674                                   21202434.1804
                                                                        50.7504
        41.2504
    654387.44548    554593.23447
                  20689962.1954                                   20689958.9494
                                                                        53.0004
        42.0004
   4491803.97347   3519626.59045
                  23619609.4774                                   23619605.2624
                                                                        46.7504
        30.0004
  -5974144.82048  -4575873.57445
                  22444229.0704                                   22444224.8054
                                                                        48.2504
        31.7504
   7009322.85947   5463385.69543
                  23984531.4304                                   23984527.6604
                                                                        42.7504
        22.2504
  -1100513.27048   -803036.48845
                  21907438.8984                                   21907432.8594
                                                                        49.2504
        35.7504
    807614.38347    668809.57445
                  22707119.7194                                   22707116.3134
                                                                        44.7504
        30.2504
    665207.25847    561113.90644
                  23807565.4924                                   23807561.8754
                                                                        45.2504
        27.5004
 09 10  4 23 42 30.0000000  0  8G02G04G12G13G20G23G30G31
  -4622802.20748  -3530300.89146
                  21175111.1174                                   21175105.3524
                                                                        51.5004
        41.5004
    593073.46548    506816.12546
                  20678294.5634                                   20678291.3014
                                                                        53.0004
        41.5004
   4485162.07447   3514451.21945
                  23618345.3674                                   23618341.0824
                                                                        46.7504
        30.2504
  -6140600.10548  -4705578.94145
                  22412553.9144                                   22412549.5554
                                                                        48.7504
        32.5004
   7032958.32047   5481802.93443
                  23989029.1954                                   23989025.7664
                                                                        43.0004
        22.7504
  -1186185.39548   -869793.78145
                  21891136.0004                                   21891129.6914
                                                                        49.2504
        35.7504
    752169.84847    625605.96544
                  22696568.6954                                   22696565.6214
                                                                        45.7504
        29.0004
    605046.43847    514235.48444
                  23796117.5634                                   23796113.5984
                                                                        45.0004
        28.5004
 09 10  4 23 43  0.0000000  0  8G02G04G12G13G20G23G30G31
  -4765885.69548  -3641794.58246
                  21147883.2034                                   21147877.1994
                                                                        50.7504
        41.5004
    532384.26248    459525.82447
                  20666745.7584                                   20666742.9024
                                                                        53.5004
        42.0004
   4479006.44947   3509654.69545
                  23617174.0634                                   23617169.3444
                                                                        46.7504
        30.7504
  -6306512.88348  -4834861.57045
                  22380981.5234                                   22380977.6094
                                                                        48.7504
        32.7504
   7056856.09447   5500424.67643
                  23993576.6724                                   23993573.1804
                                                                        42.0004
        22.0004
  -1271151.20748   -936000.69545
                  21874967.5004                                   21874961.6094
                                                                        49.2504
        35.5004
    697448.63747    582966.03945
                  22686155.3754                                   22686152.1214
                                                                        44.7504
        30.0004
    545538.46147    467865.68444
                  23784793.6024                                   23784789.0704
                                                                        45.5004
        28.5004
 09 10  4 23 43 30.0000000  0  8G02G04G12G13G20G23G30G31
  -4908439.34448  -3752875.29346
                  21120755.8284                                   21120750.0164
                                                                        50.5004
        41.5004
    472317.48048    412720.52047
                  20655315.2664                                   20655312.4144
                                                                        53.5004
        42.0004
   4473332.67647   3505233.60245
                  23616094.3984                                   23616090.4884
                                                                        46.5004
        31.0004
  -6471881.82848  -4963720.44945
                  22349513.0554                                   22349508.5944
                                                                        48.5004
        32.0004
   7081012.04746   5519247.55143
                  23998172.7424                                   23998169.8014
                                                                        41.5004
        21.2504
  -1355412.47748  -1001658.61745
                  21858932.6254                                   21858926.8874
                                                                        49.0004
        35.5004
    643447.57047    540887.24245
                  22675879.4924                                   22675876.3834
                                                                        45.0004
        30.0004
    486680.77347    422002.58244
                  23773592.9144                                   23773589.0044
                                                                        45.0004
        27.7504
 09 10  4 23 44  0.0000000  0  8G02G04G12G13G20G23G30G31
  -5050463.83648  -3863543.82846
                  21093729.6174                                   21093723.8594
                                                                        50.5004
        41.2504
    412870.52048    366398.27747
                  20644003.2034                                   20643999.9774
                                                                        52.7504
        42.0004
   4468136.07847   3501184.36345
                  23615105.6414                                   23615101.4224
                                                                        47.0004
        31.2504
  -6636706.28147  -5092155.04345
                  22318147.7584                                   22318143.5044
                                                                        47.5004
        31.7504
   7105421.53946   5538267.89143
                  24002818.0784                                   24002814.7194
                                                                        39.7504
        21.0004
  -1438971.32448  -1066769.30945
                  21843032.0394                                   21843025.9344
                                                                        49.0004
        35.5004
    590163.27747    499367.02344
                  22665739.6254                                   22665736.3134
                                                                        45.0004
        29.2504
    428470.33647    376643.80944
                  23762515.6954                                   23762511.6374
                                                                        44.2504
        28.0004
 09 10  4 23 44 30.0000000  0  8G02G04G12G13G20G23G30G31
  -5191954.47748  -3973796.21546
                  21066804.7664                                   21066799.0664
                                                                        51.2504
        41.0004
    354045.39548    320560.66447
                  20632808.6094                                   20632805.7344
                                                                        53.0004
        42.5004
   4463416.52047   3497506.82045
                  23614207.3524                                   23614203.3284
                                                                        46.5004
        31.5004
  -6800981.37148  -5220161.56245
                  22286887.1954                                   22286883.0044
                                                                        48.0004
        32.5004
   7130085.29346   5557486.28143
                  24007512.1414                                   24007507.6414
                                                                        41.5004
        21.0004
  -1521825.04348  -1131330.57045
                  21827265.5004                                   21827259.5944
                                                                        49.5004
        35.5004
    537596.97347    458406.20744
                  22655737.1564                                   22655733.2194
                                                                        45.7504
        29.2504
    370908.56647    331790.26244
                  23751562.6254                                   23751558.2384
                                                                        43.5004
        28.7504
 09 10  4 23 45  0.0000000  0  8G02G04G12G13G20G23G30G31
  -5332915.35948  -4083635.80546
                  21039980.8204                                   21039975.0784
                                                                        51.7504
        41.0004
    295835.40248    275202.24646
                  20621731.5474                                   20621728.5944
                                                                        51.7504
        41.7504
   4459165.99247   3494194.78145
                  23613398.1094                                   23613394.2974
                                                                        46.0004
        31.2504
  -6964709.67648  -5347742.02745
                  22255730.8594                                   22255726.1844
                                                                        48.2504
        32.5004
   7154995.24646   5576896.53143
                  24012252.2344                                   24012247.6604
                                                                        41.2504
        20.5004
  -1603979.43748  -1195346.94545
                  21811631.8364                                   21811625.4494
                                                                        50.2504
        35.7504
    485741.64147    417999.27344
                  22645868.6954                                   22645865.7734
                                                                        46.2504
        29.2504
    313989.23046    287437.53144
                  23740730.9694                                   23740727.0704
                                                                        41.5004
        28.2504
 09 10  4 23 45 30.0000000  0  8G02G04G12G13G20G23G30G31
  -5473342.51648  -4193059.62946
                  21013258.4144                                   21013252.6994
                                                                        51.5004
        41.2504
    238242.89548    230325.19146
                  20610771.9844                                   20610769.0234
                                                                        51.7504
        41.7504
   4455384.25847   3491248.00045
                  23612679.0164                                   23612675.1954
                                                                        46.5004
        31.7504
  -7127886.45348  -5474892.94145
                  22224679.4454                                   22224674.8794
                                                                        48.5004
        32.2504
   7180151.87947   5596498.95743
                  24017039.8054                                   24017035.7384
                                                                        42.2504
        22.2504
  -1685431.69548  -1258816.25045
                  21796132.2974                                   21796125.8134
                                                                        49.5004
        35.7504
    434598.91047    378147.78944
                  22636137.2424                                   22636133.7384
                                                                        45.5004
        29.2504
    257714.05146    243586.78144
                  23730022.4384                                   23730018.0354
                                                                        41.0004
        27.5004
 09 10  4 23 46  0.0000000  0  8G02G04G12G13G20G23G30G31
  -5613236.02748  -4302067.67246
                  20986637.7584                                   20986632.1214
                                                                        51.7504
        41.0004
    181264.17648    185926.23846
                  20599929.4614                                   20599926.3914
                                                                        52.2504
        41.7504
   4452065.79747   3488662.16845
                  23612046.9454                                   23612043.3444
                                                                        46.0004
        30.7504
  -7290511.00048  -5601613.52745
                  22193733.0394                                   22193728.6914
                                                                        49.0004
        32.2504
   7205551.07446   5616290.52343
                  24021872.8594                                   24021869.3484
                                                                        41.5004
        22.5004
  -1766184.52748  -1321740.50845
                  21780765.3204                                   21780759.1024
                                                                        50.0004
        35.2504
    384164.92247    338848.53144
                  22626539.6174                                   22626536.5274
                                                                        46.0004
        29.0004
    202079.60947    200235.43444
                  23719435.1644                                   23719430.9104
                                                                        43.2504
        26.2504
 09 10  4 23 46 30.0000000  0  8G02G04G12G13G20G23G30G31
  -5752596.41448  -4410660.11346
                  20960118.3054                                   20960112.8634
                                                                        51.5004
        41.7504
    124895.97348    142002.92646
                  20589202.9304                                   20589199.6954
                                                                        52.2504
        41.5004
   4449206.14147   3486433.89544
                  23611502.7034                                   23611499.1254
                                                                        46.0004
        29.7504
  -7452582.84848  -5727903.24245
                  22162891.5234                                   22162887.5864
                                                                        48.5004
        32.7504
   7231187.70746   5636267.15643
                  24026750.6564                                   24026747.7854
                                                                        41.5004
        22.5004
  -1846240.53548  -1384121.79745
                  21765531.1884                                   21765525.1684
                                                                        49.2504
        35.5004
    334435.60547    300098.43845
                  22617076.7504                                   22617073.3524
                                                                        45.5004
        30.0004
    147081.93046    157380.01244
                  23708969.0084                                   23708965.0904
                                                                        40.0004
        27.7504
 09 10  4 23 47  0.0000000  0  8G02G04G12G13G20G23G30G31
  -5891420.77748  -4518834.86746
                  20933700.7894                                   20933694.9964
                                                                        52.2504
        41.5004
     69139.56348     98556.39146
                  20578592.7344                                   20578589.6334
                                                                        52.7504
        41.7504
   4446803.99247   3484562.11745
                  23611045.6954                                   23611041.7584
                                                                        45.7504
        30.2504
  -7614098.11348  -5853759.21145
                  22132156.5164                                   22132152.3594
                                                                        49.5004
        33.0004
   7257060.67246   5656427.83643
                  24031674.0784                                   24031670.4184
                                                                        38.7504
        18.2504
  -1925598.60548  -1445959.26645
                  21750429.7344                                   21750423.8954
                                                                        50.0004
        35.5004
    285410.88747    261897.28544
                  22607747.6724                                   22607744.5824
                                                                        46.5004
        29.5004
     92721.77046    115021.46544
                  23698624.5314                                   23698620.9384
                                                                        41.2504
        26.0004
 09 10  4 23 47 30.0000000  0  8G02G04G12G13G20G23G30G31
  -6029709.82048  -4626592.52746
                  20907385.1884                                   20907379.8244
                                                                        53.0004
        41.0004
     13990.75448     55583.04347
                  20568098.5704                                   20568095.5204
                                                                        53.0004
        42.2504
   4444854.16847   3483042.80944
                  23610675.1804                                   23610670.6524
                                                                        44.7504
        29.5004
  -7775056.83248  -5979181.66445
                  22101527.1954                                   22101523.1644
                                                                        48.7504
        32.5004
   7283165.82446   5676769.49643
                  24036642.1954                                   24036638.3954
                                                                        40.2504
        18.2504
  -2004260.62548  -1507254.39145
                  21735460.8364                                   21735454.7734
                                                                        50.0004
        35.5004
    237087.15647    224242.38344
                  22598552.0084                                   22598548.4384
                                                                        46.0004
        29.2504
     38995.62147     73157.01644
                  23688401.0004                                   23688396.7544
                                                                        43.5004
        26.0004
 09 10  4 23 48  0.0000000  0  8G02G04G12G13G20G23G30G31
  -6167460.69548  -4733930.98046
                  20881172.0394                                   20881166.5434
                                                                        52.5004
        41.0004
    -40548.70748     13084.66047
                  20557720.0784                                   20557716.8834
                                                                        52.7504
        42.0004
   4443355.17247   3481874.70344
                  23610389.6254                                   23610385.3984
                                                                        45.0004
        29.5004
  -7935454.36748  -6104166.77045
                  22071004.1254                                   22071000.3754
                                                                        49.2504
        33.0004
   7309502.28146   5697291.34443
                  24041653.6174                                   24041649.2774
                                                                        40.5004
        19.0004
  -2082225.37948  -1568006.13345
                  21720624.7584                                   21720618.4384
                                                                        50.5004
        35.0004
    189464.57847    187133.93045
                  22589489.5164                                   22589486.9024
                                                                        45.5004
        30.0004
    -14095.80147     31787.19544
                  23678297.6804                                   23678293.5164
                                                                        42.7504
        25.5004
 09 10  4 23 48 30.0000000  0  8G02G04G12G13G20G23G30G31
  -6304673.06648  -4840849.89146
                  20855061.4844                                   20855056.1054
                                                                        51.7504
        41.5004
    -94481.35548    -28940.76646
                  20547457.0944                                   20547454.0634
                                                                        53.5004
        41.7504
   4442302.80147   3481054.67644
                  23610189.7274                                   23610185.3834
                                                                        45.0004
        29.5004
  -8095289.77748  -6228713.68445
                  22040588.6484                                   22040584.8054
                                                                        49.5004
        33.7504
   7336066.18046   5717990.37943
                  24046708.0314                                   24046705.3284
                                                                        37.7504
        21.2504
  -2159494.96148  -1628216.17646
                  21705921.0554                                   21705914.6764
                                                                        50.5004
        36.0004
    142539.34847    150568.77744
                  22580560.0944                                   22580556.6334
                                                                        46.0004
        29.5004
    -66555.63347     -9090.47344
                  23668315.0784                                   23668310.6644
                                                                        43.2504
        27.0004
 09 10  4 23 49  0.0000000  0  8G02G04G12G13G20G23G30G31
  -6441343.28148  -4947346.31646
                  20829054.3444                                   20829048.6294
                                                                        52.5004
        41.5004
   -147806.36348    -70492.78547
                  20537309.4844                                   20537307.0474
                                                                        53.2504
        42.2504
   4441696.57047   3480582.26645
                  23610074.1884                                   23610069.9414
                                                                        46.2504
        30.0004
  -8254559.16048  -6352819.73445
                  22010280.7974                                   22010276.6024
                                                                        49.5004
        33.2504
   7362857.02046   5738866.18043
                  24051807.3594                                   24051803.5784
                                                                        41.0004
        22.2504
  -2236067.80948  -1687883.44545
                  21691349.8364                                   21691343.7034
                                                                        50.5004
        35.5004
     96312.49247    114547.87945
                  22571763.3834                                   22571760.3794
                                                                        45.7504
        31.0004
   -118382.87547    -49475.17644
                  23658452.1174                                   23658448.4344
                                                                        43.0004
        26.0004
 09 10  4 23 49 30.0000000  0  8G02G04G12G13G20G23G30G31
  -6577472.17648  -5053420.93746
                  20803150.1414                                   20803144.4534
                                                                        52.5004
        41.7504
   -200526.99648   -111573.75446
                  20527277.0554                                   20527274.1954
                                                                        52.5004
        41.7504
   4441531.05947   3480453.26645
                  23610043.0164                                   23610038.6294
                                                                        46.2504
        30.2504
  -8413261.94548  -6476484.26645
                  21980080.3594                                   21980076.6994
                                                                        49.2504
        33.0004
   7389870.78147   5759915.78544
                  24056948.3364                                   24056944.6334
                                                                        42.5004
        25.7504
  -2311946.34448  -1747009.59045
                  21676910.2274                                   21676904.2664
                                                                        50.0004
        35.2504
     50779.69947     79067.84444
                  22563098.7894                                   22563095.3014
                                                                        45.7504
        29.0004
   -169581.53147    -89370.11344
                  23648709.6954                                   23648705.4144
                                                                        43.2504
        27.2504
 09 10  4 23 50  0.0000000  0  8G02G04G12G13G20G23G30G31
  -6713053.43448  -5159068.68447
                  20777349.6954                                   20777344.3364
                                                                        52.2504
        42.0004
   -252639.70748   -152180.98846
                  20517360.4144                                   20517357.1094
                                                                        53.0004
        41.7504
   4441807.90247   3480669.01645
                  23610094.9304                                   23610091.0744
                                                                        45.7504
        30.2504
  -8571391.50448  -6599702.24245
                  21949989.6094                                   21949985.5514
                                                                        49.7504
        33.2504
   7417109.37947   5781140.65243
                  24062131.6564                                   24062127.8984
                                                                        42.0004
        22.5004
  -2387126.67648  -1805591.64545
                  21662604.0704                                   21662597.5234
                                                                        50.0004
        35.0004
      5943.80147     44130.91844
                  22554566.4694                                   22554563.8094
                                                                        44.7504
        29.7504
   -220148.43047   -128773.01244
                  23639087.6564                                   23639083.2074
                                                                        44.0004
        27.5004
 09 10  4 23 50 30.0000000  0  8G02G04G12G13G20G23G30G31
  -5272665.39548  -4036688.38346
                  21051446.5234                                   21051441.0004
                                                                        52.0004
        41.2504
   1271271.53548   1035282.32446
                  20807351.0554                                   20807347.9224
                                                                        52.5004
        41.5004
   6017939.79347   4708823.76645
                  23910023.0394                                   23910018.8754
                                                                        45.7504
        30.0004
  -7153524.35248  -5494870.77745
                  22219801.0864                                   22219796.7504
                                                                        49.7504
        33.7504
   9019985.18846   7030134.75043
                  24367147.9534                                   24367144.8954
                                                                        39.0004
        19.2504
   -886191.00048   -636031.35545
                  21948222.3984                                   21948216.6214
                                                                        50.0004
        35.2504
   1537220.20347   1237333.42244
                  22845958.6644                                   22845955.6844
                                                                        44.5004
        29.2504
   1305332.12947   1059912.85244
                  23929376.9774                                   23929372.9024
                                                                        44.5004
        27.5004
 09 10  4 23 51  0.0000000  0  8G02G04G12G13G20G23G30G31
  -5407156.38348  -4141486.54746
                  21025853.6024                                   21025848.4264
                                                                        52.0004
        41.7504
   1220361.93848    995612.53547
                  20797663.0864                                   20797659.9694
                                                                        52.5004
        42.0004
   6019083.49647   4709715.03544
                  23910240.4304                                   23910236.8054
                                                                        45.0004
        29.5004
  -7310508.91448  -5617196.39145
                  22189927.6414                                   22189923.5434
                                                                        49.0004
        33.0004
   9047657.41846   7051697.54742
                  24372413.4614                                   24372411.4694
                                                                        37.7504
        17.2504
   -959985.58648   -693533.80545
                  21934180.1804                                   21934173.4184
                                                                        50.2504
        34.7504
   1493763.34847   1203471.04344
                  22837689.2814                                   22837686.1604
                                                                        44.7504
        29.5004
   1256015.37147   1021483.98844
                  23919992.7034                                   23919988.0044
                                                                        42.0004
        27.0004
 09 10  4 23 51 30.0000000  0  8G02G04G12G13G20G23G30G31
  -5541102.32448  -4245860.02346
                  21000364.7344                                   21000359.4694
                                                                        51.7504
        41.7504
   1170050.22348    956408.60947
                  20788089.2504                                   20788086.0514
                                                                        52.7504
        42.0004
   6020654.09047   4710938.98844
                  23910539.2814                                   23910535.6524
                                                                        45.5004
        29.7504
  -7466919.90648  -5739075.28545
                  22160163.7814                                   22160159.2424
                                                                        48.7504
        32.7504
   9075540.14846   7073424.28142
                  24377719.4774                                   24377717.0514
                                                                        38.2504
        17.2504
  -1033090.14848   -750498.44145
                  21920268.7664                                   21920262.1884
                                                                        49.0004
        35.2504
   1450990.98447   1170141.99245
                  22829549.7344                                   22829546.8134
                                                                        45.0004
        30.5004
   1207320.44147    983540.11744
                  23910726.0554                                   23910721.4224
                                                                        42.0004
        27.5004
 09 10  4 23 52  0.0000000  0  8G02G04G12G13G20G23G30G31
  -5674507.07448  -4349811.75846
                  20974978.5164                                   20974973.1374
                                                                        52.0004
        41.5004
   1120330.17248    917665.96546
                  20778627.6724                                   20778624.6414
                                                                        53.0004
        41.7504
   6022643.01247   4712488.77345
                  23910917.9614                                   23910914.1524
                                                                        45.2504
        30.0004
  -7622760.16848  -5860509.35245
                  22130508.5394                                   22130504.4024
                                                                        49.2504
        33.5004
   9103626.01646   7095309.34043
                  24383064.7584                                   24383061.5354
                                                                        41.0004
        19.5004
  -1105510.76648   -806930.23045
                  21906487.2974                                   21906481.3204
                                                                        49.7504
        35.0004
   1408895.80947   1137340.48045
                  22821539.4224                                   22821536.3794
                                                                        45.0004
        30.2504
   1159239.13747    946074.14544
                  23901576.2584                                   23901571.9414
                                                                        45.0004
        28.2504
 09 10  4 23 52 30.0000000  0  8G02G04G12G13G20G23G30G31
  -5807364.99648  -4453337.37546
                  20949696.5554                                   20949691.5204
                                                                        51.5004
        41.7504
   1071204.51648    879386.49647
                  20769279.3364                                   20769275.8834
                                                                        52.7504
        42.0004
   6025051.89147   4714365.85944
                  23911376.6094                                   23911372.1334
                                                                        45.0004
        29.5004
  -7778023.12548  -5981493.44945
                  22100962.7424                                   22100959.0434
                                                                        49.2504
        33.2504
   9131916.82846   7117354.09443
                  24388448.2814                                   24388445.0824
                                                                        41.2504
        22.2504
  -1177244.12148   -862826.63745
                  21892837.2664                                   21892831.2384
                                                                        49.2504
        35.0004
   1367480.41847   1105068.65245
                  22813658.2114                                   22813655.2114
                                                                        44.7504
        30.0004
   1111774.69546    909088.85944
                  23892544.3524                                   23892540.5044
                                                                        41.2504
        28.2504
 09 10  4 23 53  0.0000000  0  8G02G04G12G13G20G23G30G31
  -5939675.81248  -4556436.67246
                  20924518.5704                                   20924513.2664
                                                                        52.0004
        41.7504
   1022670.62548    841567.97747
                  20760043.2974                                   20760040.1844
                                                                        52.2504
        42.0004
   6027875.89147   4716566.37144
                  23911913.4924                                   23911909.3014
                                                                        44.2504
        29.5004
  -7932707.81248  -6102026.94945
                  22071527.1644                                   22071523.4774
                                                                        50.0004
        34.2504
   9160409.20346   7139555.99243
                  24393870.1954                                   24393866.8444
                                                                        41.0004
        22.7504
  -1248291.80948   -918188.76245
                  21879317.7814                                   21879311.3484
                                                                        49.7504
        35.7504
   1326741.67647   1073324.14145
                  22805905.8284                                   22805902.9384
                                                                        45.0004
        30.2504
   1064924.68847    872582.52344
                  23883628.8754                                   23883625.0124
                                                                        43.7504
        28.0004
 09 10  4 23 53 30.0000000  0  7G02G04G12G13G23G30G31
  -6071435.31648  -4659106.37146
                  20899445.4224                                   20899440.0204
                                                                        51.2504
        41.5004
    974730.70748    804212.23846
                  20750920.6484                                   20750917.2584
                                                                        53.0004
        41.5004
   6031115.59447   4719090.73044
                  23912530.1644                                   23912526.2384
                                                                        44.7504
        28.5004
  -8086808.68048  -6222105.47745
                  22042202.7344                                   22042199.1954
                                                                        49.5004
        34.0004
  -1318650.56248   -973013.84845
                  21865928.9454                                   21865922.6524
                                                                        49.7504
        35.0004
   1286680.46547   1042107.50444
                  22798282.7734                                   22798280.0164
                                                                        44.2504
        29.2504
   1018690.42247    836555.89544
                  23874830.5314                                   23874826.5824
                                                                        44.7504
        27.5004
 09 10  4 23 54  0.0000000  0  7G02G04G12G13G23G30G31
  -6202644.92648  -4761347.65646
                  20874477.1724                                   20874471.8054
                                                                        51.7504
        41.0004
    927380.94948    767316.51246
                  20741910.0004                                   20741906.8014
                                                                        53.5004
        41.5004
   6034765.03547   4721934.50044
                  23913224.4454                                   23913220.4384
                                                                        45.0004
        27.7504
  -8240326.38748  -6341729.48845
                  22012989.6174                                   22012985.3954
                                                                        49.7504
        34.5004
  -1388325.09848  -1027305.98845
                  21852670.5704                                   21852664.0354
                                                                        49.5004
        34.7504
   1247291.88347   1011415.13744
                  22790787.0314                                   22790784.8444
                                                                        44.5004
        29.0004
    973067.12547    801005.26244
                  23866149.2344                                   23866145.4614
                                                                        44.5004
        28.7504
 09 10  4 23 54 30.0000000  0  7G02G04G12G13G23G30G31
  -6333299.95348  -4863156.80146
                  20849614.1954                                   20849608.8244
                                                                        52.0004
        41.7504
    880622.78548    730881.68847
                  20733012.4774                                   20733008.7774
                                                                        53.0004
        42.2504
   6038824.23847   4725097.51644
                  23913996.9224                                   23913992.7424
                                                                        44.0004
        28.7504
  -8393255.87948  -6460895.25445
                  21983888.0084                                   21983883.3524
                                                                        50.2504
        34.0004
  -1457311.37948  -1081061.22745
                  21839542.5474                                   21839536.6174
                                                                        48.7504
        35.0004
   1208577.07447    981247.79744
                  22783420.5704                                   22783417.2234
                                                                        45.2504
        29.5004
    928056.74647    765932.25844
                  23857583.3134                                   23857579.4224
                                                                        43.7504
        27.7504
 09 10  4 23 55  0.0000000  0  7G02G04G12G13G23G30G31
  -6463396.02048  -4964530.39147
                  20824857.8204                                   20824852.5004
                                                                        51.2504
        42.2504
    834458.27048    694909.36747
                  20724227.5704                                   20724223.9454
                                                                        53.0004
        42.0004
   6043294.09047   4728580.57844
                  23914847.8914                                   23914843.6484
                                                                        44.7504
        29.2504
  -8545591.61348  -6579598.35545
                  21954898.9924                                   21954894.8484
                                                                        50.0004
        33.5004
  -1525608.69548  -1134279.89145
                  21826545.9224                                   21826539.7304
                                                                        48.0004
        35.2504
   1170537.08647    951606.20744
                  22776181.5704                                   22776178.5664
                                                                        44.7504
        29.7504
    883660.46147    731337.68444
                  23849135.7504                                   23849131.4924
                                                                        44.0004
        27.7504
 09 10  4 23 55 30.0000000  0  7G02G04G12G13G23G30G31
  -6592935.21548  -5065469.96146
                  20800207.4924                                   20800202.0744
                                                                        51.7504
        41.7504
    788882.57048    659395.85946
                  20715554.8134                                   20715551.1374
                                                                        52.7504
        41.5004
   6048166.97347   4732377.66844
                  23915775.3054                                   23915771.0824
                                                                        44.7504
        29.5004
  -8697335.40248  -6697840.25445
                  21926023.2734                                   21926018.9774
                                                                        49.7504
        34.0004
  -1593221.18448  -1186965.03145
                  21813679.7664                                   21813673.5124
                                                                        49.0004
        35.0004
   1133166.10247    922485.89844
                  22769070.1564                                   22769066.7814
                                                                        44.0004
        29.5004
    839873.45747    697217.94944
                  23840803.0234                                   23840799.3404
                                                                        44.2504
        28.0004
 09 10  4 23 56  0.0000000  0  7G02G04G12G13G23G30G31
  -6721919.04748  -5165976.62546
                  20775662.5084                                   20775656.9694
                                                                        50.7504
        41.5004
    743891.44148    624337.87546
                  20706993.1024                                   20706989.8754
                                                                        53.0004
        41.5004
   6053437.05147   4736484.27044
                  23916777.5314                                   23916773.7344
                                                                        43.7504
        28.7504
  -8848487.61348  -6815621.17245
                  21897259.9144                                   21897256.0084
                                                                        49.7504
        34.0004
  -1660152.02348  -1239119.00045
                  21800943.2344                                   21800937.4614
                                                                        49.0004
        35.2504
   1096459.23047    893883.13344
                  22762085.1564                                   22762082.3444
                                                                        45.0004
        29.0004
    796690.78547    663568.89144
                  23832585.6484                                   23832582.1644
                                                                        44.5004
        27.2504
 09 10  4 23 56 30.0000000  0  8G02G04G12G13G29G23G30G31
  -6850350.61348  -5266053.16047
                  20751222.9454                                   20751217.1524
                                                                        51.7504
        42.7504
    699479.66048    589731.11746
                  20698541.9534                                   20698538.4534
                                                                        52.7504
        41.7504
   6059097.56647   4740895.04744
                  23917854.8754                                   23917850.7194
                                                                        43.7504
        28.5004
  -8999050.04348  -6932942.61345
                  21868609.0784                                   21868604.8054
                                                                        49.2504
        33.5004
   7642596.05556   5998615.62154
                  24343571.9774                                   24343569.3054
                                                                        41.7504
        24.7504
  -1726405.46148  -1290744.64545
                  21788335.5084                                   21788329.6374
                                                                        49.5004
        35.0004
   1060410.72347    865793.40644
                  22755225.0944                                   22755221.8834
                                                                        45.0004
        28.5004
    754107.25447    630386.84444
                  23824482.8524                                   23824478.4184
                                                                        43.5004
        27.0004
 09 10  4 23 57  0.0000000  0  8G02G04G12G13G29G23G30G31
  -6978235.28148  -5365703.59847
                  20726887.2194                                   20726881.6024
                                                                        51.5004
        42.0004
    655639.46548    555569.88746
                  20690199.7894                                   20690196.1454
                                                                        52.7504
        41.5004
   6065138.47747   4745602.24244
                  23919004.8524                                   23919000.8164
                                                                        44.0004
        29.2504
  -9149027.47348  -7049808.17645
                  21840069.0164                                   21840064.8634
                                                                        49.2504
        34.2504
   7457610.55146   5854471.19144
                  24308369.9304                                   24308367.7934
                                                                        41.5004
        25.7504
  -1791990.62948  -1341849.96145
                  21775854.9454                                   21775848.8914
                                                                        50.0004
        35.2504
   1025011.32047    838209.36744
                  22748489.0864                                   22748485.8054
                                                                        45.2504
        29.0004
    712114.14847    597664.77744
                  23816491.5634                                   23816487.7154
                                                                        43.2504
        27.7504
 09 10  4 23 57 30.0000000  0  8G02G04G12G13G29G23G30G31
  -7105575.01248  -5464929.39846
                  20702654.8674                                   20702649.8284
                                                                        51.0004
        41.5004
    612366.14148    521850.36746
                  20681965.2274                                   20681961.3634
                                                                        53.5004
        41.5004
   6071553.84447   4750601.18444
                  23920224.8914                                   23920221.0634
                                                                        43.2504
        28.7504
  -9298421.00448  -7166218.66445
                  21811640.3524                                   21811636.2074
                                                                        49.5004
        34.5004
   7272895.85546   5710537.55544
                  24273219.8134                                   24273217.6174
                                                                        40.5004
        25.2504
  -1856911.37548  -1392437.84045
                  21763500.9844                                   21763495.2734
                                                                        48.5004
        35.0004
    990255.94147    811127.21144
                  22741874.9534                                   22741871.7344
                                                                        44.5004
        29.0004
    670706.84847    565399.39544
                  23808612.3594                                   23808607.8484
                                                                        43.0004
        27.2504
 09 10  4 23 58  0.0000000  0  8G02G04G12G13G29G23G30G31
  -7232366.13348  -5563727.51646
                  20678527.5164                                   20678522.2424
                                                                        52.0004
        41.7504
    569660.52348    488573.43846
                  20673838.2584                                   20673834.5904
                                                                        52.2504
        41.7504
   6078342.59847   4755891.27344
                  23921516.9144                                   23921512.8714
                                                                        44.2504
        28.2504
  -9447226.84048  -7282171.27345
                  21783323.5784                                   21783319.4024
                                                                        49.7504
        34.0004
   7088456.07046   5566818.10543
                  24238121.8984                                   24238120.0434
                                                                        40.0004
        23.0004
  -1921165.84448  -1442506.25045
                  21751274.1334                                   21751268.3014
                                                                        49.0004
        35.0004
    956143.65647    784546.22344
                  22735383.7974                                   22735380.1024
                                                                        44.7504
        28.5004
    629884.79746    533589.86744
                  23800844.0234                                   23800840.5164
                                                                        39.7504
        26.2504
 09 10  4 23 58 30.0000000  0  8G02G04G12G13G29G23G30G31
  -7358608.44148  -5662098.18746
                  20654504.1954                                   20654498.7234
                                                                        50.2504
        41.7504
    527520.61748    455737.25446
                  20665818.7814                                   20665815.7194
                                                                        52.7504
        41.5004
   6085500.96147   4761469.25444
                  23922878.9454                                   23922875.1524
                                                                        44.7504
        28.7504
  -9595442.59448  -7397664.00045
                  21755119.0944                                   21755115.0554
                                                                        49.7504
        33.7504
   6904293.27346   5423314.48044
                  24203076.8984                                   24203075.2894
                                                                        39.7504
        26.0004
  -1984755.57848  -1492056.68745
                  21739173.2114                                   21739167.1374
                                                                        48.7504
        35.2504
    922672.53547    758464.85244
                  22729014.4924                                   22729010.5514
                                                                        42.5004
        28.5004
    589647.19547    502236.23044
                  23793186.8134                                   23793181.9774
                                                                        42.7504
        26.7504
 09 10  4 23 59  0.0000000  0  8G02G04G12G13G29G23G30G31
  -7484297.01648  -5760037.42246
                  20630586.9224                                   20630580.9184
                                                                        51.2504
        41.5004
    485948.30948    423343.34046
                  20657908.2274                                   20657904.5204
                                                                        52.0004
        41.5004
   6093029.24647   4767335.46944
                  23924311.7344                                   23924307.8594
                                                                        45.0004
        29.5004
  -9743063.30548  -7512693.07045
                  21727027.6804                                   21727023.4694
                                                                        50.0004
        34.5004
   6720413.63746   5280031.60544
                  24168086.6254                                   24168083.8404
                                                                        40.7504
        26.0004
  -2047678.20347  -1541087.34445
                  21727199.3834                                   21727193.8794
                                                                        47.7504
        34.7504
    889843.44147    732883.78944
                  22722767.5164                                   22722764.1844
                                                                        44.5004
        28.7504
    549994.06346    471337.68044
                  23785640.7584                                   23785636.6024
                                                                        39.7504
        26.0004
 09 10  4 23 59 30.0000000  0  8G02G04G12G13G29G23G30G31
  -7609429.40248  -5857543.59847
                  20606775.2424                                   20606769.8094
                                                                        51.0004
        42.0004
    444943.85248    391391.68046
                  20650105.3524                                   20650101.8094
                                                                        53.2504
        41.2504
   6100926.28147   4773488.98044
                  23925814.2894                                   23925809.4884
                                                                        45.0004
        28.0004
  -9890085.42248  -7627255.87145
                  21699050.4144                                   21699046.6994
                                                                        49.5004
        35.0004
   6536821.20746   5136972.54344
                  24133149.3444                                   24133147.4024
                                                                        40.5004
        24.0004
  -2109932.51648  -1589596.95745
                  21715352.7274                                   21715346.9884
                                                                        48.0004
        35.0004
    857655.55547    707802.28544
                  22716641.6174                                   22716639.1024
                                                                        43.5004
        28.5004
    510926.15647    440895.19144
                  23778206.6414                                   23778201.5514
                                                                        43.0004
        25.5004
