     2.11           OBSERVATION DATA    G (GPS)             RINEX VERSION / TYPE
teqc  2019Feb25                         20221121 12:28:32UTCPGM / RUN BY / DATE
OSX ker:10.11.6|Core i5|gcc 4.3 -m64|OSX ker:10.10+|=+      COMMENT
BIT 2 OF LLI FLAGS DATA COLLECTED UNDER A/S CONDITION       COMMENT
04712930                                                    MARKER NAME
2930                                                        MARKER NUMBER
-Unknown-           -Unknown-                               OBSERVER / AGENCY
0220400471          TRIMBLE R7          2.30                REC # / TYPE / VERS
-Unknown-           TRM39105.00     NONE                    ANT # / TYPE
  1449458.6891 -1709242.4118  5952442.3292                  APPROX POSITION XYZ
        0.0000        0.0000        0.0000                  ANTENNA: DELTA H/E/N
     1     1                                                WAVELENGTH FACT L1/2
    20    L1    L2    L5    L6    L7    L8    C1    P1    C2# / TYPES OF OBSERV
          P2    C5    C6    C7    C8    S1    S2    S5    S6# / TYPES OF OBSERV
          S7    S8                                          # / TYPES OF OBSERV
    30.0000                                                 INTERVAL
    15                                                      LEAP SECONDS
Forced Modulo Decimation to 30 seconds                      COMMENT
 SNR is mapped to RINEX snr flag value [0-9]                COMMENT
  L1 & L2: min(max(int(snr_dBHz/6), 0), 9)                  COMMENT
teqc edited: Beidou # 1 - 37 excluded                       COMMENT
  2009    10    20     0     0    0.0000000     GPS         TIME OF FIRST OBS
                                                            END OF HEADER
 09 10 20  0  0  0.0000000  0  8G02G04G05G10G25G13G23G29
  -9081185.91448  -7057074.41447
                  20469933.0164                                   20469927.2034
                                                                        51.5004
        42.5004
  -1136593.47747   -880046.73045
                  22432344.0084                                   22432340.5354
                                                                        47.7504
        34.2504
 -18524763.27748 -14393965.69546
                  22328800.6414                                   22328796.9454
                                                                        48.2504
        37.5004
 -18953256.12548 -14735564.28146
                  21529057.8204                                   21529054.6054
                                                                        49.2504
        38.0004
 -10625740.47747  -8241715.70744
                  23163131.2734                                   23163127.7704
                                                                        43.2504
        26.7504
 -10661629.99648  -8290003.98846
                  21155418.6954                                   21155414.8444
                                                                        50.5004
        36.5004
  -2766497.00047  -2147022.15244
                  23035673.3284                                   23035667.5984
                                                                        44.5004
        27.2504
 -16285854.18047 -12651563.53946
                  22292559.9384                                   22292556.8634
                                                                        47.5004
        36.0004
 09 10 20  0  0 30.0000000  0  8G02G04G05G10G25G13G23G29
  -9138540.85548  -7101766.73447
                  20459018.8834                                   20459013.1644
                                                                        51.0004
        42.7504
  -1125516.00448   -871414.89545
                  22434451.6884                                   22434449.0124
                                                                        48.2504
        34.5004
 -18703935.80947 -14533580.64546
                  22294705.4304                                   22294701.4574
                                                                        46.7504
        36.2504
 -19120905.07848 -14866199.84046
                  21497155.4774                                   21497151.9694
                                                                        49.7504
        38.2504
 -10776838.03947  -8359453.98844
                  23134378.0394                                   23134374.9344
                                                                        43.0004
        28.2504
 -10730542.92648  -8343702.40646
                  21142305.2734                                   21142301.3914
                                                                        50.7504
        36.7504
  -2766175.93047  -2146771.97344
                  23035734.8054                                   23035729.3954
                                                                        43.7504
        28.7504
 -16420837.60547 -12756745.43446
                  22266873.4384                                   22266870.6134
                                                                        47.7504
        36.0004
 09 10 20  0  1  0.0000000  0  8G02G04G05G10G25G13G23G29
  -9195306.69148  -7145999.76247
                  20448216.5394                                   20448210.6954
                                                                        51.0004
        42.5004
  -1114126.80148   -862540.15645
                  22436619.3524                                   22436616.2384
                                                                        48.0004
        34.0004
 -18882784.18447 -14672942.97346
                  22260671.5474                                   22260668.1054
                                                                        47.0004
        37.5004
 -19288124.10248 -14996500.38746
                  21465334.8524                                   21465331.0634
                                                                        49.7504
        38.0004
 -10927472.77047  -8476831.68044
                  23105713.4694                                   23105710.1054
                                                                        42.2504
        27.5004
 -10798783.68748  -8396876.95346
                  21129319.4144                                   21129315.4184
                                                                        49.7504
        36.7504
  -2765446.82447  -2146203.89144
                  23035872.9924                                   23035868.1524
                                                                        42.7504
        28.5004
 -16555267.79348 -12861496.27745
                  22241292.2194                                   22241289.1884
                                                                        48.0004
        35.5004
 09 10 20  0  1 30.0000000  0  8G02G04G05G10G25G13G23G29
  -9251486.98848  -7189776.49247
                  20437525.7504                                   20437520.0314
                                                                        51.2504
        42.5004
  -1102430.77348   -853426.40645
                  22438844.5394                                   22438841.4774
                                                                        48.0004
        34.2504
 -19061308.46547 -14812052.74646
                  22226699.7814                                   22226695.9884
                                                                        47.2504
        37.2504
 -19454913.69948 -15126466.31646
                  21433595.6564                                   21433592.3594
                                                                        49.7504
        38.0004
 -11077644.56247  -8593848.66844
                  23077136.4064                                   23077133.8874
                                                                        43.7504
        28.0004
 -10866355.81648  -8449530.46946
                  21116461.0944                                   21116457.0944
                                                                        51.0004
        36.7504
  -2764314.09447  -2145321.28544
                  23036088.9614                                   23036083.5944
                                                                        42.7504
        28.2504
 -16689145.69147 -12965816.84046
                  22215816.0004                                   22215813.3164
                                                                        47.0004
        36.0004
 09 10 20  0  2  0.0000000  0  8G02G04G05G10G25G13G23G29
  -7731659.27048  -6005495.13347
                  20726739.3134                                   20726733.3134
                                                                        51.0004
        43.0004
    484991.27048    383525.79345
                  22740921.1484                                   22740918.2814
                                                                        48.0004
        33.7504
 -17664079.52747 -13723302.92246
                  22492583.3364                                   22492579.4344
                                                                        47.2504
        37.5004
 -18045844.74648 -14028490.48446
                  21701732.6724                                   21701729.3364
                                                                        49.5004
        38.2504
  -9651924.53947  -7482897.94544
                  23348441.9144                                   23348439.0664
                                                                        43.5004
        27.2504
  -9357836.52748  -7274060.86346
                  21403522.6484                                   21403518.9184
                                                                        50.7504
        36.7504
  -1187359.32047   -916525.37144
                  23336173.4454                                   23336167.6214
                                                                        43.5004
        27.7504
 -15247043.53547 -11842101.03946
                  22490238.8674                                   22490235.7304
                                                                        47.7504
        36.0004
 09 10 20  0  2 30.0000000  0  9G02G04G05G10G25G13G23G29G16
  -7786670.23448  -6048360.86347
                  20716270.7584                                   20716265.5084
                                                                        51.5004
        42.7504
    497296.07848    393113.99245
                  22743262.9924                                   22743259.4734
                                                                        48.2504
        33.0004
 -17841949.55548 -13861902.96546
                  22458736.0944                                   22458731.9884
                                                                        48.0004
        37.7504
 -18211768.44548 -14157781.65646
                  21670158.2424                                   21670154.6844
                                                                        49.2504
        38.0004
  -9801163.00847  -7599187.60244
                  23320042.7814                                   23320039.7384
                                                                        43.7504
        28.0004
  -9424073.12148  -7325673.80546
                  21390917.8754                                   21390914.2034
                                                                        51.0004
        36.5004
  -1185427.36347   -915019.98444
                  23336540.9144                                   23336535.6094
                                                                        43.7504
        27.0004
 -15379810.66448 -11945556.05146
                  22464975.0554                                   22464971.5984
                                                                        48.5004
        36.0004
   1377366.34456   1106297.50052
                  24476282.6484                                   24476279.5704
                                                                        37.5004
        17.2504
 09 10 20  0  3  0.0000000  0  9G02G04G05G10G25G13G23G29G16
  -7841099.68048  -6090773.51247
                  20705913.5474                                   20705907.8094
                                                                        51.5004
        42.0004
    509899.77747    402935.08245
                  22745660.9924                                   22745657.8204
                                                                        47.7504
        33.5004
 -18019491.71548 -14000247.52046
                  22424950.6884                                   22424947.0394
                                                                        48.0004
        37.7504
 -18377258.67248 -14286735.05946
                  21638666.7194                                   21638663.1054
                                                                        49.0004
        38.0004
  -9949933.82447  -7715112.89144
                  23291732.8914                                   23291729.4144
                                                                        45.0004
        27.5004
  -9489645.84848  -7376769.47346
                  21378440.1414                                   21378435.7894
                                                                        51.0004
        36.5004
  -1183101.69147   -913207.79344
                  23336984.2814                                   23336978.0474
                                                                        44.0004
        26.0004
 -15512021.99248 -12048577.87546
                  22439815.8524                                   22439812.6294
                                                                        49.0004
        36.0004
   1223126.03546    986110.33242
                  24446931.0944                                   24446928.4774
                                                                        37.2504
        17.2504
 09 10 20  0  3 30.0000000  0  9G02G04G05G10G25G13G23G29G16
  -7894950.62148  -6132735.34047
                  20695665.8054                                   20695660.3094
                                                                        51.7504
        42.7504
    522797.52347    412985.30145
                  22748115.5394                                   22748112.3794
                                                                        47.0004
        33.5004
 -18196706.87148 -14138337.28546
                  22391227.7894                                   22391223.9384
                                                                        48.2504
        38.0004
 -18542316.28948 -14415351.39546
                  21607256.7814                                   21607253.4414
                                                                        49.5004
        38.0004
 -10098237.16447  -7830673.84844
                  23263511.5784                                   23263507.6484
                                                                        43.7504
        28.7504
  -9554557.61348  -7427350.05546
                  21366087.8524                                   21366084.1024
                                                                        50.7504
        36.7504
  -1180387.52347   -911092.85544
                  23337500.3134                                   23337494.3444
                                                                        44.5004
        26.2504
 -15643678.72748 -12151167.63746
                  22414762.4144                                   22414758.8714
                                                                        48.7504
        36.0004
   1069352.85546    866287.11342
                  24417669.5394                                   24417665.6094
                                                                        38.5004
        17.7504
 09 10 20  0  4  0.0000000  0  9G02G04G05G10G25G13G23G29G16
  -7948222.57448  -6174245.89847
                  20685528.5944                                   20685523.0664
                                                                        52.0004
        42.5004
    535988.45347    423263.96545
                  22750625.3054                                   22750622.3984
                                                                        47.2504
        33.5004
 -18373591.93448 -14276169.82046
                  22357567.5084                                   22357564.0124
                                                                        49.2504
        38.0004
 -18706938.21148 -14543628.23446
                  21575930.7734                                   21575926.9734
                                                                        49.5004
        38.2504
 -10246070.37547  -7945868.59444
                  23235380.1954                                   23235376.0164
                                                                        45.2504
        28.0004
  -9618808.66448  -7477415.76246
                  21353861.2814                                   21353856.9924
                                                                        51.0004
        36.0004
  -1177286.32047   -908676.28144
                  23338090.7664                                   23338084.0824
                                                                        44.5004
        25.5004
 -15774778.22748 -12253323.36346
                  22389815.0394                                   22389811.9964
                                                                        48.0004
        36.5004
    916050.06646    746830.38743
                  24388497.4224                                   24388492.9494
                                                                        39.5004
        21.2504
 09 10 20  0  4 30.0000000  0  9G02G04G05G10G25G13G23G29G16
  -8000913.36348  -6215303.55546
                  20675501.6564                                   20675496.0004
                                                                        52.5004
        41.7504
    549473.50847    433771.79345
                  22753191.3914                                   22753188.7894
                                                                        47.7504
        34.0004
 -18550141.71148 -14413741.12146
                  22323971.5164                                   22323968.0084
                                                                        49.5004
        37.7504
 -18871119.02048 -14671561.32846
                  21544688.0394                                   21544684.5554
                                                                        49.5004
        39.0004
 -10393427.49647  -8060692.29744
                  23207338.4144                                   23207334.7344
                                                                        43.7504
        27.0004
  -9682396.63348  -7526964.80546
                  21341760.6644                                   21341756.8874
                                                                        51.0004
        36.0004
  -1173797.65647   -905957.82044
                  23338754.1414                                   23338748.0744
                                                                        44.0004
        27.2504
 -15905315.78548 -12355041.27045
                  22364974.7974                                   22364971.6254
                                                                        48.5004
        35.5004
    763223.60246    627744.85243
                  24359416.0704                                   24359410.9574
                                                                        41.5004
        20.0004
 09 10 20  0  5  0.0000000  0  9G02G04G05G10G25G13G23G29G16
  -8053020.52748  -6255906.46147
                  20665586.2584                                   20665580.3594
                                                                        52.2504
        42.0004
    563254.04747    444509.87945
                  22755814.0704                                   22755810.8054
                                                                        47.5004
        34.0004
 -18726351.07848 -14551047.07046
                  22290440.0234                                   22290436.1254
                                                                        50.0004
        37.7504
 -19034854.31648 -14799147.28946
                  21513530.3834                                   21513526.6804
                                                                        50.0004
        38.7504
 -10540303.14847  -8175140.80544
                  23179388.8204                                   23179384.9264
                                                                        44.5004
        26.7504
  -9745319.05148  -7575995.25846
                  21329787.1254                                   21329783.2194
                                                                        51.5004
        36.5004
  -1169920.76647   -902936.86744
                  23339491.3754                                   23339486.7274
                                                                        43.0004
        26.2504
 -16035285.72748 -12456316.58646
                  22340242.7584                                   22340239.0164
                                                                        48.7504
        36.0004
    610878.92647    509034.75043
                  24330425.6564                                   24330420.9884
                                                                        42.5004
        21.7504
 09 10 20  0  5 30.0000000  0  9G02G04G05G10G25G13G23G29G16
  -8104542.71548  -6296053.59047
                  20655781.7274                                   20655776.4614
                                                                        52.7504
        42.5004
    577329.80947    455478.00045
                  22758492.3674                                   22758489.4614
                                                                        46.7504
        33.5004
 -18902215.73048 -14688084.45346
                  22256973.8834                                   22256970.1214
                                                                        49.5004
        37.5004
 -19198139.75048 -14926382.65246
                  21482457.7504                                   21482454.3284
                                                                        50.0004
        38.7504
 -10686693.36747  -8289211.08244
                  23151531.3914                                   23151528.2114
                                                                        44.5004
        27.2504
  -9807575.04748  -7624506.43046
                  21317940.1174                                   21317935.8674
                                                                        51.0004
        36.5004
  -1165656.29747   -899613.94144
                  23340303.7344                                   23340297.9774
                                                                        44.5004
        25.7504
 -16164684.22348 -12557146.53546
                  22315618.7424                                   22315615.4614
                                                                        48.7504
        36.2504
    459020.29747    390703.28943
                  24301527.0234                                   24301523.5274
                                                                        42.2504
        22.7504
 09 10 20  0  6  0.0000000  0  9G02G04G05G10G25G13G23G29G16
  -8155481.58248  -6335746.19947
                  20646088.4844                                   20646082.7934
                                                                        52.2504
        42.2504
    591697.92647    466673.91445
                  22761226.7584                                   22761223.7704
                                                                        47.2504
        32.7504
 -19077734.63348 -14824852.41446
                  22223573.7194                                   22223570.0474
                                                                        49.5004
        37.7504
 -19360974.08248 -15053266.52346
                  21451471.6414                                   21451468.2274
                                                                        50.7504
        38.7504
 -10832596.68047  -8402901.94944
                  23123767.0394                                   23123763.7814
                                                                        44.5004
        27.2504
  -9869166.53548  -7672499.77346
                  21306219.7894                                   21306215.7504
                                                                        51.0004
        37.2504
  -1161007.78147   -895991.69544
                  23341188.5704                                   23341182.9734
                                                                        45.0004
        27.5004
 -16293511.59448 -12657531.46546
                  22291103.7584                                   22291100.3794
                                                                        49.0004
        36.2504
    307649.57047    272752.16443
                  24272722.8524                                   24272718.7894
                                                                        43.5004
        22.5004
 09 10 20  0  6 30.0000000  0  9G02G04G05G10G25G13G23G29G16
  -8205836.37948  -6374983.68447
                  20636506.4454                                   20636500.6454
                                                                        52.5004
        42.0004
    606357.73847    478097.13345
                  22764015.9774                                   22764012.8954
                                                                        47.2504
        31.7504
 -19252905.49248 -14961349.14846
                  22190239.7734                                   22190236.6334
                                                                        50.0004
        37.7504
 -19523354.50048 -15179796.68446
                  21420571.4224                                   21420568.0164
                                                                        50.0004
        38.5004
 -10978009.52747  -8516210.52744
                  23096096.0084                                   23096092.5704
                                                                        44.5004
        28.0004
  -9930093.07848  -7719974.99246
                  21294625.5314                                   21294621.4804
                                                                        51.5004
        36.0004
  -1155976.21147   -892070.91444
                  23342145.7344                                   23342139.9574
                                                                        45.2504
        27.0004
 -16421764.78948 -12757468.99646
                  22266697.8134                                   22266694.6564
                                                                        48.5004
        36.5004
    156769.95347    155183.60544
                  24244011.3444                                   24244006.9964
                                                                        42.5004
        24.0004
 09 10 20  0  7  0.0000000  0  9G02G04G05G10G25G13G23G29G16
  -8255609.17648  -6413767.69947
                  20627034.6954                                   20627029.0984
                                                                        52.0004
        42.0004
    621306.16447    489745.23045
                  22766861.1024                                   22766857.8594
                                                                        46.5004
        32.7504
 -19427726.30548 -15097573.12946
                  22156972.7894                                   22156968.9414
                                                                        50.5004
        38.5004
 -19685279.66048 -15305972.14146
                  21389757.9844                                   21389754.7344
                                                                        50.0004
        38.7504
 -11122930.95747  -8629136.23844
                  23068518.9454                                   23068515.0634
                                                                        44.7504
        28.0004
  -9990356.69148  -7766933.59845
                  21283157.6254                                   21283153.6134
                                                                        50.7504
        35.5004
  -1150565.19547   -887854.44944
                  23343174.6644                                   23343169.3244
                                                                        44.5004
        27.7504
 -16549442.41848 -12856958.03546
                  22242401.6024                                   22242398.8364
                                                                        48.5004
        36.0004
      6383.36346     37999.26243
                  24215393.2814                                   24215389.6564
                                                                        41.2504
        22.0004
 09 10 20  0  7 30.0000000  0  9G02G04G05G10G25G13G23G29G16
  -8304799.90648  -6452098.17647
                  20617674.1804                                   20617668.7544
                                                                        52.5004
        42.2504
    636541.74247    501617.09445
                  22769760.6334                                   22769757.2234
                                                                        47.5004
        32.2504
 -19602195.14148 -15233522.86746
                  22123772.1724                                   22123768.7114
                                                                        51.2504
        38.7504
 -19846747.35248 -15431791.08246
                  21359031.9224                                   21359028.3834
                                                                        51.2504
        39.2504
 -11267358.15247  -8741676.88744
                  23041035.4384                                   23041031.8674
                                                                        46.7504
        29.5004
 -10049957.87948  -7813376.05145
                  21271816.5084                                   21271812.2304
                                                                        51.5004
        35.7504
  -1144776.74247   -883343.96943
                  23344276.3834                                   23344270.9024
                                                                        45.5004
        23.7504
 -16676543.19948 -12955997.59046
                  22218215.0634                                   22218211.9614
                                                                        48.5004
        36.7504
   -143507.67646    -78798.91843
                  24186869.7034                                   24186866.5274
                                                                        39.2504
        20.2504
 09 10 20  0  8  0.0000000  0 10G02G04G05G10G25G13G23G29G16G07
  -8353409.92648  -6489976.12147
                  20608424.0234                                   20608418.6334
                                                                        53.0004
        42.5004
    652061.94947    513710.75845
                  22772713.5084                                   22772710.7074
                                                                        47.0004
        31.7504
 -19776310.18048 -15369196.91046
                  22090639.1334                                   22090635.3444
                                                                        50.5004
        38.0004
 -20007756.25048 -15557252.55546
                  21328392.7734                                   21328389.3714
                                                                        50.5004
        39.5004
 -11411289.68447  -8853831.31644
                  23013646.1484                                   23013642.8014
                                                                        46.0004
        29.2504
 -10108898.28948  -7859303.64146
                  21260600.1254                                   21260596.0044
                                                                        50.5004
        36.0004
  -1138613.94947   -878541.77343
                  23345449.2344                                   23345443.3634
                                                                        45.0004
        23.0004
 -16803065.97348 -13054586.78146
                  22194138.6884                                   22194135.6844
                                                                        48.7504
        36.2504
   -292901.03946   -195209.27343
                  24158441.5084                                   24158437.7114
                                                                        39.0004
        20.0004
   1338566.33257   1057472.87554
                  24373669.8754                                   24373666.9264
                                                                        42.5004
        25.5004
 09 10 20  0  8 30.0000000  0 10G02G04G05G10G25G13G23G29G16G07
  -8401444.78948  -6527405.85247
                  20599283.0474                                   20599277.6254
                                                                        52.0004
        42.2504
    667859.60547    526020.59845
                  22775719.8054                                   22775716.9494
                                                                        47.5004
        31.7504
 -19950074.58248 -15504597.75046
                  22057572.7894                                   22057569.1724
                                                                        50.5004
        38.5004
 -20168309.18048 -15682358.71146
                  21297840.6414                                   21297837.0784
                                                                        51.2504
        38.7504
 -11554728.30947  -8965601.68444
                  22986350.3674                                   22986346.8524
                                                                        45.2504
        28.7504
 -10167183.95348  -7904721.03146
                  21249508.6564                                   21249505.1524
                                                                        50.5004
        36.2504
  -1132084.46547   -873453.87544
                  23346691.6954                                   23346685.7464
                                                                        44.2504
        25.7504
 -16929013.84448 -13152727.99646
                  22170171.5864                                   22170168.8094
                                                                        49.2504
        36.5004
   -441799.56246   -311234.07843
                  24130106.5084                                   24130102.9104
                                                                        40.2504
        20.5004
   1153901.52747    913578.27043
                  24338529.4844                                   24338525.8204
                                                                        42.7504
        22.5004
 09 10 20  0  9  0.0000000  0 10G02G04G05G10G25G13G23G29G16G07
  -8448910.26648  -6564391.94547
                  20590250.8524                                   20590245.1024
                                                                        52.5004
        42.2504
    683928.14847    538541.50045
                  22778777.6094                                   22778774.6484
                                                                        46.5004
        33.0004
 -20123490.94548 -15639727.38346
                  22024572.6024                                   22024569.0434
                                                                        49.5004
        38.2504
 -20328409.02348 -15807111.80946
                  21267374.5944                                   21267371.3094
                                                                        51.2504
        39.2504
 -11697676.27347  -9076989.67244
                  22959147.8914                                   22959145.0084
                                                                        45.0004
        29.0004
 -10224820.14548  -7949632.26246
                  21238541.1644                                   21238536.7854
                                                                        50.0004
        36.2504
  -1125195.32447   -868085.66844
                  23348003.3444                                   23347996.6604
                                                                        43.7504
        26.0004
 -17054389.61348 -13250423.38746
                  22146313.5164                                   22146310.5354
                                                                        49.2504
        37.2504
   -590205.22746   -426874.84443
                  24101866.2974                                   24101861.6884
                                                                        41.2504
        20.2504
    969494.50846    769884.49643
                  24303437.9454                                   24303434.2424
                                                                        41.5004
        22.5004
 09 10 20  0  9 30.0000000  0 10G02G04G05G10G25G13G23G29G16G07
  -8495805.85548  -6600934.02047
                  20581326.8594                                   20581321.3404
                                                                        52.5004
        42.2504
    700266.80947    551272.88345
                  22781886.9064                                   22781884.1724
                                                                        46.5004
        33.0004
 -20296555.94548 -15774583.28946
                  21991639.8054                                   21991636.1454
                                                                        50.0004
        38.2504
 -20488052.69548 -15931509.47346
                  21236995.6564                                   21236992.2274
                                                                        51.0004
        39.2504
 -11840130.33247  -9187992.78944
                  22932039.9224                                   22932036.6884
                                                                        44.7504
        29.0004
 -10281807.30148  -7994037.77746
                  21227696.7194                                   21227692.6684
                                                                        50.5004
        36.0004
  -1117947.85247   -862438.29744
                  23349381.6254                                   23349375.7114
                                                                        43.7504
        25.2504
 -17179190.66448 -13347670.92246
                  22122564.5944                                   22122561.7034
                                                                        49.0004
        37.0004
   -738114.85546   -542129.14843
                  24073720.3754                                   24073716.2234
                                                                        41.2504
        20.7504
    785349.31646    626394.72743
                  24268395.6724                                   24268392.7504
                                                                        40.5004
        22.0004
 09 10 20  0 10  0.0000000  0 10G02G04G05G10G25G13G23G29G16G07
  -8542128.41848  -6637029.53547
                  20572511.7974                                   20572506.3714
                                                                        52.7504
        42.2504
    716877.37147    564216.13745
                  22785047.4384                                   22785044.8914
                                                                        45.5004
        31.7504
 -20469264.03948 -15909161.04746
                  21958774.3594                                   21958770.7384
                                                                        50.0004
        39.2504
 -20647234.57448 -16055547.37146
                  21206704.1884                                   21206701.0314
                                                                        51.2504
        39.0004
 -11982084.54747  -9298606.46944
                  22905026.9694                                   22905022.8954
                                                                        45.0004
        28.2504
 -10338142.46948  -8037935.30946
                  21216976.5004                                   21216972.3244
                                                                        50.0004
        36.0004
  -1110340.69147   -856510.58244
                  23350829.9144                                   23350823.8324
                                                                        43.2504
        24.2504
 -17303411.82048 -13444466.54346
                  22098925.6094                                   22098923.0864
                                                                        48.7504
        36.5004
   -885522.05546   -656991.94943
                  24045670.0634                                   24045665.2704
                                                                        41.0004
        21.0004
    601473.78546    483115.16843
                  24233405.4924                                   24233402.0004
                                                                        40.7504
        22.0004
 09 10 20  0 10 30.0000000  0 10G02G04G05G10G25G13G23G29G16G07
  -8587878.19548  -6672678.75046
                  20563806.1094                                   20563800.6174
                                                                        52.0004
        41.7504
    733758.59047    577370.28945
                  22788260.2504                                   22788256.9064
                                                                        45.5004
        31.7504
 -20641612.45348 -16043458.54346
                  21925977.7584                                   21925974.0634
                                                                        49.5004
        39.2504
 -20805951.76648 -16179223.11746
                  21176501.2344                                   21176498.1054
                                                                        50.7504
        39.5004
 -12123536.14147  -9408828.46944
                  22878108.9454                                   22878105.0984
                                                                        45.2504
        27.5004
 -10393826.16848  -8081325.18745
                  21206379.8444                                   21206375.9024
                                                                        50.0004
        35.5004
  -1102375.80547   -850304.14144
                  23352345.1484                                   23352339.5744
                                                                        44.5004
        27.7504
 -17427051.07448 -13540808.84046
                  22075398.0784                                   22075395.2854
                                                                        49.0004
        36.5004
  -1032423.50446   -771460.58643
                  24017715.4844                                   24017710.7114
                                                                        40.5004
        20.0004
    417870.93847    340048.08644
                  24198467.0004                                   24198463.6844
                                                                        43.0004
        25.2504
 09 10 20  0 11  0.0000000  0 10G02G04G05G10G25G13G23G29G16G07
  -7057634.57048  -5480281.25847
                  20855002.0704                                   20854996.3794
                                                                        52.2504
        42.5004
   2326327.92647   1818333.41845
                  23091315.9454                                   23091312.7194
                                                                        46.2504
        31.5004
 -19238173.04748 -14949869.35246
                  22193043.6254                                   22193040.0124
                                                                        49.5004
        39.0004
 -19388777.25048 -15074931.29746
                  21446180.8284                                   21446177.5784
                                                                        51.2504
        39.0004
 -10689058.14147  -8291053.36344
                  23151081.2974                                   23151077.0554
                                                                        43.7504
        26.7504
  -8873437.44148  -6896606.68046
                  21495700.4694                                   21495696.5864
                                                                        49.7504
        36.2504
    481364.27347    383779.05144
                  23653720.6804                                   23653715.6684
                                                                        43.7504
        26.5004
 -15974682.22748 -12409092.90646
                  22351774.5314                                   22351772.3364
                                                                        49.2504
        36.7504
    396607.95346    342070.42243
                  24289650.5394                                   24289646.5124
                                                                        41.5004
        20.0004
   1809970.25447   1424800.85244
                  24463375.1644                                   24463371.8634
                                                                        43.5004
        26.7504
 09 10 20  0 11 30.0000000  0 10G02G04G05G10G25G13G23G29G16G07
  -7102240.07048  -5515038.80546
                  20846513.7344                                   20846508.1214
                                                                        52.0004
        41.7504
   2343745.57047   1831905.60545
                  23094630.6254                                   23094627.2544
                                                                        46.2504
        31.7504
 -19409794.99648 -15083600.70346
                  22160384.8134                                   22160381.4414
                                                                        49.7504
        38.7504
 -19546558.69148 -15197877.90246
                  21416155.7814                                   21416152.7194
                                                                        52.0004
        38.5004
 -10829497.06647  -8400486.25444
                  23124357.0944                                   23124353.0664
                                                                        44.0004
        28.7504
  -8927820.41448  -6938983.02346
                  21485351.6564                                   21485347.4844
                                                                        49.7504
        36.0004
    490038.15647    390537.94144
                  23655371.4534                                   23655366.1524
                                                                        44.0004
        26.0004
 -16097151.58248 -12504523.52346
                  22328469.6174                                   22328466.8094
                                                                        49.0004
        37.0004
    250725.33246    228395.67643
                  24261889.9694                                   24261886.0514
                                                                        41.7504
        20.7504
   1626923.33247   1282166.97744
                  24428542.2194                                   24428538.9144
                                                                        43.7504
        27.0004
 09 10 20  0 12  0.0000000  0 10G02G04G05G10G25G13G23G29G16G07
  -7146273.70748  -5549350.71147
                  20838134.6334                                   20838129.0044
                                                                        52.2504
        42.7504
   2361429.07047   1845684.96545
                  23097995.6884                                   23097992.4064
                                                                        46.7504
        31.0004
 -19581049.96548 -15217046.15246
                  22127796.2584                                   22127792.7424
                                                                        48.7504
        38.7504
 -19703868.38348 -15320456.87546
                  21386220.7034                                   21386217.1214
                                                                        51.5004
        39.0004
 -10969425.91847  -8509521.66844
                  23097729.7424                                   23097725.6214
                                                                        45.0004
        28.0004
  -8981554.12148  -6980853.43445
                  21475126.5234                                   21475122.3714
                                                                        49.0004
        35.7504
    499063.68847    397570.85544
                  23657088.7114                                   23657083.5434
                                                                        42.2504
        24.2504
 -16219033.07848 -12599496.14546
                  22305276.3754                                   22305273.8364
                                                                        49.5004
        37.5004
    105356.53146    115121.32843
                  24234227.1564                                   24234223.1644
                                                                        41.0004
        21.5004
   1444159.69147   1139753.78544
                  24393763.3204                                   24393759.6254
                                                                        43.5004
        27.0004
 09 10 20  0 12 30.0000000  0 10G02G04G05G10G25G13G23G29G16G07
  -7189740.70748  -5583220.98046
                  20829862.8984                                   20829857.5474
                                                                        52.2504
        41.5004
   2379372.46147   1859666.84445
                  23101409.7504                                   23101407.1684
                                                                        46.2504
        31.5004
 -19751940.03548 -15350207.23446
                  22095276.3984                                   22095272.8714
                                                                        48.7504
        38.7504
 -19860708.43748 -15442669.87546
                  21356375.1564                                   21356371.6414
                                                                        52.2504
        39.2504
 -11108846.55947  -8618161.10944
                  23071198.2814                                   23071194.8054
                                                                        43.5004
        29.0004
  -9034643.99648  -7022222.18446
                  21465024.0474                                   21465019.5784
                                                                        49.0004
        36.0004
    508434.33646    404872.69143
                  23658871.1884                                   23658865.9614
                                                                        41.5004
        22.5004
 -16340329.28548 -12694012.66846
                  22282194.4924                                   22282191.4574
                                                                        49.2504
        37.0004
    -39500.32446      2245.89843
                  24206662.2114                                   24206657.8714
                                                                        40.0004
        22.5004
   1261678.44946    997560.65244
                  24359037.9844                                   24359035.3984
                                                                        41.2504
        24.5004
 09 10 20  0 13  0.0000000  0 10G02G04G05G10G25G13G23G29G16G07
  -7232642.08648  -5616650.64846
                  20821699.1644                                   20821693.6684
                                                                        53.0004
        41.7504
   2397573.84047   1873849.75045
                  23104873.2814                                   23104870.4454
                                                                        46.7504
        31.2504
 -19922463.06648 -15483082.26246
                  22062827.3444                                   22062823.4224
                                                                        49.7504
        39.0004
 -20017077.11748 -15564515.62146
                  21326619.2344                                   21326616.3284
                                                                        51.5004
        40.0004
 -11247756.90647  -8726402.91044
                  23044764.3984                                   23044760.7734
                                                                        44.5004
        28.7504
  -9087090.87148  -7063089.88346
                  21455043.4384                                   21455039.5704
                                                                        48.5004
        36.0004
    518147.44546    412441.43043
                  23660719.9384                                   23660714.0704
                                                                        41.0004
        22.0004
 -16461038.00448 -12788071.37946
                  22259224.3204                                   22259221.3794
                                                                        49.0004
        36.7504
   -183843.02346   -110228.93443
                  24179194.6804                                   24179190.5124
                                                                        39.5004
        22.5004
   1079482.84446    855590.14843
                  24324366.7424                                   24324364.2774
                                                                        41.0004
        22.7504
 09 10 20  0 13 30.0000000  0 10G02G04G05G10G25G13G23G29G16G07
  -7274980.48048  -5649641.67647
                  20813642.4694                                   20813636.7734
                                                                        52.2504
        42.0004
   2416029.54747   1888230.82445
                  23108385.6484                                   23108382.6604
                                                                        47.5004
        32.0004
 -20092618.69148 -15615671.02346
                  22030447.7424                                   22030443.9144
                                                                        49.5004
        39.0004
 -20172974.00848 -15685993.71146
                  21296952.9534                                   21296949.6414
                                                                        51.0004
        39.5004
 -11386156.45747  -8834246.69544
                  23018427.9454                                   23018424.6414
                                                                        44.7504
        29.2504
  -9138897.29748  -7103458.50845
                  21445184.9694                                   21445181.0204
                                                                        49.0004
        35.5004
    528198.92647    420273.84843
                  23662633.0394                                   23662626.3674
                                                                        43.0004
        22.2504
 -16581160.32448 -12881673.14146
                  22236365.8984                                   22236362.8364
                                                                        50.0004
        37.0004
   -327670.60946   -222302.34443
                  24151824.6484                                   24151821.7464
                                                                        38.0004
        22.0004
    897574.59046    713843.52743
                  24289750.9224                                   24289747.5784
                                                                        40.5004
        22.0004
 09 10 20  0 14  0.0000000  0 10G02G04G05G10G25G13G23G29G16G07
  -7316758.38748  -5682195.91446
                  20805692.2894                                   20805686.6604
                                                                        52.7504
        41.5004
   2434735.28947   1902806.71545
                  23111944.9844                                   23111942.6054
                                                                        46.2504
        31.5004
 -20262407.29748 -15747973.87146
                  21998138.2424                                   21998134.5944
                                                                        49.5004
        39.5004
 -20328399.74648 -15807104.66846
                  21267376.5314                                   21267373.3404
                                                                        51.2504
        39.5004
 -11524045.59447  -8941692.74644
                  22992188.6724                                   22992185.7664
                                                                        44.2504
        29.5004
  -9190067.27348  -7143331.22346
                  21435447.8364                                   21435443.3984
                                                                        49.2504
        36.0004
    538584.12147    428366.27344
                  23664609.5864                                   23664602.8444
                                                                        44.0004
        24.0004
 -16700697.05148 -12974818.70346
                  22213618.8834                                   22213615.7544
                                                                        49.5004
        36.2504
   -470983.32446   -333974.60243
                  24124553.5474                                   24124549.0904
                                                                        40.0004
        22.2504
    715954.21946    572321.23044
                  24255190.2114                                   24255186.2584
                                                                        41.5004
        24.0004
 09 10 20  0 14 30.0000000  0 10G02G04G05G10G25G13G23G29G16G07
  -7357976.74248  -5714314.14547
                  20797848.6804                                   20797843.1644
                                                                        53.0004
        42.0004
   2453689.62547   1917576.30945
                  23115551.6254                                   23115548.9414
                                                                        47.0004
        32.0004
 -20431826.42248 -15879988.78146
                  21965898.6724                                   21965894.9614
                                                                        49.5004
        39.0004
 -20483352.25048 -15927846.91446
                  21237890.1174                                   21237886.8554
                                                                        50.7504
        39.7504
 -11661421.66047  -9048739.02745
                  22966046.6024                                   22966043.3714
                                                                        43.7504
        30.0004
  -9240601.35548  -7182708.41046
                  21425831.2344                                   21425827.1524
                                                                        49.2504
        36.0004
    549301.00047    436717.16844
                  23666649.1094                                   23666642.9454
                                                                        44.2504
        25.7504
 -16819645.84848 -13067506.06646
                  22190983.7814                                   22190980.3634
                                                                        48.5004
        36.5004
   -613778.50446   -445243.53143
                  24097380.1954                                   24097376.8674
                                                                        39.0004
        22.5004
    534625.35246    431026.09043
                  24220684.3674                                   24220680.5004
                                                                        41.0004
        22.7504
 09 10 20  0 15  0.0000000  0 10G02G04G05G10G25G13G23G29G16G07
  -7398638.27748  -5745998.47347
                  20790111.4224                                   20790105.8714
                                                                        52.5004
        42.0004
   2472888.54748   1932536.48445
                  23119205.8444                                   23119202.3984
                                                                        48.0004
        31.0004
 -20600876.07448 -16011715.79346
                  21933729.4064                                   21933725.6914
                                                                        50.0004
        39.2504
 -20637831.24248 -16048220.10946
                  21208493.7034                                   21208490.4654
                                                                        51.7504
        40.0004
 -11798284.95347  -9155385.73845
                  22940002.5234                                   22939999.3284
                                                                        44.0004
        30.2504
  -9290503.11748  -7221592.89145
                  21416335.0234                                   21416330.7934
                                                                        49.5004
        35.7504
    560344.80547    445322.78144
                  23668750.3834                                   23668745.3524
                                                                        43.5004
        25.2504
 -16938007.26248 -13159735.65646
                  22168459.9384                                   22168457.2894
                                                                        48.5004
        36.5004
   -756055.73846   -556108.87143
                  24070305.4534                                   24070301.8524
                                                                        39.5004
        22.2504
    353589.00047    289958.78944
                  24186234.8524                                   24186230.9734
                                                                        43.0004
        26.7504
 09 10 20  0 15 30.0000000  0 10G02G04G05G10G25G13G23G29G16G07
  -7438743.48048  -5777249.24646
                  20782479.2424                                   20782473.7974
                                                                        53.0004
        41.5004
   2492330.63347   1947686.14145
                  23122905.5164                                   23122902.4494
                                                                        47.0004
        30.5004
 -20769553.94948 -16143153.08246
                  21901631.3524                                   21901627.5204
                                                                        50.0004
        39.0004
 -20791834.75048 -16168222.87146
                  21179187.6954                                   21179184.4384
                                                                        51.2504
        40.0004
 -11934632.73447  -9261630.73444
                  22914056.1024                                   22914053.1564
                                                                        44.7504
        29.5004
  -9339773.27048  -7259985.21945
                  21406959.6564                                   21406955.4534
                                                                        49.7504
        35.5004
    571713.51246    454181.50043
                  23670912.8674                                   23670907.7154
                                                                        41.5004
        23.5004
 -17055779.98448 -13251506.59046
                  22146048.7114                                   22146045.3244
                                                                        48.5004
        37.2504
   -897812.35246   -666568.53543
                  24043330.1724                                   24043326.6134
                                                                        39.5004
        22.5004
    172848.68847    149122.19544
                  24151841.0704                                   24151837.3164
                                                                        43.0004
        28.2504
 09 10 20  0 16  0.0000000  0 10G02G04G05G10G25G13G23G29G16G07
  -7478298.73848  -5808071.48846
                  20774952.0864                                   20774946.8404
                                                                        52.7504
        41.0004
   2512008.61747   1963019.60945
                  23126650.0864                                   23126647.0904
                                                                        46.0004
        30.5004
 -20937862.94548 -16274303.03146
                  21869603.2664                                   21869599.5704
                                                                        50.0004
        39.5004
 -20945365.73848 -16287857.43046
                  21149971.9614                                   21149968.6334
                                                                        51.0004
        39.0004
 -12070468.23847  -9367476.55144
                  22888207.7344                                   22888204.1024
                                                                        43.0004
        28.7504
  -9388418.20748  -7297890.37545
                  21397702.6174                                   21397698.7624
                                                                        49.7504
        35.5004
    583399.69146    463287.64143
                  23673136.8364                                   23673131.5904
                                                                        40.7504
        22.5004
 -17172967.55948 -13342821.50046
                  22123748.6804                                   22123745.0984
                                                                        49.5004
        36.7504
  -1039051.43046   -776624.94543
                  24016453.6954                                   24016449.5704
                                                                        40.0004
        21.7504
     -7597.37147      8514.93844
                  24117503.4614                                   24117499.3634
                                                                        43.0004
        27.5004
 09 10 20  0 16 30.0000000  0 10G02G04G05G10G25G13G23G29G16G07
  -7517306.01648  -5838466.77746
                  20767529.3364                                   20767523.9454
                                                                        51.7504
        41.7504
   2531919.50447   1978534.55145
                  23130439.0234                                   23130436.0354
                                                                        46.0004
        31.0004
 -21105802.64848 -16405165.28146
                  21837645.4694                                   21837641.6804
                                                                        50.5004
        39.0004
 -21098423.67248 -16407123.35246
                  21120845.8444                                   21120842.3364
                                                                        50.7504
        39.7504
 -12205790.87147  -9472922.79344
                  22862456.3754                                   22862453.2544
                                                                        43.5004
        29.0004
  -9436440.48848  -7335310.34445
                  21388564.4064                                   21388560.4774
                                                                        49.5004
        35.7504
    595399.52746    472638.18843
                  23675419.7424                                   23675414.3164
                                                                        41.5004
        21.5004
 -17289569.85248 -13433680.37946
                  22101560.0634                                   22101556.7624
                                                                        49.5004
        36.7504
  -1179772.04746   -886277.35243
                  23989675.7274                                   23989671.3324
                                                                        40.5004
        21.7504
   -187747.46546   -131861.72744
                  24083220.8834                                   24083218.1454
                                                                        40.5004
        27.0004
 09 10 20  0 17  0.0000000  0 10G02G04G05G10G25G13G23G29G16G07
  -7555765.76248  -5868435.44546
                  20760210.7344                                   20760205.2154
                                                                        52.0004
        41.5004
   2552061.81647   1994229.82445
                  23134271.8444                                   23134269.0124
                                                                        46.0004
        30.2504
 -21273370.04748 -16535737.32446
                  21805758.4384                                   21805755.1134
                                                                        50.0004
        40.0004
 -21251006.22348 -16526018.88746
                  21091810.2814                                   21091806.8444
                                                                        50.5004
        39.5004
 -12340597.98847  -9577967.33244
                  22836803.8134                                   22836800.7154
                                                                        43.5004
        28.7504
  -9483840.90648  -7372245.74246
                  21379544.6644                                   21379540.5704
                                                                        49.2504
        36.0004
    607711.11747    482231.68444
                  23677763.8134                                   23677757.1844
                                                                        43.5004
        24.5004
 -17405585.03548 -13524081.82046
                  22079482.6724                                   22079479.7114
                                                                        49.2504
        37.5004
  -1319971.25846   -995523.48043
                  23962996.6174                                   23962992.3164
                                                                        40.0004
        22.5004
   -367597.81646   -272004.81644
                  24048996.2424                                   24048993.9224
                                                                        40.0004
        25.0004
 09 10 20  0 17 30.0000000  0 10G02G04G05G10G25G13G23G29G16G07
  -7593679.46148  -5897978.55946
                  20752996.4694                                   20752990.2114
                                                                        51.7504
        41.5004
   2572433.47347   2010103.86345
                  23138148.2504                                   23138145.1724
                                                                        44.2504
        30.2504
 -21440563.61348 -16666018.07846
                  21773942.5234                                   21773939.1844
                                                                        49.5004
        39.5004
 -21403111.77048 -16644542.70346
                  21062865.6094                                   21062862.5164
                                                                        50.5004
        40.0004
 -12474887.90647  -9682608.81244
                  22811249.2504                                   22811245.5394
                                                                        44.2504
        29.2504
  -9530621.44148  -7408698.10245
                  21370642.2894                                   21370638.1374
                                                                        49.7504
        35.5004
    620331.41047    492065.72343
                  23680164.8134                                   23680158.9804
                                                                        43.7504
        23.0004
 -17521011.89848 -13614024.80146
                  22057517.7584                                   22057515.0354
                                                                        49.0004
        37.0004
  -1459647.39546  -1104362.04343
                  23936417.4224                                   23936412.1454
                                                                        40.7504
        21.5004
   -547145.60946   -411912.13344
                  24014829.9844                                   24014826.5434
                                                                        39.5004
        25.2504
 09 10 20  0 18  0.0000000  0 10G02G04G05G10G25G13G23G29G16G07
  -7631050.29748  -5927098.70347
                  20745884.7734                                   20745879.0234
                                                                        51.5004
        42.2504
   2593030.00447   2026153.16445
                  23142067.8984                                   23142065.2504
                                                                        45.5004
        31.2504
 -21607383.81648 -16796007.90646
                  21742197.9224                                   21742194.1604
                                                                        51.0004
        39.5004
 -21554741.13348 -16762695.46946
                  21034012.0084                                   21034008.1334
                                                                        51.2504
        40.5004
 -12608661.11747  -9786847.66444
                  22785793.0864                                   22785789.2974
                                                                        44.0004
        28.2504
  -9576785.26248  -7444669.93045
                  21361857.8204                                   21361853.8284
                                                                        48.5004
        35.2504
    633255.96547    502136.84843
                  23682624.7814                                   23682618.5234
                                                                        43.7504
        23.2504
 -17635851.60248 -13703510.30946
                  22035664.5234                                   22035661.4534
                                                                        49.5004
        37.2504
  -1598800.46146  -1212793.00443
                  23909937.0634                                   23909932.1604
                                                                        39.7504
        21.5004
   -726390.09846   -551583.07444
                  23980720.8674                                   23980717.4264
                                                                        40.7504
        25.2504
 09 10 20  0 18 30.0000000  0 10G02G04G05G10G25G13G23G29G16G07
  -7667879.91048  -5955797.06646
                  20738875.9224                                   20738870.1604
                                                                        52.5004
        41.7504
   2613848.66447   2042375.47745
                  23146029.2814                                   23146026.7624
                                                                        44.5004
        31.0004
 -21773829.32048 -16925705.69546
                  21710524.3524                                   21710520.8554
                                                                        50.5004
        39.5004
 -21705892.86348 -16880476.05946
                  21005248.7344                                   21005245.0124
                                                                        51.7504
        39.2504
 -12741916.29747  -9890682.81644
                  22760435.4384                                   22760431.6374
                                                                        44.5004
        28.7504
  -9622335.09048  -7480163.30945
                  21353190.1094                                   21353186.0204
                                                                        48.0004
        35.5004
    646481.54747    512442.53944
                  23685141.3364                                   23685135.1254
                                                                        43.7504
        24.7504
 -17750103.46148 -13792537.69546
                  22013922.7424                                   22013919.8324
                                                                        49.5004
        37.7504
  -1737428.81646  -1320815.10943
                  23883556.3444                                   23883552.2814
                                                                        40.0004
        21.2504
   -905328.87547   -691015.89544
                  23946670.2274                                   23946666.0784
                                                                        43.5004
        26.2504
 09 10 20  0 19  0.0000000  0 10G02G04G05G10G25G13G23G29G16G07
  -7704170.71548  -5984075.63746
                  20731970.4454                                   20731964.6954
                                                                        52.5004
        41.5004
   2634886.86747   2058768.85245
                  23150032.8134                                   23150030.5044
                                                                        45.5004
        30.5004
 -21939899.14148 -17055110.73446
                  21678922.3054                                   21678918.7384
                                                                        50.2504
        40.0004
 -21856566.28548 -16997883.89146
                  20976576.2974                                   20976572.8594
                                                                        51.5004
        39.7504
 -12874652.68747  -9994113.77344
                  22735176.4924                                   22735172.4304
                                                                        45.0004
        29.0004
  -9667272.89548  -7515179.79746
                  21344638.2894                                   21344634.6174
                                                                        48.7504
        36.0004
    660004.59846    522979.96143
                  23687714.8284                                   23687708.7584
                                                                        40.7504
        21.5004
 -17863767.41048 -13881106.94546
                  21992293.4304                                   21992290.4264
                                                                        50.0004
        37.7504
  -1875531.64146  -1428427.69143
                  23857276.7194                                   23857272.7344
                                                                        39.7504
        21.2504
  -1083960.16047   -830209.09044
                  23912678.3204                                   23912674.1054
                                                                        43.0004
        26.7504
 09 10 20  0 19 30.0000000  0 10G02G04G05G10G25G13G23G29G16G07
  -7739924.65648  -6011935.85546
                  20725166.6334                                   20725160.9614
                                                                        52.2504
        41.5004
   2656141.02747   2075330.52745
                  23154077.6564                                   23154074.6954
                                                                        45.7504
        30.5004
 -22105592.44148 -17184222.39546
                  21647392.0944                                   21647388.1724
                                                                        50.2504
        40.2504
 -22006760.57448 -17114918.38346
                  20947995.3134                                   20947991.9224
                                                                        51.0004
        40.2504
 -13006869.61347 -10097139.91044
                  22710016.2424                                   22710012.9304
                                                                        44.7504
        29.5004
  -9711601.35548  -7549721.41845
                  21336203.3914                                   21336199.0864
                                                                        49.2504
        35.0004
    673821.40646    533746.30143
                  23690343.2664                                   23690337.8204
                                                                        41.2504
        23.2504
 -17976843.14548 -13969217.88346
                  21970775.8594                                   21970772.8914
                                                                        49.5004
        37.7504
  -2013108.14846  -1535630.13743
                  23831097.0474                                   23831092.6884
                                                                        41.0004
        21.7504
  -1262281.25447   -969160.59044
                  23878744.6174                                   23878740.1724
                                                                        43.0004
        26.0004
 09 10 20  0 20  0.0000000  0 10G02G04G05G10G25G13G23G29G16G07
  -7775145.93048  -6039381.02346
                  20718464.1954                                   20718458.5274
                                                                        52.5004
        41.7504
   2677606.57847   2092056.94945
                  23158162.1484                                   23158159.2624
                                                                        46.0004
        31.0004
 -22270910.42248 -17313041.57846
                  21615932.8444                                   21615929.0314
                                                                        50.5004
        40.0004
 -22156477.22748 -17231580.71546
                  20919504.9534                                   20919501.4654
                                                                        50.7504
        40.5004
 -13138568.18447 -10199762.14544
                  22684955.2114                                   22684951.2734
                                                                        44.5004
        29.7504
  -9755324.91848  -7583791.67645
                  21327882.7424                                   21327878.2854
                                                                        48.5004
        35.0004
    687926.40246    544737.18444
                  23693027.5634                                   23693022.1484
                                                                        41.5004
        25.2504
 -18089332.84448 -14056872.17246
                  21949369.9694                                   21949367.4344
                                                                        50.2504
        37.7504
  -2150159.21946  -1642423.18443
                  23805017.1564                                   23805013.0124
                                                                        41.0004
        22.0004
  -1440292.49646  -1107870.60244
                  23844870.4454                                   23844865.9774
                                                                        40.5004
        25.5004
 09 10 20  0 20 30.0000000  0 10G02G04G05G10G25G13G23G29G16G07
  -6234412.25448  -4838809.34846
                  21011655.9774                                   21011650.4454
                                                                        52.0004
        41.7504
   4274702.97347   3336547.67244
                  23462079.3834                                   23462076.5474
                                                                        45.2504
        28.5004
 -20860423.35548 -16213960.73046
                  21884339.6254                                   21884335.5864
                                                                        49.5004
        39.5004
 -20730287.47748 -16120264.02746
                  21190899.7734                                   21190896.6374
                                                                        51.0004
        40.2504
 -11694319.97747  -9074373.92645
                  22959786.3914                                   22959783.2424
                                                                        44.5004
        30.5004
  -8223021.90247  -6389789.33245
                  21619470.1884                                   21619466.3754
                                                                        47.5004
        35.5004
   2277739.18847   1783552.33644
                  23995559.1334                                   23995553.0984
                                                                        42.7504
        24.0004
 -16625809.09048 -12916463.99246
                  22227868.7584                                   22227866.3634
                                                                        50.0004
        37.5004
   -711255.69946   -521199.64143
                  24078830.6094                                   24078827.4344
                                                                        41.5004
        22.5004
    -42562.63346    -18730.45744
                  24110848.9384                                   24110845.1764
                                                                        41.0004
        25.7504
 09 10 20  0 21  0.0000000  0 10G02G04G05G10G25G13G23G29G16G07
  -6268566.37548  -4865422.94146
                  21005156.5784                                   21005151.2664
                                                                        52.5004
        41.2504
   4296589.78947   3353602.28544
                  23466244.0864                                   23466241.1884
                                                                        44.2504
        28.5004
 -21024979.73848 -16342186.46146
                  21853025.5234                                   21853021.8834
                                                                        49.5004
        40.0004
 -20879038.30948 -16236173.73446
                  21162593.5004                                   21162590.2194
                                                                        51.5004
        40.2504
 -11824971.50447  -9176180.30545
                  22934924.4774                                   22934920.5984
                                                                        45.2504
        30.5004
  -8265535.66048  -6422916.91445
                  21611380.1724                                   21611376.1254
                                                                        48.0004
        35.2504
   2292418.10547   1794990.45744
                  23998352.2734                                   23998346.4844
                                                                        43.5004
        24.0004
 -16737117.39548 -13003197.65646
                  22206687.8284                                   22206684.7344
                                                                        50.2504
        37.2504
   -847244.19146   -627164.70743
                  24052953.3594                                   24052949.5084
                                                                        40.2504
        22.7504
   -219940.11346   -156946.57844
                  24077094.7424                                   24077091.4064
                                                                        40.2504
        25.7504
 09 10 20  0 21 30.0000000  0 10G02G04G05G10G25G13G23G29G16G07
  -6302189.48848  -4891622.73446
                  20998758.3284                                   20998752.9844
                                                                        52.7504
        41.2504
   4318683.85547   3370818.45345
                  23470449.1024                                   23470445.8164
                                                                        45.2504
        30.0004
 -21189153.20348 -16470113.80946
                  21821784.4614                                   21821780.6524
                                                                        49.2504
        40.2504
 -21027304.50848 -16351705.71546
                  21134379.3054                                   21134375.9734
                                                                        52.2504
        39.7504
 -11955097.60547  -9277577.25044
                  22910162.0944                                   22910158.5664
                                                                        45.0004
        29.2504
  -8307447.69147  -6455575.63745
                  21603404.4844                                   21603400.4924
                                                                        47.7504
        34.7504
   2307379.43047   1806648.68843
                  24001199.3754                                   24001193.6564
                                                                        43.0004
        22.5004
 -16847834.69548 -13089470.87946
                  22185618.8524                                   22185615.5594
                                                                        49.5004
        37.5004
   -982699.36746   -732714.17643
                  24027176.8834                                   24027173.8284
                                                                        40.7504
        22.5004
   -396996.81647   -294912.76244
                  24043402.3594                                   24043398.9614
                                                                        42.7504
        26.2504
 09 10 20  0 22  0.0000000  0 10G02G04G05G10G25G13G23G29G16G07
  -6335285.69148  -4917412.02046
                  20992460.5164                                   20992454.9614
                                                                        52.5004
        41.2504
   4340979.93847   3388192.00045
                  23474692.1174                                   23474688.7344
                                                                        45.5004
        30.0004
 -21352944.84448 -16597743.64846
                  21790616.2814                                   21790612.1604
                                                                        50.2504
        41.0004
 -21175087.56648 -16466861.28946
                  21106257.2424                                   21106253.9774
                                                                        52.5004
        40.2504
 -12084699.42647  -9378565.65244
                  22885499.5704                                   22885496.1374
                                                                        44.7504
        29.7504
  -8348762.25847  -6487768.82045
                  21595542.8914                                   21595538.6994
                                                                        47.2504
        35.0004
   2322617.95347   1818522.88343
                  24004099.3984                                   24004092.9574
                                                                        42.5004
        23.5004
 -16957962.41448 -13175284.68046
                  22164662.3134                                   22164659.3954
                                                                        51.0004
        37.2504
  -1117622.30946   -837848.92643
                  24001501.9224                                   24001498.3754
                                                                        41.7504
        23.0004
   -573732.72347   -432629.00044
                  24009770.1954                                   24009766.9734
                                                                        43.0004
        27.0004
 09 10 20  0 22 30.0000000  0 10G02G04G05G10G25G13G23G29G16G07
  -6367855.39148  -4942791.01246
                  20986262.6414                                   20986257.0234
                                                                        52.5004
        41.2504
   4363476.89547   3405722.09445
                  23478972.9924                                   23478969.7934
                                                                        46.2504
        30.7504
 -21516352.00048 -16725073.90646
                  21759520.5084                                   21759516.9494
                                                                        50.7504
        41.0004
 -21322384.64548 -16581638.21546
                  21078227.4064                                   21078224.1414
                                                                        52.0004
        40.5004
 -12213774.57847  -9479143.62545
                  22860937.1564                                   22860933.9344
                                                                        44.5004
        30.0004
  -8389480.34847  -6519497.21145
                  21587794.5314                                   21587790.2814
                                                                        47.5004
        35.5004
   2338131.87547   1830611.70343
                  24007051.4384                                   24007045.3594
                                                                        42.0004
        21.0004
 -17067498.74248 -13260637.65246
                  22143818.0394                                   22143815.0314
                                                                        50.5004
        37.7504
  -1252010.10546   -942566.66844
                  23975928.7274                                   23975925.1564
                                                                        41.5004
        24.0004
   -750144.00847   -570092.30144
                  23976200.8134                                   23976196.6724
                                                                        44.0004
        27.7504
 09 10 20  0 23  0.0000000  0 10G02G04G05G10G25G13G23G29G16G07
  -6399900.64548  -4967761.32446
                  20980164.7274                                   20980159.1524
                                                                        53.2504
        41.5004
   4386172.05147   3423406.63344
                  23483291.0704                                   23483288.8634
                                                                        45.5004
        29.7504
 -21679373.47748 -16852103.59846
                  21728498.4534                                   21728494.7304
                                                                        50.7504
        40.5004
 -21469195.07448 -16696035.97346
                  21050290.2504                                   21050287.2194
                                                                        52.5004
        40.0004
 -12342322.10947  -9579310.52744
                  22836475.1254                                   22836471.9694
                                                                        44.2504
        29.0004
  -8429604.32448  -6550762.64845
                  21580158.8984                                   21580154.9024
                                                                        48.0004
        34.7504
   2353917.82046   1842912.46143
                  24010054.8754                                   24010049.0904
                                                                        40.7504
        20.5004
 -17176443.38748 -13345529.61346
                  22123087.0004                                   22123083.8244
                                                                        50.0004
        37.5004
  -1385861.56647  -1046866.50044
                  23950457.8204                                   23950453.9264
                                                                        42.2504
        24.5004
   -926228.43447   -707300.91844
                  23942693.1644                                   23942689.1604
                                                                        45.0004
        28.5004
 09 10 20  0 23 30.0000000  0 10G02G04G05G10G25G13G23G29G16G07
  -6431426.25448  -4992326.71546
                  20974165.3674                                   20974159.7234
                                                                        53.0004
        41.2504
   4409059.65647   3441241.11744
                  23487646.7034                                   23487643.8164
                                                                        45.5004
        29.7504
 -21842010.87148 -16978833.94146
                  21697549.6174                                   21697546.0704
                                                                        50.7504
        40.5004
 -21615520.86348 -16810055.99246
                  21022445.4924                                   21022441.5944
                                                                        51.7504
        40.0004
 -12470343.93447  -9679067.80945
                  22812114.0394                                   22812110.0744
                                                                        45.0004
        30.0004
  -8469139.57448  -6581569.32445
                  21572635.6724                                   21572631.5004
                                                                        48.2504
        35.0004
   2369969.34046   1855420.12543
                  24013109.9844                                   24013104.2544
                                                                        40.7504
        22.7504
 -17284798.65648 -13429962.27346
                  22102467.3754                                   22102464.8524
                                                                        49.7504
        38.0004
  -1519178.23047  -1150749.58243
                  23925088.9534                                   23925084.3984
                                                                        42.2504
        22.7504
  -1101986.71147   -844255.39844
                  23909247.0704                                   23909243.5314
                                                                        45.0004
        27.5004
 09 10 20  0 24  0.0000000  0 10G02G04G05G10G25G13G23G29G16G07
  -6462433.86748  -5016488.49246
                  20968264.9924                                   20968259.4804
                                                                        53.0004
        40.7504
   4432137.34847   3459223.70745
                  23492038.7504                                   23492035.1804
                                                                        45.5004
        30.0004
 -22004262.94548 -17105264.04746
                  21666673.9384                                   21666670.3834
                                                                        50.5004
        40.5004
 -21761360.88348 -16923697.57846
                  20994692.8204                                   20994689.8244
                                                                        52.5004
        40.2504
 -12597838.75047  -9778414.39845
                  22787852.6804                                   22787849.0904
                                                                        46.0004
        30.5004
  -8508088.27748  -6611918.96545
                  21565223.8754                                   21565219.7304
                                                                        48.7504
        34.7504
   2386283.66047   1868132.56644
                  24016214.3834                                   24016208.7154
                                                                        42.7504
        25.2504
 -17392564.50048 -13513935.63346
                  22081960.1564                                   22081957.2814
                                                                        50.0004
        37.5004
  -1651958.82047  -1254214.93743
                  23899821.5474                                   23899816.8554
                                                                        43.0004
        22.5004
  -1277415.66847   -980953.28944
                  23875864.4694                                   23875860.4534
                                                                        45.0004
        27.0004
 09 10 20  0 24 30.0000000  0 10G02G04G05G10G25G13G23G29G16G07
  -6492923.90248  -5040246.96146
                  20962462.8364                                   20962457.1174
                                                                        53.5004
        41.7504
   4455403.96547   3477353.47344
                  23496466.4844                                   23496463.2934
                                                                        46.0004
        29.5004
 -22166127.09048 -17231391.87146
                  21635872.2894                                   21635868.3014
                                                                        50.7504
        40.0004
 -21906712.53548 -17036958.62946
                  20967033.4614                                   20967029.9774
                                                                        52.0004
        40.2504
 -12724804.15647  -9877348.46545
                  22763691.5474                                   22763688.1684
                                                                        45.2504
        30.0004
  -8546450.93048  -6641811.96945
                  21557923.6724                                   21557920.0864
                                                                        48.2504
        34.7504
   2402859.26247   1881048.60244
                  24019368.5944                                   24019363.3984
                                                                        43.0004
        26.2504
 -17499738.78948 -13597448.03546
                  22061565.7504                                   22061562.5784
                                                                        49.2504
        37.2504
  -1784200.56647  -1357260.42243
                  23874656.6094                                   23874651.5944
                                                                        42.5004
        21.5004
  -1452511.75847  -1117391.76644
                  23842544.2894                                   23842540.4264
                                                                        45.0004
        26.0004
 09 10 20  0 25  0.0000000  0 10G02G04G05G10G25G13G23G29G16G07
  -6522899.28948  -5063604.40246
                  20956758.9304                                   20956753.4264
                                                                        52.0004
        41.0004
   4478856.28147   3495628.00444
                  23500928.4774                                   23500925.7814
                                                                        45.7504
        29.7504
 -22327602.91848 -17357217.22746
                  21605144.1954                                   21605140.0864
                                                                        51.0004
        40.0004
 -22051575.56648 -17149838.93746
                  20939467.1954                                   20939463.5474
                                                                        52.2504
        40.7504
 -12851240.01247  -9975869.91845
                  22739631.4614                                   22739628.4224
                                                                        46.0004
        30.2504
  -8584230.65248  -6671250.71145
                  21550734.4924                                   21550730.8054
                                                                        48.2504
        34.0004
   2419691.85247   1894164.88343
                  24022571.9844                                   24022566.3134
                                                                        42.7504
        23.5004
 -17606322.07848 -13680499.94946
                  22041283.5864                                   22041280.5354
                                                                        49.7504
        37.5004
  -1915903.09047  -1459885.75043
                  23849594.0554                                   23849589.3364
                                                                        42.5004
        21.5004
  -1627273.75447  -1253569.92244
                  23809288.1024                                   23809284.6724
                                                                        42.7504
        25.2504
 09 10 20  0 25 30.0000000  0 10G02G04G05G10G25G13G23G29G16G07
  -6552358.42648  -5086559.57846
                  20951153.0474                                   20951147.4964
                                                                        52.7504
        41.0004
   4502495.03947   3514047.81644
                  23505427.1884                                   23505424.3754
                                                                        45.7504
        29.5004
 -22488685.32848 -17482735.91046
                  21574491.5084                                   21574487.5704
                                                                        51.5004
        40.7504
 -22195945.16848 -17262334.78546
                  20911994.2504                                   20911990.9924
                                                                        52.5004
        40.5004
 -12977141.75847 -10073975.18045
                  22715673.2194                                   22715669.6804
                                                                        45.7504
        30.0004
  -8621426.44548  -6700234.39145
                  21543656.3594                                   21543652.6954
                                                                        49.5004
        34.7504
   2436782.17646   1907482.00043
                  24025823.7894                                   24025818.0864
                                                                        41.5004
        22.5004
 -17712310.37948 -13763088.24246
                  22021114.4614                                   22021111.4264
                                                                        49.7504
        37.0004
  -2047061.72746  -1562087.18043
                  23824634.7974                                   23824630.3134
                                                                        41.5004
        21.0004
  -1801695.64847  -1389483.01244
                  23776096.3754                                   23776092.7774
                                                                        42.5004
        26.5004
 09 10 20  0 26  0.0000000  0 10G02G04G05G10G25G13G23G29G16G07
  -6581308.36748  -5109117.95746
                  20945643.8364                                   20945638.1994
                                                                        52.7504
        41.5004
   4526312.46547   3532606.80944
                  23509959.1644                                   23509956.5164
                                                                        46.0004
        28.7504
 -22649378.91848 -17607951.72346
                  21543912.4454                                   21543908.3014
                                                                        51.0004
        40.5004
 -22339826.05148 -17374449.82846
                  20884614.7974                                   20884611.4614
                                                                        51.7504
        40.7504
 -13102513.78547 -10171667.66844
                  22691815.8444                                   22691812.2424
                                                                        46.0004
        29.7504
  -8658046.10548  -6728769.20745
                  21536688.0234                                   21536683.7114
                                                                        49.0004
        35.2504
   2454121.61746   1920993.25043
                  24029123.5314                                   24029117.5594
                                                                        39.7504
        20.7504
 -17817708.76248 -13845216.84846
                  22001057.7974                                   22001055.1564
                                                                        49.0004
        37.5004
  -2177680.50847  -1663868.02343
                  23799779.5004                                   23799774.6454
                                                                        42.5004
        21.5004
  -1975780.07447  -1525133.15244
                  23742969.3054                                   23742965.8054
                                                                        43.0004
        26.0004
 09 10 20  0 26 30.0000000  0 10G02G04G05G10G25G13G23G29G16G07
  -6609746.30148  -5131277.37946
                  20940232.2814                                   20940226.2934
                                                                        52.5004
        41.0004
   4550310.31647   3551306.39144
                  23514526.4534                                   23514523.3054
                                                                        45.5004
        28.5004
 -22809677.66048 -17732859.88346
                  21513408.6254                                   21513404.8634
                                                                        51.5004
        40.2504
 -22483212.67248 -17486179.66046
                  20857329.8134                                   20857325.7974
                                                                        51.7504
        40.5004
 -13227350.51247 -10268943.03945
                  22668060.0394                                   22668056.5984
                                                                        46.2504
        30.0004
  -8694087.42248  -6756853.34445
                  21529829.4694                                   21529825.1844
                                                                        49.7504
        34.5004
   2471711.46946   1934699.55943
                  24032470.5784                                   24032464.5904
                                                                        39.7504
        20.2504
 -17922512.53948 -13926882.13746
                  21981114.6174                                   21981111.3284
                                                                        49.0004
        37.5004
  -2307753.84046  -1765223.87543
                  23775027.5314                                   23775023.0004
                                                                        40.7504
        21.5004
  -2149520.08647  -1660514.95344
                  23709908.3834                                   23709904.0944
                                                                        44.5004
        27.0004
 09 10 20  0 27  0.0000000  0 10G02G04G05G10G25G13G23G29G16G07
  -6637674.69948  -5153039.75046
                  20934917.7114                                   20934912.2384
                                                                        52.5004
        41.0004
   4574485.70347   3570144.33644
                  23519126.4224                                   23519123.9264
                                                                        45.0004
        29.0004
 -22969580.65648 -17857459.67646
                  21482979.9224                                   21482976.4734
                                                                        51.0004
        40.7504
 -22626104.23848 -17597523.69146
                  20830137.8984                                   20830134.7664
                                                                        52.0004
        40.7504
 -13351651.27747 -10365800.77044
                  22644406.7584                                   22644403.2384
                                                                        46.0004
        29.7504
  -8729552.93448  -6784488.79745
                  21523080.6804                                   21523076.4224
                                                                        49.5004
        34.0004
   2489548.58646   1948598.61343
                  24035865.4224                                   24035859.4384
                                                                        39.2504
        19.7504
 -18026721.58248 -14008083.97346
                  21961284.2424                                   21961281.2424
                                                                        49.2504
        37.5004
  -2437280.52046  -1866153.76243
                  23750379.0084                                   23750374.8754
                                                                        41.2504
        22.5004
  -2322913.92247  -1795626.99644
                  23676912.7894                                   23676908.4344
                                                                        45.0004
        28.7504
 09 10 20  0 27 30.0000000  0 10G02G04G05G10G25G13G23G29G16G07
  -6665093.60548  -5174405.12546
                  20929700.0004                                   20929694.5434
                                                                        52.2504
        41.0004
   4598838.16047   3589120.23444
                  23523760.8134                                   23523757.9384
                                                                        44.5004
        29.5004
 -23129084.30548 -17981748.26246
                  21452627.8984                                   21452624.0784
                                                                        51.0004
        40.5004
 -22768497.76648 -17708479.62146
                  20803041.2424                                   20803038.3014
                                                                        51.7504
        41.0004
 -13475413.10247 -10462238.50044
                  22620855.0784                                   22620852.0274
                                                                        46.0004
        29.5004
  -8764443.17248  -6811676.03945
                  21516441.0394                                   21516437.1454
                                                                        48.7504
        34.0004
   2507631.91446   1962689.52343
                  24039306.4924                                   24039300.1914
                                                                        40.5004
        21.2504
 -18130333.64548 -14088820.64546
                  21941567.2194                                   21941564.0234
                                                                        48.7504
        37.2504
  -2566257.37946  -1966655.09843
                  23725835.8444                                   23725831.2704
                                                                        41.0004
        22.0004
  -2495956.60947  -1930465.35544
                  23643983.4304                                   23643979.6134
                                                                        45.0004
        29.7504
 09 10 20  0 28  0.0000000  0 10G02G04G05G10G25G13G23G29G16G07
  -6692006.37548  -5195376.13746
                  20924578.7664                                   20924573.4264
                                                                        52.2504
        41.5004
   4623363.86747   3608231.20344
                  23528427.7664                                   23528424.9734
                                                                        43.7504
        29.2504
 -23288189.21548 -18105726.10546
                  21422350.8754                                   21422347.0784
                                                                        50.7504
        40.2504
 -22910393.96948 -17819048.08246
                  20776039.2504                                   20776035.6294
                                                                        51.5004
        40.7504
 -13598636.71147 -10558256.85544
                  22597406.9774                                   22597403.2814
                                                                        45.7504
        29.5004
  -8798762.04348  -6838418.01645
                  21509910.7664                                   21509906.5594
                                                                        49.2504
        34.7504
   2525956.28546   1976968.22343
                  24042793.7504                                   24042787.4774
                                                                        41.5004
        22.2504
 -18233350.16448 -14169093.27746
                  21921964.2734                                   21921960.9384
                                                                        49.2504
        38.0004
  -2694684.95747  -2066728.37543
                  23701396.5394                                   23701392.0744
                                                                        42.0004
        22.5004
  -2668647.78547  -2065029.82045
                  23611121.0314                                   23611116.9414
                                                                        44.0004
        30.0004
 09 10 20  0 28 30.0000000  0 10G02G04G05G10G25G13G23G29G16G07
  -6718414.84848  -5215954.18746
                  20919553.4614                                   20919547.9024
                                                                        51.5004
        41.5004
   4648059.96147   3627474.82444
                  23533127.6724                                   23533124.8444
                                                                        44.2504
        28.5004
 -23446894.21548 -18229392.39546
                  21392150.4534                                   21392146.9024
                                                                        51.0004
        41.0004
 -23051791.96148 -17929228.30146
                  20749132.0634                                   20749128.5904
                                                                        52.0004
        40.5004
 -13721321.18047 -10653855.13344
                  22574060.5164                                   22574056.9104
                                                                        45.7504
        29.5004
  -8832511.57448  -6864716.37945
                  21503488.3444                                   21503484.0044
                                                                        49.5004
        34.7504
   2544519.30146   1991432.93443
                  24046325.7194                                   24046319.8094
                                                                        41.0004
        22.7504
 -18335770.82448 -14248901.57846
                  21902474.1484                                   21902470.7934
                                                                        49.0004
        37.7504
  -2822562.16446  -2166372.92643
                  23677062.1024                                   23677057.4344
                                                                        41.2504
        22.7504
  -2840985.07447  -2199318.55544
                  23578326.6564                                   23578323.2894
                                                                        43.7504
        28.5004
 09 10 20  0 29  0.0000000  0  9G02G04G05G10G25G13G29G16G07
  -6744319.69548  -5236139.78946
                  20914623.8444                                   20914618.3874
                                                                        51.5004
        40.5004
   4672925.19147   3646850.32044
                  23537859.2034                                   23537855.8714
                                                                        44.0004
        29.0004
 -23605196.20348 -18352744.62546
                  21362026.6254                                   21362022.8834
                                                                        51.0004
        40.7504
 -23192689.60948 -18039018.67246
                  20722320.2584                                   20722316.7504
                                                                        51.5004
        40.0004
 -13843464.36347 -10749031.62145
                  22550817.7344                                   22550814.0984
                                                                        46.0004
        30.5004
  -8865693.28548  -6890572.25045
                  21497174.1804                                   21497169.8594
                                                                        49.0004
        33.7504
 -18437593.97348 -14328244.26646
                  21883097.7114                                   21883094.4304
                                                                        48.7504
        37.0004
  -2949887.24646  -2265587.45743
                  23652832.9224                                   23652829.3094
                                                                        41.0004
        22.7504
  -3012964.65247  -2333328.55144
                  23545599.6414                                   23545596.0594
                                                                        42.5004
        27.2504
 09 10 20  0 29 30.0000000  0  9G02G04G05G10G25G13G29G16G07
  -5194300.59848  -4028332.69946
                  21209582.7344                                   21209577.3444
                                                                        51.7504
        41.2504
   6273377.69147   4893956.14144
                  23842414.8524                                   23842412.1374
                                                                        43.2504
        27.5004
 -22187667.69948 -17248176.93746
                  21631773.2814                                   21631769.6414
                                                                        50.7504
        41.0004
 -21757659.82848 -16920813.62146
                  20995397.3834                                   20995393.6414
                                                                        51.5004
        40.7504
 -12389639.83247  -9616181.32045
                  22827471.1094                                   22827467.3954
                                                                        46.0004
        31.0004
  -7322887.02048  -5688385.53545
                  21790760.4844                                   21790755.9184
                                                                        48.2504
        34.2504
 -16963394.78548 -13179517.62146
                  22163628.0634                                   22163625.2304
                                                                        48.7504
        37.2504
  -1501232.46546  -1136765.62943
                  23928503.1414                                   23928498.8674
                                                                        41.5004
        22.7504
  -1609157.05546  -1239452.41844
                  23812735.3834                                   23812731.4184
                                                                        41.0004
        27.2504
 09 10 20  0 30  0.0000000  0  9G02G04G05G10G25G13G29G16G07
  -5219197.01248  -4047732.49246
                  21204844.8594                                   21204839.2894
                                                                        52.0004
        40.7504
   6298581.26647   4913595.25444
                  23847210.8134                                   23847208.0234
                                                                        43.0004
        28.0004
 -22345153.66848 -17370893.25846
                  21601804.6334                                   21601800.7544
                                                                        50.2504
        41.0004
 -21897546.25048 -17029816.03946
                  20968777.7114                                   20968774.2624
                                                                        51.7504
        41.2504
 -12510690.30947  -9710506.30944
                  22804435.6094                                   22804432.0904
                                                                        45.5004
        29.5004
  -7354932.73848  -5713356.21145
                  21784662.0004                                   21784657.7194
                                                                        48.5004
        34.0004
 -17064015.13348 -13257923.05546
                  22144481.0474                                   22144477.6334
                                                                        48.0004
        37.7504
  -1627440.45347  -1235109.50843
                  23904486.7274                                   23904482.6764
                                                                        42.2504
        23.7504
  -1780406.63746  -1372893.60944
                  23780147.7034                                   23780143.4064
                                                                        41.5004
        27.0004
 09 10 20  0 30 30.0000000  0  9G02G04G05G10G25G13G29G16G07
  -5243587.75448  -4066738.23846
                  21200203.4304                                   21200197.6524
                                                                        51.0004
        40.7504
   6323954.47347   4933366.53544
                  23852039.5234                                   23852036.7734
                                                                        43.0004
        27.5004
 -22502225.22748 -17493286.62946
                  21571915.0314                                   21571911.0784
                                                                        50.5004
        41.0004
 -22036921.37148 -17138420.12546
                  20942255.4384                                   20942252.0664
                                                                        51.7504
        41.0004
 -12631188.62947  -9804401.08644
                  22781505.8134                                   22781502.1094
                                                                        46.0004
        29.7504
  -7386409.78948  -5737883.74245
                  21778672.4844                                   21778668.2384
                                                                        48.7504
        34.2504
 -17164029.47748 -13335856.24646
                  22125448.7274                                   22125445.8324
                                                                        48.0004
        38.0004
  -1753084.05947  -1333013.64144
                  23880577.5004                                   23880573.7344
                                                                        42.5004
        25.0004
  -1951283.10547  -1506044.09844
                  23747630.6644                                   23747626.3524
                                                                        42.5004
        26.5004
 09 10 20  0 31  0.0000000  0  9G02G04G05G10G25G13G29G16G07
  -5267477.32848  -4085353.46946
                  21195657.5634                                   21195652.2624
                                                                        51.2504
        40.5004
   6349492.48047   4953266.25444
                  23856899.5234                                   23856896.5394
                                                                        44.2504
        27.0004
 -22658883.56648 -17615358.03946
                  21542103.5944                                   21542099.9494
                                                                        50.5004
        40.7504
 -22175786.07448 -17246626.45746
                  20915830.8364                                   20915827.1564
                                                                        50.5004
        40.7504
 -12751136.50847  -9897866.93745
                  22758680.1564                                   22758676.6414
                                                                        46.0004
        30.5004
  -7417323.08648  -5761972.00845
                  21772789.5554                                   21772785.3714
                                                                        49.5004
        34.2504
 -17263439.93448 -13413318.91446
                  22106531.7034                                   22106528.6214
                                                                        48.7504
        37.7504
  -1878164.75847  -1430479.13344
                  23856775.4774                                   23856771.9184
                                                                        43.0004
        26.5004
  -2121786.68447  -1638904.02044
                  23715185.4534                                   23715180.9774
                                                                        42.7504
        27.7504
 09 10 20  0 31 30.0000000  0  9G02G04G05G10G25G13G29G16G07
  -5290869.19948  -4103580.87546
                  21191206.1564                                   21191200.8914
                                                                        51.7504
        40.5004
   6375190.97347   4973291.03144
                  23861789.8284                                   23861786.6764
                                                                        44.5004
        27.7504
 -22815129.29348 -17737107.87946
                  21512371.3914                                   21512367.2704
                                                                        50.0004
        41.2504
 -22314141.43448 -17354435.84046
                  20889502.3204                                   20889499.0314
                                                                        51.2504
        41.0004
 -12870534.71147  -9990904.46545
                  22735959.7894                                   22735956.1334
                                                                        46.2504
        30.7504
  -7447676.79348  -5785624.26245
                  21767013.8524                                   21767009.4144
                                                                        49.5004
        34.2504
 -17362248.19948 -13490312.31246
                  22087728.9224                                   22087725.8364
                                                                        48.0004
        38.0004
  -2002683.37946  -1527506.66844
                  23833080.7664                                   23833076.9184
                                                                        41.2504
        26.5004
  -2291916.54747  -1771472.71944
                  23682810.6724                                   23682806.4804
                                                                        42.0004
        29.0004
 09 10 20  0 32  0.0000000  0  9G02G04G05G10G25G13G29G16G07
  -5313771.67248  -4121426.96546
                  21186847.7894                                   21186842.2774
                                                                        50.7504
        40.5004
   6401041.73447   4993434.44544
                  23866708.7664                                   23866706.1174
                                                                        43.5004
        26.5004
 -22970967.21948 -17858540.11346
                  21482716.6254                                   21482712.6524
                                                                        50.5004
        40.5004
 -22451992.61748 -17461852.31246
                  20863270.0944                                   20863266.6414
                                                                        51.0004
        40.7504
 -12989388.70747 -10083517.97345
                  22713342.5704                                   22713338.9884
                                                                        46.0004
        30.5004
  -7477479.46548  -5808847.13345
                  21761342.3984                                   21761338.1724
                                                                        49.0004
        33.5004
 -17460460.06248 -13566841.00846
                  22069039.9064                                   22069036.9224
                                                                        48.0004
        37.5004
  -2126644.75047  -1624100.01244
                  23809492.1564                                   23809488.0354
                                                                        43.2504
        26.0004
  -2461676.57846  -1903753.25844
                  23650506.1954                                   23650502.6804
                                                                        41.2504
        29.5004
 09 10 20  0 32 30.0000000  0  9G02G04G05G10G25G13G29G16G07
  -5336188.40248  -4138894.53146
                  21182582.3834                                   21182576.8714
                                                                        51.7504
        41.0004
   6427040.26647   5013693.00444
                  23871656.6644                                   23871653.2814
                                                                        43.5004
        26.0004
 -23126397.65248 -17979654.78946
                  21453138.7814                                   21453135.5004
                                                                        50.2504
        41.0004
 -22589340.84848 -17568876.96146
                  20837133.8984                                   20837130.2974
                                                                        50.5004
        41.0004
 -13107699.20747 -10175707.96945
                  22690828.8754                                   22690825.5744
                                                                        46.0004
        30.7504
  -7506734.89848  -5831643.57445
                  21755775.2034                                   21755771.5234
                                                                        49.5004
        33.0004
 -17558077.61747 -13642906.63346
                  22050463.9924                                   22050460.6914
                                                                        46.7504
        38.2504
  -2250049.25446  -1720259.39543
                  23786008.4534                                   23786004.5784
                                                                        41.2504
        23.2504
  -2631065.62947  -2035744.70745
                  23618272.6254                                   23618269.0944
                                                                        42.0004
        30.2504
 09 10 20  0 33  0.0000000  0  9G02G04G05G10G25G13G29G16G07
  -5358119.62548  -4155983.81246
                  21178408.8984                                   21178403.6214
                                                                        51.0004
        41.0004
   6453185.82047   5034066.11744
                  23876631.7034                                   23876628.9694
                                                                        43.5004
        27.7504
 -23281417.46548 -18100449.48046
                  21423639.7894                                   21423635.5044
                                                                        51.2504
        40.5004
 -22726182.93748 -17675507.17246
                  20811093.5234                                   20811090.1334
                                                                        51.7504
        40.7504
 -13225463.64147 -10267472.42645
                  22668418.7814                                   22668415.4534
                                                                        46.0004
        30.5004
  -7535444.07848  -5854014.35945
                  21750312.1024                                   21750307.8634
                                                                        49.0004
        33.2504
 -17655098.62548 -13718507.45746
                  22032001.5784                                   22031998.5514
                                                                        48.0004
        37.5004
  -2372894.28547  -1815982.80944
                  23762631.6884                                   23762627.7344
                                                                        42.0004
        26.0004
  -2800080.07847  -2167444.31644
                  23586110.0164                                   23586106.6094
                                                                        42.7504
        29.2504
 09 10 20  0 33 30.0000000  0  9G02G04G05G10G25G13G29G16G07
  -5379567.76648  -4172696.66446
                  21174327.6724                                   21174321.9964
                                                                        51.2504
        40.7504
   6479475.68847   5054551.69944
                  23881633.8754                                   23881631.8984
                                                                        42.7504
        27.0004
 -23436026.04748 -18220923.71946
                  21394218.5084                                   21394214.9184
                                                                        51.0004
        41.0004
 -22862518.55148 -17781742.71146
                  20785149.7584                                   20785146.9024
                                                                        52.2504
        41.0004
 -13342681.69147 -10358811.14545
                  22646113.3444                                   22646109.4844
                                                                        46.5004
        31.7504
  -7563609.92648  -5875961.77745
                  21744951.8444                                   21744948.5394
                                                                        48.5004
        33.2504
 -17751523.30948 -13793643.63346
                  22013652.5004                                   22013649.3984
                                                                        48.0004
        38.0004
  -2495179.37146  -1911269.89143
                  23739361.6334                                   23739357.1844
                                                                        40.5004
        22.7504
  -2968717.69146  -2298850.26644
                  23554019.6174                                   23554015.6954
                                                                        41.7504
        28.7504
 09 10 20  0 34  0.0000000  0  9G02G04G05G10G25G13G29G16G07
  -5400535.73048  -4189035.35246
                  21170337.5554                                   21170331.8484
                                                                        51.5004
        40.7504
   6505906.58647   5075147.15244
                  23886664.1564                                   23886661.2814
                                                                        44.0004
        26.7504
 -23590222.77048 -18341076.99646
                  21364875.9304                                   21364872.1094
                                                                        50.5004
        41.7504
 -22998347.76648 -17887583.66046
                  20759302.2664                                   20759299.0744
                                                                        52.0004
        40.7504
 -13459353.37547 -10449724.12545
                  22623911.8444                                   22623907.9384
                                                                        46.7504
        31.5004
  -7591235.76648  -5897488.39545
                  21739694.9844                                   21739691.4024
                                                                        48.2504
        33.5004
 -17847352.64847 -13868315.87146
                  21995416.7734                                   21995414.0704
                                                                        47.5004
        38.5004
  -2616904.20346  -2006120.36743
                  23716197.7424                                   23716193.4774
                                                                        40.7504
        22.5004
  -3136976.79746  -2429961.26244
                  23522000.5704                                   23521996.6564
                                                                        41.2504
        28.5004
 09 10 20  0 34 30.0000000  0  9G02G04G05G10G25G13G29G16G07
  -5421025.07048  -4205001.05946
                  21166438.4534                                   21166432.7664
                                                                        51.0004
        40.2504
   6532476.32447   5095850.82844
                  23891720.1024                                   23891716.9344
                                                                        45.0004
        26.5004
 -23744005.83248 -18460907.94146
                  21335612.0864                                   21335608.2384
                                                                        51.7504
        41.0004
 -23133669.32048 -17993028.98046
                  20733551.4924                                   20733547.7774
                                                                        51.2504
        41.5004
 -13575477.75047 -10540210.64545
                  22601813.8364                                   22601810.0314
                                                                        47.0004
        30.7504
  -7618324.00848  -5918596.10945
                  21734540.2424                                   21734536.3874
                                                                        48.5004
        33.5004
 -17942585.99248 -13942523.76646
                  21977294.7424                                   21977291.8134
                                                                        48.7504
        38.0004
  -2738067.68446  -2100533.44143
                  23693141.1804                                   23693136.9534
                                                                        41.0004
        21.5004
  -3304854.92646  -2560775.35244
                  23490054.7194                                   23490050.6414
                                                                        41.2504
        26.7504
 09 10 20  0 35  0.0000000  0  9G02G04G05G10G25G13G29G16G07
  -5441037.10248  -4220594.85246
                  21162630.3134                                   21162625.0394
                                                                        51.5004
        40.7504
   6559183.10947   5116661.32444
                  23896802.7584                                   23896799.6764
                                                                        45.7504
        28.5004
 -23897374.09048 -18580415.72346
                  21306427.1334                                   21306423.5434
                                                                        51.5004
        41.2504
 -23268481.62548 -18098077.51246
                  20707897.6564                                   20707894.3404
                                                                        53.0004
        40.7504
 -13691053.31247 -10630269.54745
                  22579820.3444                                   22579816.6524
                                                                        46.2504
        31.2504
  -7644876.28948  -5939286.18045
                  21729487.5554                                   21729483.7274
                                                                        49.0004
        32.5004
 -18037222.63748 -14016266.50046
                  21959285.7894                                   21959282.5944
                                                                        49.2504
        38.5004
  -2858667.76246  -2194507.47343
                  23670191.4454                                   23670187.0474
                                                                        41.2504
        21.7504
  -3472348.96947  -2691290.16044
                  23458181.0704                                   23458177.4774
                                                                        43.0004
        27.0004
 09 10 20  0 35 30.0000000  0  9G02G04G05G10G25G13G29G16G07
  -5460573.98448  -4235818.41046
                  21158912.6484                                   21158907.1054
                                                                        51.5004
        41.0004
   6586024.80147   5137576.94944
                  23901910.5864                                   23901907.0744
                                                                        44.0004
        26.7504
 -24050325.92648 -18699599.05546
                  21277321.4694                                   21277317.6454
                                                                        51.0004
        41.0004
 -23402783.17248 -18202728.05546
                  20682340.5784                                   20682337.3284
                                                                        52.5004
        41.0004
 -13806079.11347 -10719900.04345
                  22557931.6564                                   22557928.0984
                                                                        46.7504
        30.5004
  -7670894.80148  -5959560.35545
                  21724536.5234                                   21724532.8014
                                                                        49.0004
        33.2504
 -18131262.77348 -14089544.53546
                  21941390.7664                                   21941387.6254
                                                                        48.7504
        38.5004
  -2978703.41046  -2288041.64543
                  23647349.6094                                   23647344.8284
                                                                        40.0004
        21.5004
  -3639455.92247  -2821503.35544
                  23426381.8674                                   23426378.0514
                                                                        42.2504
        28.7504
 09 10 20  0 36  0.0000000  0  9G02G04G05G10G25G13G29G16G07
  -5479637.02748  -4250672.73846
                  21155284.6884                                   21155279.1684
                                                                        51.7504
        40.5004
   6612999.62147   5158596.26243
                  23907042.2344                                   23907040.1174
                                                                        42.5004
        22.7504
 -24202859.15648 -18818456.10546
                  21248294.9924                                   21248291.7704
                                                                        51.5004
        41.7504
 -23536572.61348 -18306979.57846
                  20656881.4454                                   20656877.9734
                                                                        52.0004
        41.5004
 -13920553.77747 -10809101.07445
                  22536147.7504                                   22536144.2384
                                                                        46.5004
        31.2504
  -7696381.51248  -5979420.09845
                  21719686.6884                                   21719682.5784
                                                                        49.0004
        33.0004
 -18224705.37148 -14162356.94946
                  21923609.2734                                   21923606.0944
                                                                        49.2504
        38.0004
  -3098172.91046  -2381134.60243
                  23624615.3984                                   23624610.6054
                                                                        40.5004
        21.5004
  -3806173.08647  -2951412.80144
                  23394656.8524                                   23394653.0274
                                                                        42.0004
        29.2504
 09 10 20  0 36 30.0000000  0  9G02G04G05G10G25G13G29G16G07
  -5498227.57048  -4265158.84446
                  21151747.3914                                   21151741.6804
                                                                        51.7504
        40.0004
   6640105.57446   5179717.71943
                  23912200.9924                                   23912198.3444
                                                                        41.5004
        23.0004
 -24354971.89848 -18936985.49646
                  21219349.1414                                   21219345.0434
                                                                        51.0004
        41.5004
 -23669849.27048 -18410831.53946
                  20631519.7894                                   20631516.7424
                                                                        52.0004
        41.2504
 -14034476.15247 -10897871.75445
                  22514468.9534                                   22514465.5204
                                                                        47.5004
        31.2504
  -7721338.49248  -5998867.10545
                  21714937.8834                                   21714932.8634
                                                                        48.5004
        33.2504
 -18317550.17248 -14234703.54346
                  21905941.2034                                   21905938.1644
                                                                        49.5004
        38.5004
  -3217075.37146  -2473785.79743
                  23601989.3754                                   23601984.1564
                                                                        39.7504
        23.0004
  -3972497.32847  -3081016.05545
                  23363006.5394                                   23363002.4574
                                                                        43.2504
        30.0004
 09 10 20  0 37  0.0000000  0  9G02G04G05G10G25G13G29G16G07
  -5516348.05948  -4279278.68446
                  21148299.1024                                   21148293.3484
                                                                        51.0004
        40.2504
   6667339.89547   5200939.23844
                  23917383.7894                                   23917380.6414
                                                                        42.7504
        25.2504
 -24506663.53148 -19055186.77046
                  21190483.2034                                   21190479.3594
                                                                        51.0004
        41.5004
 -23802612.17648 -18514283.14546
                  20606255.7664                                   20606252.6994
                                                                        52.2504
        41.0004
 -14147845.81647 -10986211.74645
                  22492895.7894                                   22492891.7544
                                                                        47.0004
        31.0004
  -7745768.39848  -6017903.39545
                  21710288.6884                                   21710284.8444
                                                                        48.7504
        32.2504
 -18409797.22748 -14306584.33646
                  21888386.9144                                   21888384.5944
                                                                        49.7504
        37.7504
  -3335409.75446  -2565994.32843
                  23579470.6174                                   23579465.9694
                                                                        41.2504
        22.5004
  -4138426.59847  -3210311.49244
                  23331431.0634                                   23331427.2274
                                                                        42.5004
        29.5004
 09 10 20  0 37 30.0000000  0  9G02G04G05G10G25G13G29G16G07
  -5533999.96148  -4293033.41846
                  21144939.8834                                   21144934.6884
                                                                        51.2504
        40.2504
   6694701.12947   5222259.64144
                  23922590.8204                                   23922587.9844
                                                                        43.2504
        27.0004
 -24657932.27748 -19173058.55946
                  21161697.4924                                   21161694.2304
                                                                        51.0004
        41.0004
 -23934859.61348 -18617333.14146
                  20581089.9924                                   20581086.9344
                                                                        52.0004
        41.0004
 -14260661.39147 -11074119.99645
                  22471427.2034                                   22471423.7464
                                                                        46.2504
        31.0004
  -7769673.55948  -6036530.77745
                  21705739.8834                                   21705735.8834
                                                                        48.5004
        32.5004
 -18501446.18748 -14377999.12946
                  21870947.2584                                   21870944.2154
                                                                        49.5004
        38.5004
  -3453174.77346  -2657759.23443
                  23557060.8284                                   23557056.7114
                                                                        41.5004
        22.7504
  -4303957.91847  -3339296.87945
                  23299931.9064                                   23299927.8594
                                                                        43.0004
        30.2504
 09 10 20  0 38  0.0000000  0  9G02G04G05G10G25G13G29G16G07
  -5551186.14548  -4306425.24646
                  21141669.6644                                   21141664.1454
                                                                        52.0004
        40.2504
   6722185.94147   5243676.32444
                  23927821.2734                                   23927818.9344
                                                                        43.5004
        29.7504
 -24808776.96548 -19290599.89546
                  21132993.1024                                   21132989.0164
                                                                        51.2504
        41.7504
 -24066591.51248 -18719981.31246
                  20556022.3444                                   20556019.0434
                                                                        52.0004
        41.7504
 -14372922.94547 -11161596.53545
                  22450064.6484                                   22450060.4884
                                                                        45.5004
        31.0004
  -7793056.92248  -6054751.56645
                  21701290.0164                                   21701286.3984
                                                                        48.2504
        32.5004
 -18592497.73448 -14448948.35546
                  21853620.7114                                   21853617.5594
                                                                        49.7504
        38.0004
  -3570370.02747  -2749080.14143
                  23534759.3984                                   23534754.4844
                                                                        42.2504
        22.5004
  -4469090.02347  -3467971.21544
                  23268508.1174                                   23268503.8714
                                                                        43.5004
        29.2504
 09 10 20  0 38 30.0000000  0  9G02G04G05G10G25G13G29G16G07
  -5567906.06248  -4319453.74246
                  21138488.1334                                   21138482.6604
                                                                        51.5004
        40.0004
   6749794.59847   5265189.53144
                  23933074.7584                                   23933072.2504
                                                                        42.0004
        27.0004
 -24959194.23448 -19407808.16846
                  21104369.6174                                   21104366.0474
                                                                        51.2504
        41.5004
 -24197804.62148 -18822225.27347
                  20531053.3364                                   20531050.0274
                                                                        51.7504
        42.0004
 -14484627.43747 -11248638.98445
                  22428808.0634                                   22428804.0474
                                                                        46.0004
        30.7504
  -7815918.51248  -6072565.78145
                  21696939.0864                                   21696935.6954
                                                                        48.2504
        33.0004
 -18682949.27348 -14519430.09046
                  21836408.4844                                   21836405.2384
                                                                        50.7504
        38.0004
  -3686992.12146  -2839954.45744
                  23512566.5784                                   23512561.8324
                                                                        41.7504
        24.2504
  -4633817.30146  -3596330.08644
                  23237160.9384                                   23237157.0164
                                                                        41.5004
        29.7504
 09 10 20  0 39  0.0000000  0  9G02G04G05G10G25G13G29G16G07
  -4008740.05148  -3104519.18446
                  21435187.1804                                   21435181.6954
                                                                        51.5004
        40.5004
   8352945.08646   6514397.64144
                  24238143.7814                                   24238141.6844
                                                                        40.0004
        26.0004
 -23533757.07848 -18297077.92247
                  21375621.2344                                   21375617.7034
                                                                        51.2504
        42.0004
 -22753072.65648 -17696460.17646
                  20805976.6334                                   20805973.1374
                                                                        52.0004
        41.0004
 -13020349.24647 -10107642.97744
                  22707450.9694                                   22707447.1484
                                                                        46.2504
        29.5004
  -6262838.71148  -4862373.72745
                  21992480.5314                                   21992476.7504
                                                                        48.0004
        32.2504
 -17197377.06248 -13361841.32446
                  22119102.8284                                   22119100.0084
                                                                        49.7504
        38.2504
  -2227615.31247  -1702777.66443
                  23790277.3524                                   23790272.1804
                                                                        42.0004
        23.0004
  -3222710.83647  -2496766.53944
                  23505685.7034                                   23505681.7894
                                                                        42.5004
        29.0004
 09 10 20  0 39 30.0000000  0  9G02G04G05G10G25G13G29G16G07
  -4024532.08248  -3116824.66446
                  21432182.1884                                   21432176.3634
                                                                        50.5004
        39.7504
   8380795.99646   6536099.59843
                  24243443.5634                                   24243440.9654
                                                                        41.0004
        23.7504
 -23683314.57048 -18413616.18746
                  21347161.3984                                   21347157.7344
                                                                        51.2504
        41.7504
 -22883244.00048 -17797892.38346
                  20781205.8594                                   20781202.4964
                                                                        52.5004
        41.5004
 -13130936.04747 -10193814.49645
                  22686406.9694                                   22686402.9774
                                                                        46.2504
        31.0004
  -6284663.21147  -4879379.84845
                  21988327.7344                                   21988323.7304
                                                                        47.5004
        32.2504
 -17286628.02048 -13431387.56646
                  22102119.1254                                   22102115.9344
                                                                        50.0004
        38.5004
  -2343087.22747  -1792755.75444
                  23768303.0004                                   23768298.9534
                                                                        42.0004
        25.5004
  -3386620.55947  -2624488.31644
                  23474494.7274                                   23474490.7274
                                                                        42.0004
        29.5004
 09 10 20  0 40  0.0000000  0  9G02G04G05G10G25G13G29G16G07
  -4039863.61348  -3128771.30946
                  21429264.7274                                   21429258.8674
                                                                        51.7504
        39.5004
   8408764.05946   6557892.87943
                  24248765.8524                                   24248762.8014
                                                                        40.2504
        22.5004
 -23832440.46948 -18529818.20346
                  21318783.6484                                   21318780.4104
                                                                        51.5004
        41.7504
 -23012893.54348 -17898918.03546
                  20756534.3524                                   20756531.1524
                                                                        53.2504
        41.7504
 -13240963.41447 -10279550.10245
                  22665469.1094                                   22665465.3284
                                                                        45.5004
        30.0004
  -6305973.01648  -4895984.86745
                  21984272.1414                                   21984268.5274
                                                                        49.0004
        32.7504
 -17375278.62548 -13500465.93446
                  22085249.6254                                   22085246.7544
                                                                        50.0004
        38.5004
  -2457982.98047  -1882284.87544
                  23746439.6954                                   23746434.8324
                                                                        42.0004
        26.2504
  -3550118.23047  -2751889.09444
                  23443382.0394                                   23443378.5234
                                                                        43.0004
        29.7504
 09 10 20  0 40 30.0000000  0  9G02G04G05G10G25G13G29G16G07
  -4054735.94148  -3140360.14846
                  21426434.6254                                   21426429.2424
                                                                        51.5004
        39.2504
   8436847.90247   6579776.37943
                  24254110.2894                                   24254106.5664
                                                                        42.0004
        22.5004
 -23981132.50448 -18645682.10947
                  21290488.4224                                   21290485.1294
                                                                        51.7504
        42.0004
 -23142019.47748 -17999535.58246
                  20731962.5784                                   20731958.9344
                                                                        53.0004
        41.0004
 -13350429.91447 -10364848.67645
                  22644638.6174                                   22644634.6254
                                                                        45.5004
        30.7504
  -6326770.23848  -4912190.48045
                  21980315.2424                                   21980311.0164
                                                                        49.0004
        33.0004
 -17463328.58648 -13569076.27046
                  22068494.3594                                   22068491.4414
                                                                        49.5004
        39.0004
  -2572301.07047  -1971363.83244
                  23724685.0314                                   23724680.9344
                                                                        43.0004
        26.2504
  -3713200.54347  -2878966.16444
                  23412348.7034                                   23412344.8284
                                                                        43.0004
        29.7504
 09 10 20  0 41  0.0000000  0  9G02G04G05G10G25G13G29G16G07
  -4069153.71948  -3151594.76646
                  21423690.9694                                   21423685.3244
                                                                        50.7504
        40.0004
   8465042.76247   6601746.39144
                  24259475.0864                                   24259472.6884
                                                                        43.5004
        24.2504
 -24129392.24648 -18761209.16446
                  21262275.5784                                   21262271.8914
                                                                        50.7504
        41.2504
 -23270623.66448 -18099746.64546
                  20707490.0234                                   20707486.7344
                                                                        52.5004
        41.0004
 -13459337.53947 -10449711.75445
                  22623914.1174                                   22623910.4454
                                                                        45.5004
        30.5004
  -6347059.39848  -4928000.19945
                  21976453.8284                                   21976450.0234
                                                                        49.0004
        32.7504
 -17550780.92248 -13637220.96546
                  22051852.6804                                   22051849.6954
                                                                        49.0004
        38.5004
  -2686043.23047  -2059994.10244
                  23703040.5944                                   23703036.5944
                                                                        43.2504
        26.5004
  -3875867.70347  -3005719.77344
                  23381394.0704                                   23381389.8754
                                                                        44.2504
        29.5004
 09 10 20  0 41 30.0000000  0  9G02G04G05G10G25G13G29G16G07
  -4083115.31648  -3162473.94146
                  21421034.2114                                   21421028.4184
                                                                        51.7504
        40.0004
   8493349.62547   6623803.66444
                  24264862.5634                                   24264859.5594
                                                                        44.0004
        27.2504
 -24277214.86748 -18876395.61747
                  21234145.7894                                   21234142.3284
                                                                        51.5004
        42.0004
 -23398701.68448 -18199547.68046
                  20683117.4774                                   20683113.9304
                                                                        52.5004
        40.7504
 -13567681.85947 -10534135.89145
                  22603297.1254                                   22603293.3134
                                                                        45.7504
        31.5004
  -6366840.16048  -4943413.75445
                  21972689.8524                                   21972685.7704
                                                                        48.2504
        32.0004
 -17637631.32448 -13704896.59046
                  22035325.2734                                   22035322.6884
                                                                        49.7504
        38.5004
  -2799205.11747  -2148172.30944
                  23681506.8444                                   23681502.9924
                                                                        43.2504
        27.2504
  -4038113.54747  -3132145.09845
                  23350519.8284                                   23350515.5274
                                                                        44.0004
        30.0004
 09 10 20  0 42  0.0000000  0  9G02G04G05G10G25G13G29G16G07
  -4096622.66848  -3172999.15246
                  21418463.7664                                   21418458.0314
                                                                        51.0004
        39.2504
   8521766.48847   6645946.64544
                  24270269.6484                                   24270267.5904
                                                                        44.5004
        26.7504
 -24424598.74648 -18991240.16847
                  21206099.4304                                   21206095.7934
                                                                        50.7504
        42.0004
 -23526252.50448 -18298937.95346
                  20658845.3594                                   20658841.6454
                                                                        53.0004
        41.2504
 -13675462.49647 -10618120.79345
                  22582787.1334                                   22582783.2304
                                                                        45.7504
        31.0004
  -6386114.77048  -4958432.92645
                  21969021.8134                                   21969018.1174
                                                                        48.0004
        32.0004
 -17723880.62548 -13772103.89846
                  22018912.8284                                   22018909.9884
                                                                        48.7504
        38.7504
  -2911785.76247  -2235897.69944
                  23660084.0784                                   23660079.7074
                                                                        42.5004
        26.5004
  -4199935.75047  -3258240.31644
                  23319726.4224                                   23319721.7974
                                                                        45.0004
        29.7504
 09 10 20  0 42 30.0000000  0  9G02G04G05G10G25G13G29G16G07
  -4109678.94948  -3183172.87946
                  21415979.3984                                   21415973.6094
                                                                        51.0004
        39.7504
   8550290.25847   6668172.90644
                  24275697.6024                                   24275695.5554
                                                                        43.2504
        25.5004
 -24571543.77348 -19105742.79746
                  21178136.8754                                   21178133.2544
                                                                        51.5004
        41.7504
 -23653276.27348 -18397917.48446
                  20634673.4304                                   20634670.0314
                                                                        52.5004
        41.0004
 -13782679.64547 -10701666.61745
                  22562384.1954                                   22562380.3364
                                                                        45.5004
        30.0004
  -6404886.58247  -4973060.30945
                  21965449.6094                                   21965445.5124
                                                                        47.2504
        32.2504
 -17809529.61748 -13838843.41046
                  22002614.1804                                   22002611.1684
                                                                        49.0004
        38.2504
  -3023785.29747  -2323170.16444
                  23638770.7734                                   23638766.9384
                                                                        42.5004
        25.2504
  -4361332.72747  -3384004.19944
                  23289013.3984                                   23289009.2304
                                                                        45.0004
        29.5004
 09 10 20  0 43  0.0000000  0  9G02G04G05G10G25G13G29G16G07
  -4122285.00448  -3192995.79746
                  21413580.3594                                   21413574.8794
                                                                        50.7504
        39.5004
   8578919.71947   6690481.51244
                  24281145.5704                                   24281143.2734
                                                                        43.5004
        25.2504
 -24718047.40248 -19219901.45746
                  21150258.2504                                   21150254.1484
                                                                        51.0004
        41.2504
 -23779771.14848 -18496484.91046
                  20610602.3444                                   20610599.0554
                                                                        52.7504
        41.5004
 -13889331.65247 -10784772.06645
                  22542089.1954                                   22542084.9414
                                                                        46.0004
        31.5004
  -6423157.24648  -4987297.17245
                  21961972.5944                                   21961969.0084
                                                                        48.2504
        32.2504
 -17894577.09448 -13905114.15246
                  21986430.3754                                   21986427.3954
                                                                        49.0004
        38.0004
  -3135201.77047  -2409988.26244
                  23617568.6954                                   23617565.0554
                                                                        42.0004
        25.2504
  -4522300.94147  -3509433.97744
                  23258381.7734                                   23258377.9534
                                                                        43.7504
        29.5004
 09 10 20  0 43 30.0000000  0  9G02G04G05G10G25G13G29G16G07
  -4134442.98848  -3202469.56646
                  21411266.8834                                   21411261.2384
                                                                        51.0004
        40.0004
   8607652.85246   6712870.94143
                  24286612.7814                                   24286610.5824
                                                                        41.7504
        22.2504
 -24864108.79348 -19333715.51646
                  21122463.7424                                   21122460.1994
                                                                        50.7504
        41.7504
 -23905736.71148 -18594639.88347
                  20586631.9924                                   20586628.6174
                                                                        52.5004
        42.0004
 -13995418.16847 -10867436.86745
                  22521901.6174                                   22521897.6954
                                                                        46.0004
        31.5004
  -6440929.39548  -5001145.59045
                  21958591.3594                                   21958587.1054
                                                                        48.2504
        32.5004
 -17979023.63348 -13970916.58246
                  21970360.7114                                   21970357.8204
                                                                        48.5004
        38.2504
  -3246034.52047  -2496351.52044
                  23596477.8204                                   23596474.3554
                                                                        42.0004
        24.5004
  -4682838.21147  -3634527.92244
                  23227832.5704                                   23227828.4064
                                                                        43.2504
        29.5004
 09 10 20  0 44  0.0000000  0  9G02G04G05G10G25G13G29G16G07
  -4146155.77048  -3211596.43046
                  21409038.0784                                   21409032.4884
                                                                        51.0004
        40.0004
   8636486.32847   6735338.53143
                  24292100.3364                                   24292097.2974
                                                                        42.0004
        22.0004
 -25009726.66848 -19447183.97347
                  21094753.5234                                   21094750.0274
                                                                        51.5004
        42.0004
 -24031172.43748 -18692382.00847
                  20562762.0704                                   20562758.8484
                                                                        52.7504
        42.0004
 -14100939.07447 -10949660.92645
                  22501821.5164                                   22501817.7274
                                                                        45.0004
        31.5004
  -6458205.74247  -5014607.67645
                  21955303.6024                                   21955299.6174
                                                                        47.7504
        32.0004
 -18062870.00048 -14036251.40246
                  21954405.1884                                   21954402.4734
                                                                        49.5004
        38.0004
  -3356283.18447  -2582259.65644
                  23575498.7504                                   23575495.1054
                                                                        42.0004
        25.2504
  -4842942.82846  -3759284.73444
                  23197365.5704                                   23197361.8404
                                                                        41.5004
        29.7504
 09 10 20  0 44 30.0000000  0  9G02G04G05G10G25G13G29G16G07
  -4157423.37548  -3220376.36346
                  21406894.0004                                   21406888.3204
                                                                        50.5004
        39.5004
   8665419.76247   6757884.01243
                  24297606.5784                                   24297603.2114
                                                                        42.5004
        23.5004
 -25154898.37548 -19560304.75047
                  21067128.1724                                   21067124.3364
                                                                        50.7504
        42.5004
 -24156075.59048 -18789709.12547
                  20538993.8914                                   20538990.7114
                                                                        52.5004
        42.0004
 -14205892.31247 -11031442.64545
                  22481849.6254                                   22481845.8364
                                                                        45.2504
        31.7504
  -6474987.50848  -5027684.37145
                  21952109.9844                                   21952106.1804
                                                                        48.0004
        32.2504
 -18146114.94148 -14101117.59046
                  21938564.0864                                   21938561.0664
                                                                        49.0004
        38.0004
  -3465945.67247  -2667710.99244
                  23554631.1484                                   23554626.8674
                                                                        42.2504
        24.0004
  -5002610.33647  -3883700.94944
                  23166981.9924                                   23166977.9924
                                                                        43.7504
        29.5004
 09 10 20  0 45  0.0000000  0  9G02G04G05G10G25G13G29G16G07
  -4168242.58648  -3228806.91046
                  21404835.3054                                   21404829.4344
                                                                        49.7504
        39.5004
   8694456.62147   6780510.04344
                  24303132.1094                                   24303129.0044
                                                                        42.7504
        24.2504
 -25299617.05148 -19673072.49246
                  21039588.7504                                   21039585.4574
                                                                        50.5004
        41.7504
 -24280440.15248 -18886616.53946
                  20515328.1644                                   20515324.6254
                                                                        52.5004
        41.0004
 -14310271.81647 -11112777.29745
                  22461986.6644                                   22461983.3094
                                                                        44.5004
        31.0004
  -6491271.89147  -5040373.49645
                  21949011.1484                                   21949007.2384
                                                                        47.0004
        32.2504
 -18228752.55148 -14165510.50046
                  21922838.8834                                   21922835.7814
                                                                        48.2504
        38.0004
  -3575015.37947  -2752700.44143
                  23533875.5164                                   23533871.5984
                                                                        42.0004
        23.7504
  -5161832.85547  -4007770.38345
                  23136683.2034                                   23136679.2274
                                                                        43.5004
        30.5004
 09 10 20  0 45 30.0000000  0  9G02G04G05G10G25G13G29G16G07
  -4178620.78948  -3236893.80546
                  21402860.0314                                   21402854.6604
                                                                        50.0004
        39.5004
   8723589.05947   6803210.41443
                  24308676.4224                                   24308673.0944
                                                                        42.7504
        22.2504
 -25443887.33248 -19785490.87547
                  21012135.2114                                   21012131.8164
                                                                        51.2504
        42.5004
 -24404270.63348 -18983107.83647
                  20491764.0554                                   20491760.7154
                                                                        52.0004
        42.0004
 -14414082.50447 -11193668.68045
                  22442232.3444                                   22442227.9104
                                                                        45.0004
        31.0004
  -6507066.98848  -5052681.35545
                  21946005.6024                                   21946001.5594
                                                                        48.0004
        32.5004
 -18310788.71948 -14229434.75046
                  21907227.5234                                   21907224.8134
                                                                        49.2504
        38.2504
  -3683497.37946  -2837231.93044
                  23513231.9064                                   23513227.6994
                                                                        41.5004
        24.5004
  -5320613.57847  -4131495.54345
                  23106467.5784                                   23106464.5744
                                                                        43.2504
        30.7504
 09 10 20  0 46  0.0000000  0  9G02G04G05G10G25G13G29G16G07
  -4188559.21548  -3244638.03946
                  21400968.6884                                   21400963.4064
                                                                        50.2504
        39.2504
   8752815.16446   6825983.33644
                  24314237.9694                                   24314235.1294
                                                                        39.5004
        24.5004
 -25587706.51648 -19897557.74247
                  20984767.3364                                   20984763.6454
                                                                        50.7504
        42.0004
 -24527564.89548 -19079181.25446
                  20468302.2114                                   20468298.3484
                                                                        52.5004
        41.7504
 -14517322.97347 -11274115.78145
                  22422585.9774                                   22422582.4024
                                                                        44.7504
        31.0004
  -6522374.14847  -5064608.99245
                  21943092.9144                                   21943088.9104
                                                                        47.2504
        32.0004
 -18392223.20748 -14292890.14846
                  21891731.2424                                   21891728.3244
                                                                        48.5004
        38.5004
  -3791389.80547  -2921304.00444
                  23492700.6174                                   23492696.5314
                                                                        42.0004
        24.0004
  -5478949.13347  -4254873.88345
                  23076337.4774                                   23076333.5274
                                                                        44.5004
        31.7504
 09 10 20  0 46 30.0000000  0  9G02G04G05G10G25G13G29G16G07
  -4198058.76648  -3252040.28946
                  21399161.1094                                   21399155.2934
                                                                        50.5004
        39.2504
   8782134.22346   6848828.35943
                  24319817.8134                                   24319815.2934
                                                                        40.0004
        22.7504
 -25731072.43048 -20009271.44946
                  20957485.5164                                   20957482.0394
                                                                        51.2504
        41.7504
 -24650321.70348 -19174835.88746
                  20444942.1884                                   20444938.4304
                                                                        52.0004
        41.5004
 -14619991.55147 -11354117.26245
                  22403049.0784                                   22403045.2504
                                                                        45.2504
        31.0004
  -6537194.77747  -5076157.52045
                  21940272.1954                                   21940268.3164
                                                                        46.7504
        31.5004
 -18473054.74248 -14355875.76646
                  21876349.6484                                   21876346.4534
                                                                        48.5004
        38.0004
  -3898690.95346  -3004915.35244
                  23472281.9774                                   23472278.0824
                                                                        41.5004
        24.0004
  -5636836.09847  -4377902.66845
                  23046292.6024                                   23046288.7154
                                                                        45.7504
        31.0004
 09 10 20  0 47  0.0000000  0  9G02G04G05G10G25G13G29G16G07
  -4207119.42248  -3259100.52746
                  21397437.0394                                   21397431.3874
                                                                        50.0004
        39.0004
   8811548.47746   6871748.46944
                  24325415.3284                                   24325413.3054
                                                                        41.7504
        24.5004
 -25873981.44148 -20120629.07846
                  20930291.0394                                   20930287.4454
                                                                        50.5004
        41.5004
 -24772538.10948 -19270069.47346
                  20421685.1724                                   20421681.9144
                                                                        51.7504
        41.0004
 -14722085.77347 -11433671.18445
                  22383621.4694                                   22383617.2854
                                                                        45.7504
        31.5004
  -6551529.55547  -5087327.48045
                  21937544.4534                                   21937540.1054
                                                                        47.0004
        31.7504
 -18553281.84847 -14418390.34046
                  21861082.9774                                   21861079.9614
                                                                        47.5004
        37.5004
  -4005398.08246  -3088063.76243
                  23451976.6724                                   23451972.3794
                                                                        41.5004
        23.5004
  -5794269.93747  -4500578.40645
                  23016334.2894                                   23016330.0204
                                                                        46.0004
        31.5004
 09 10 20  0 47 30.0000000  0  9G02G04G05G10G25G13G29G16G07
  -4215744.39148  -3265821.27046
                  21395795.8054                                   21395790.3014
                                                                        50.0004
        39.7504
   8841052.08247   6894737.79344
                  24331030.1024                                   24331027.7424
                                                                        42.2504
        24.0004
 -26016433.71148 -20231630.81247
                  20903183.2344                                   20903179.5044
                                                                        50.5004
        42.0004
 -24894214.59048 -19364882.32846
                  20398530.6254                                   20398527.4064
                                                                        52.2504
        41.7504
 -14823606.45347 -11512778.16445
                  22364302.3594                                   22364299.0234
                                                                        45.5004
        31.2504
  -6565381.98847  -5098121.59045
                  21934908.2974                                   21934904.5394
                                                                        47.5004
        30.7504
 -18632905.84448 -14480434.95746
                  21845930.8754                                   21845928.1954
                                                                        48.5004
        38.0004
  -4111511.97347  -3170749.94544
                  23431783.3204                                   23431779.6914
                                                                        42.5004
        24.2504
  -5951249.51247  -4622900.17244
                  22986461.7274                                   22986457.7114
                                                                        44.5004
        29.7504
 09 10 20  0 48  0.0000000  0  9G02G04G05G10G25G13G29G16G07
  -2648514.27048  -2044603.01246
                  21694029.5944                                   21694023.9614
                                                                        50.5004
        39.0004
  10446063.68847   8145395.65644
                  24636454.1644                                   24636452.1414
                                                                        44.0004
        24.5004
 -24583001.83648 -19114670.90647
                  21175956.2814                                   21175952.6454
                                                                        50.5004
        42.0004
 -23439925.07448 -18231669.73046
                  20675272.7664                                   20675269.6724
                                                                        52.5004
        41.5004
 -13349128.48447 -10363834.28145
                  22644886.2974                                   22644882.3524
                                                                        45.7504
        31.2504
  -5003333.17647  -3880940.72745
                  22232156.6884                                   22232152.4454
                                                                        46.5004
        31.0004
 -17136503.24248 -13314406.96946
                  22130686.6954                                   22130683.7814
                                                                        48.5004
        38.5004
  -2641606.77747  -2025369.30943
                  23711497.6484                                   23711493.2664
                                                                        43.2504
        23.7504
  -4532345.92247  -3517261.00845
                  23256470.4384                                   23256465.4654
                                                                        45.2504
        30.0004
 09 10 20  0 48 30.0000000  0  9G02G04G05G10G25G13G29G16G07
  -2656270.60548  -2050646.88346
                  21692553.8204                                   21692548.0474
                                                                        49.5004
        39.5004
  10475745.37147   8168524.12144
                  24642103.1174                                   24642100.2464
                                                                        43.0004
        25.2504
 -24724532.68048 -19224954.60247
                  21149023.9454                                   21149020.3594
                                                                        51.5004
        42.0004
 -23560515.60948 -18325636.37146
                  20652325.1174                                   20652321.5354
                                                                        52.0004
        41.5004
 -13449497.06247 -10442043.57445
                  22625787.3524                                   22625782.9884
                                                                        45.0004
        32.2504
  -5016225.11347  -3890986.39845
                  22229703.2194                                   22229699.6524
                                                                        46.5004
        31.5004
 -17214918.35948 -13375509.63746
                  22115765.0944                                   22115761.6334
                                                                        49.5004
        38.0004
  -2746527.99647  -2107126.09444
                  23691531.6254                                   23691527.6684
                                                                        42.2504
        25.0004
  -4688405.82047  -3638866.12945
                  23226772.8674                                   23226768.2304
                                                                        44.0004
        30.0004
 09 10 20  0 49  0.0000000  0  9G02G04G05G10G25G13G29G16G07
  -2663596.17248  -2056355.17246
                  21691159.6724                                   21691153.9694
                                                                        49.7504
        39.2504
  10505510.01247   8191716.05543
                  24647767.2344                                   24647765.6214
                                                                        42.2504
        22.2504
 -24865601.46948 -19334878.29747
                  21122179.3524                                   21122175.3984
                                                                        51.2504
        42.2504
 -23680561.94148 -18419178.93046
                  20629481.2344                                   20629477.2934
                                                                        51.7504
        41.0004
 -13549289.11747 -10519803.62945
                  22606796.8444                                   22606792.7664
                                                                        45.7504
        31.5004
  -5028641.05147  -3900661.18745
                  22227340.4304                                   22227336.8014
                                                                        47.5004
        31.0004
 -17292729.82448 -13436141.92646
                  22100957.7114                                   22100954.4654
                                                                        49.5004
        37.5004
  -2850852.09847  -2188417.57043
                  23671679.2894                                   23671674.8914
                                                                        43.2504
        22.7504
  -4844002.70747  -3760110.47344
                  23197164.1644                                   23197159.4494
                                                                        44.7504
        29.2504
 09 10 20  0 49 30.0000000  0  9G02G04G05G10G25G13G29G16G07
  -2670489.61748  -2061726.71146
                  21689847.9454                                   21689842.3014
                                                                        48.7504
        39.5004
  10535364.109 6
                  24653448.281
                                                                        40.250

 -25006203.45748 -19444438.25447
                  21095423.5164                                   21095419.7504
                                                                        51.5004
        42.2504
 -23800060.35548 -18512294.57046
                  20606741.1644                                   20606737.8054
                                                                        51.7504
        41.2504
 -13648501.14147 -10597111.71545
                  22587917.7194                                   22587914.1094
                                                                        45.5004
        32.5004
  -5040580.29747  -3909964.48845
                  22225068.7734                                   22225064.5704
                                                                        47.0004
        31.5004
 -17369934.65648 -13496301.45346
                  22086266.4454                                   22086262.9414
                                                                        49.5004
        38.2504
  -2954575.63747  -2269241.10544
                  23651941.3444                                   23651937.4614
                                                                        43.0004
        24.7504
  -4999130.82047  -3880989.53145
                  23167644.3444                                   23167639.8754
                                                                        44.7504
        30.0004
 09 10 20  0 50  0.0000000  0  9G02G04G05G10G25G13G29G16G07
  -2676952.20348  -2066762.51646
                  21688617.9774                                   21688612.4024
                                                                        49.5004
        39.0004
  10565303.25446   8223247.97753
                  24659145.7114                                   24659144.0084
                                                                        41.2504
        22.2504
 -25146336.82048 -19553633.09047
                  21068756.9304                                   21068753.4574
                                                                        51.0004
        42.5004
 -23919009.40648 -18604982.11346
                  20584106.0314                                   20584102.4884
                                                                        51.7504
        41.2504
 -13747131.72747 -10673966.71545
                  22569148.9224                                   22569144.8984
                                                                        46.0004
        31.7504
  -5052044.50047  -3918897.62945
                  22222887.1564                                   22222882.9694
                                                                        46.0004
        31.5004
 -17446532.62548 -13555988.19146
                  22071690.0704                                   22071686.8054
                                                                        49.7504
        38.5004
  -3057696.85247  -2349595.30144
                  23632318.2344                                   23632313.3954
                                                                        43.2504
        24.2504
  -5153787.15647  -4001500.93745
                  23138213.6884                                   23138209.9344
                                                                        44.5004
        31.0004
 09 10 20  0 50 30.0000000  0  9G02G04G05G10G25G13G29G16G07
  -2682990.20348  -2071467.46546
                  21687469.2114                                   21687463.6414
                                                                        49.5004
        39.0004
  10595320.71146   8246637.68444
                  24664858.5944                                   24664857.7154
                                                                        41.5004
        25.5004
 -25286004.23448 -19662464.84847
                  21042179.2114                                   21042175.4534
                                                                        51.0004
        42.5004
 -24037412.61348 -18697244.34046
                  20561574.6484                                   20561571.3244
                                                                        51.5004
        41.5004
 -13845184.91447 -10750371.79745
                  22550489.7734                                   22550486.1884
                                                                        45.5004
        31.5004
  -5063039.85947  -3927465.44545
                  22220794.8594                                   22220790.7304
                                                                        46.0004
        31.2504
 -17522528.18748 -13615205.51646
                  22057228.9844                                   22057225.5124
                                                                        49.0004
        38.7504
  -3160219.67647  -2429483.20744
                  23612809.1094                                   23612804.5864
                                                                        43.0004
        25.2504
  -5307973.27047  -4121645.95745
                  23108873.2504                                   23108869.5514
                                                                        45.0004
        31.2504
 09 10 20  0 51  0.0000000  0  9G02G04G05G10G25G13G29G16G07
  -2688601.37148  -2075839.82446
                  21686401.6884                                   21686396.0124
                                                                        49.7504
        39.2504
  10625419.79747   8270091.18044
                  24670586.4454                                   24670585.6374
                                                                        42.2504
        24.0004
 -25425200.18748 -19770929.19147
                  21015691.5004                                   21015687.6884
                                                                        51.7504
        42.5004
 -24155264.60948 -18789077.11346
                  20539148.3134                                   20539144.6294
                                                                        52.0004
        41.5004
 -13942655.81647 -10826323.13745
                  22531942.1094                                   22531937.8244
                                                                        45.7504
        32.0004
  -5073565.39847  -3935667.16445
                  22218791.8984                                   22218787.6134
                                                                        46.5004
        31.0004
 -17597917.12948 -13673950.16046
                  22042882.6254                                   22042879.7304
                                                                        49.5004
        38.5004
  -3262138.89147  -2508900.76644
                  23593414.4144                                   23593410.2464
                                                                        43.5004
        25.5004
  -5461682.30147  -4241419.21945
                  23079623.7734                                   23079619.5204
                                                                        44.7504
        31.5004
 09 10 20  0 51 30.0000000  0  9G02G04G05G10G25G13G29G16G07
  -2693787.50448  -2079880.97346
                  21685414.5704                                   21685408.8594
                                                                        49.0004
        39.5004
  10655600.10246   8293608.74243
                  24676329.1484                                   24676327.8954
                                                                        41.5004
        23.5004
 -25563922.99648 -19879024.90247
                  20989292.8984                                   20989289.4884
                                                                        52.0004
        42.5004
 -24272564.03948 -18880479.26246
                  20516826.9534                                   20516823.3134
                                                                        51.2504
        41.7504
 -14039543.83647 -10901820.29345
                  22513504.6644                                   22513500.8094
                                                                        46.0004
        31.5004
  -5083623.66847  -3943504.77345
                  22216877.9304                                   22216873.9654
                                                                        45.5004
        30.5004
 -17672699.64848 -13732222.24246
                  22028651.9534                                   22028648.7154
                                                                        49.7504
        38.0004
  -3363453.86747  -2587847.46944
                  23574133.7974                                   23574130.5354
                                                                        42.0004
        24.5004
  -5614911.84047  -4360818.85945
                  23050465.1564                                   23050461.2624
                                                                        43.2504
        31.7504
 09 10 20  0 52  0.0000000  0  8G02G05G10G25G13G29G16G07
  -2698552.39848  -2083593.90246
                  21684507.6804                                   21684502.6374
                                                                        49.7504
        39.0004
 -25702173.36348 -19986752.51647
                  20962984.9224                                   20962981.5084
                                                                        52.5004
        42.2504
 -24389312.62148 -18971452.07846
                  20494610.7664                                   20494606.8674
                                                                        52.7504
        41.0004
 -14135850.92247 -10976864.80145
                  22495177.7344                                   22495174.1524
                                                                        45.7504
        32.0004
  -5093218.08647  -3950980.92244
                  22215052.0394                                   22215048.0124
                                                                        46.2504
        29.7504
 -17746878.20348 -13790023.67646
                  22014536.3284                                   22014532.8364
                                                                        50.0004
        38.5004
  -3464166.29347  -2666324.64843
                  23554969.1254                                   23554965.1294
                                                                        43.0004
        23.5004
  -5767661.77047  -4479844.77745
                  23021397.1884                                   23021393.4384
                                                                        43.2504
        30.5004
 09 10 20  0 52 30.0000000  0  8G02G05G10G25G13G29G16G07
  -2702896.70748  -2086979.09446
                  21683681.0314                                   21683675.9924
                                                                        48.2504
        39.0004
 -25839948.03548 -20094109.38347
                  20936767.3364                                   20936763.7504
                                                                        52.0004
        42.0004
 -24505507.91848 -19061993.85246
                  20472499.1094                                   20472495.5904
                                                                        52.5004
        41.0004
 -14231574.50447 -11051454.58245
                  22476962.5864                                   22476958.7544
                                                                        46.0004
        32.2504
  -5102350.20747  -3958096.84045
                  22213314.1724                                   22213310.2624
                                                                        45.2504
        30.7504
 -17820451.54748 -13847353.44946
                  22000535.7504                                   22000532.2194
                                                                        49.0004
        38.7504
  -3564273.22347  -2744330.00844
                  23535919.6334                                   23535915.8284
                                                                        43.2504
        24.5004
  -5919927.44947  -4598493.33645
                  22992422.1254                                   22992418.3444
                                                                        44.5004
        30.7504
 09 10 20  0 53  0.0000000  0  8G02G05G10G25G13G29G16G07
  -2706817.18048  -2090034.02346
                  21682935.0944                                   21682929.3284
                                                                        49.2504
        38.5004
 -25977240.82848 -20201090.71547
                  20910641.4614                                   20910637.5704
                                                                        52.0004
        42.2504
 -24621143.95748 -19152099.82046
                  20450494.1644                                   20450490.7934
                                                                        52.5004
        41.7504
 -14326709.34447 -11125585.59845
                  22458858.5234                                   22458854.9494
                                                                        45.5004
        32.0004
  -5111016.98447  -3964850.15245
                  22211664.4304                                   22211660.8834
                                                                        45.5004
        30.2504
 -17893415.26648 -13904208.27746
                  21986651.2274                                   21986647.9964
                                                                        50.2504
        38.0004
  -3663769.53147  -2821859.59443
                  23516985.9614                                   23516982.2774
                                                                        43.0004
        23.7504
  -6071701.64847  -4716758.90645
                  22963541.0394                                   22963536.4414
                                                                        43.5004
        32.0004
 09 10 20  0 53 30.0000000  0  8G02G05G10G25G13G29G16G07
  -2710311.93048  -2092757.23446
                  21682270.1334                                   21682264.2934
                                                                        48.5004
        37.7504
 -26114046.38348 -20307692.45347
                  20884608.1334                                   20884604.4454
                                                                        52.0004
        43.0004
 -24736216.14848 -19241766.52346
                  20428596.8594                                   20428593.5434
                                                                        52.2504
        41.5004
 -14421251.32447 -11199254.67645
                  22440868.2274                                   22440864.0004
                                                                        46.0004
        31.7504
  -5119217.49247  -3971240.15245
                  22210104.5004                                   22210100.7114
                                                                        45.7504
        31.0004
 -17965765.51648 -13960585.11746
                  21972883.2344                                   21972880.5554
                                                                        49.5004
        38.2504
  -3762650.61747  -2898909.76244
                  23498169.9534                                   23498165.6884
                                                                        42.0004
        26.0004
  -6222977.88347  -4834636.43445
                  22934753.2894                                   22934749.4414
                                                                        43.7504
        31.0004
 09 10 20  0 54  0.0000000  0  8G02G05G10G25G13G29G16G07
  -2713383.47748  -2095150.65246
                  21681685.5394                                   21681679.7274
                                                                        49.0004
        38.2504
 -26250364.21548 -20413914.10547
                  20858667.5704                                   20858664.0004
                                                                        52.0004
        42.5004
 -24850723.92648 -19330993.28547
                  20406806.4614                                   20406802.7544
                                                                        52.2504
        42.0004
 -14515200.46947 -11272461.80145
                  22422990.4144                                   22422986.3404
                                                                        45.7504
        31.7504
  -5126954.85947  -3977269.27045
                  22208632.0634                                   22208628.0204
                                                                        45.5004
        31.2504
 -18037503.17248 -14016484.59446
                  21959232.2194                                   21959228.6524
                                                                        49.5004
        38.5004
  -3860916.67646  -2975480.68444
                  23479470.3444                                   23479466.0514
                                                                        41.5004
        25.5004
  -6373754.46547  -4952124.61345
                  22906061.8204                                   22906057.4884
                                                                        44.5004
        30.5004
 09 10 20  0 54 30.0000000  0  8G02G05G10G25G13G29G16G07
  -2716036.77048  -2097218.15646
                  21681180.6174                                   21681175.3054
                                                                        49.0004
        38.5004
 -26386196.09448 -20519757.26247
                  20832819.7664                                   20832816.0354
                                                                        52.0004
        42.5004
 -24964669.94548 -19419782.48046
                  20385123.6254                                   20385120.1454
                                                                        53.0004
        41.0004
 -14608559.33647 -11345208.96145
                  22405224.5164                                   22405220.4694
                                                                        45.7504
        32.2504
  -5134233.87947  -3982941.23045
                  22207247.0474                                   22207242.8914
                                                                        46.2504
        30.7504
 -18108631.86748 -14071909.57046
                  21945696.6484                                   21945693.4534
                                                                        49.5004
        38.5004
  -3958570.02346  -3051574.14543
                  23460887.0084                                   23460883.4654
                                                                        41.5004
        22.7504
  -6524031.90647  -5069223.84445
                  22877464.5394                                   22877460.4574
                                                                        45.0004
        30.7504
 09 10 20  0 55  0.0000000  0  8G02G05G10G25G13G29G16G07
  -2718276.12148  -2098963.12546
                  21680754.7424                                   21680749.1844
                                                                        48.0004
        38.7504
 -26521542.14548 -20625221.71947
                  20807064.2584                                   20807060.4614
                                                                        52.0004
        42.5004
 -25078055.68048 -19508135.23046
                  20363547.4064                                   20363543.8244
                                                                        52.5004
        41.5004
 -14701329.75847 -11417497.57845
                  22387570.6094                                   22387567.1454
                                                                        44.7504
        31.5004
  -5141059.54347  -3988259.92645
                  22205948.0234                                   22205944.2464
                                                                        45.7504
        30.5004
 -18179154.00048 -14126861.90646
                  21932276.7034                                   21932273.5164
                                                                        50.0004
        38.0004
  -4055612.24247  -3127191.41444
                  23442420.7274                                   23442417.1094
                                                                        42.7504
        25.5004
  -6673809.75447  -5185933.82445
                  22848963.0394                                   22848958.7624
                                                                        44.0004
        30.5004
 09 10 20  0 55 30.0000000  0  8G02G05G10G25G13G29G16G07
  -2720108.96948  -2100391.31646
                  21680406.0864                                   21680400.4264
                                                                        49.5004
        38.5004
 -26656407.38348 -20730311.52347
                  20781400.1094                                   20781396.2584
                                                                        52.2504
        42.5004
 -25190885.66048 -19596054.76246
                  20342076.5554                                   20342073.1374
                                                                        52.2504
        41.0004
 -14793517.40647 -11489332.11745
                  22370027.9614                                   22370024.3754
                                                                        44.5004
        31.5004
  -5147439.84447  -3993231.59445
                  22204734.3674                                   22204729.6374
                                                                        45.7504
        31.2504
 -18249075.85948 -14181346.48446
                  21918970.8674                                   21918967.9184
                                                                        49.5004
        38.0004
  -4152048.54347  -3202336.57444
                  23424069.7664                                   23424065.3794
                                                                        42.2504
        25.0004
  -6823091.71147  -5302257.39845
                  22820555.5164                                   22820551.2234
                                                                        44.5004
        30.7504
 09 10 20  0 56  0.0000000  0  8G02G05G10G25G13G29G16G07
  -2721534.80148  -2101502.37546
                  21680134.3984                                   21680128.8554
                                                                        48.5004
        38.2504
 -26790787.30548 -20835023.10947
                  20755828.8524                                   20755824.9184
                                                                        52.5004
        42.7504
 -25303156.46948 -19683538.46946
                  20320711.8054                                   20320708.5234
                                                                        52.7504
        41.5004
 -14885119.09847 -11560710.07845
                  22352596.7194                                   22352592.9414
                                                                        46.2504
        32.0004
  -5153375.28147  -3997856.59045
                  22203604.4844                                   22203600.4614
                                                                        44.5004
        30.2504
 -18318394.99248 -14235361.41446
                  21905780.3284                                   21905777.4064
                                                                        49.5004
        37.7504
  -4247875.97347  -3277007.26244
                  23405834.2034                                   23405830.6214
                                                                        42.0004
        26.0004
  -6971872.60947  -5418190.52045
                  22792243.3364                                   22792239.1414
                                                                        44.7504
        31.7504
 09 10 20  0 56 30.0000000  0  8G02G05G10G25G13G29G16G07
  -2722559.19148  -2102300.64546
                  21679939.6484                                   21679933.8364
                                                                        49.2504
        38.2504
 -26924683.61348 -20939357.89147
                  20730348.8674                                   20730345.5164
                                                                        52.5004
        42.0004
 -25414870.54348 -19770588.36747
                  20299453.3444                                   20299450.0084
                                                                        52.7504
        42.0004
 -14976137.53547 -11631633.53945
                  22335276.2114                                   22335272.3674
                                                                        44.5004
        32.0004
  -5158870.31247  -4002138.43745
                  22202558.6334                                   22202554.6374
                                                                        44.7504
        30.0004
 -18387114.87148 -14288909.34846
                  21892703.4224                                   21892700.0704
                                                                        49.7504
        38.7504
  -4343096.62947  -3351205.16044
                  23387714.2274                                   23387710.1684
                                                                        42.0004
        24.5004
  -7120152.53547  -5533733.28545
                  22764027.2894                                   22764022.6804
                                                                        45.0004
        32.0004
 09 10 20  0 57  0.0000000  0  8G02G05G10G25G13G29G16G07
  -1147761.37148   -875185.48446
                  21979614.0394                                   21979608.3554
                                                                        49.0004
        37.7504
 -25482669.03148 -19815710.16447
                  21004755.3914                                   21004751.4574
                                                                        52.0004
        42.5004
 -23950602.02748 -18629599.94946
                  20578094.7114                                   20578091.0164
                                                                        52.7504
        41.7504
 -13491147.82047 -10474498.68445
                  22617860.9064                                   22617856.8714
                                                                        44.5004
        31.7504
  -3588506.28147  -2778478.16445
                  22501389.0864                                   22501384.8284
                                                                        45.2504
        30.0004
 -16879812.18748 -13114387.77746
                  22179533.5474                                   22179530.7074
                                                                        49.7504
        38.5004
  -2862285.73047  -2197326.53144
                  23669502.7114                                   23669499.2734
                                                                        42.0004
        25.5004
  -5692502.92247  -4421279.02045
                  23035699.6954                                   23035695.3204
                                                                        45.5004
        32.5004
 09 10 20  0 57 30.0000000  0  8G02G05G10G25G13G29G16G07
  -1147982.93448   -875358.14146
                  21979571.4534                                   21979566.0594
                                                                        48.5004
        37.7504
 -25615590.06648 -19919284.92247
                  20979461.2814                                   20979457.2664
                                                                        52.5004
        42.7504
 -24061196.39848 -18715777.43046
                  20557048.9694                                   20557045.5044
                                                                        52.5004
        41.2504
 -13580994.65247 -10544509.19545
                  22600763.6954                                   22600759.3874
                                                                        45.2504
        32.0004
  -3593124.37147  -2782076.66845
                  22500510.2974                                   22500506.2424
                                                                        45.5004
        30.0004
 -16947331.29748 -13167000.07446
                  22166685.0784                                   22166681.8914
                                                                        49.7504
        38.5004
  -2956288.08646  -2270575.12144
                  23651615.2734                                   23651610.4384
                                                                        40.2504
        25.7504
  -5839770.16847  -4536032.69945
                  23007675.6724                                   23007671.2074
                                                                        44.5004
        31.7504
 09 10 20  0 58  0.0000000  0  8G02G05G10G25G13G29G16G07
  -1147808.38748   -875222.15246
                  21979604.4454                                   21979598.9304
                                                                        48.7504
        37.5004
 -25748023.92248 -20022480.09847
                  20954259.7034                                   20954255.8404
                                                                        52.2504
        42.5004
 -24171231.50848 -18801518.93446
                  20536109.8444                                   20536106.5204
                                                                        52.2504
        41.2504
 -13670257.53147 -10614064.68045
                  22583776.9144                                   22583773.5634
                                                                        45.5004
        31.0004
  -3597310.25447  -2785338.37144
                  22499713.7274                                   22499709.8164
                                                                        44.7504
        29.5004
 -17014252.71148 -13219146.60946
                  22153950.1884                                   22153946.9184
                                                                        50.0004
        38.0004
  -3049682.60547  -2343350.04744
                  23633843.0084                                   23633838.4844
                                                                        42.0004
        25.0004
  -5986529.85247  -4650390.85545
                  22979747.8364                                   22979743.9694
                                                                        44.5004
        31.5004
 09 10 20  0 58 30.0000000  0  8G02G05G10G25G13G29G16G07
  -1147239.06648   -874778.56246
                  21979713.2194                                   21979707.4264
                                                                        48.7504
        38.0004
 -25879968.37148 -20125294.01647
                  20929151.6564                                   20929147.8244
                                                                        52.5004
        42.5004
 -24280706.29748 -18886823.91846
                  20515277.6094                                   20515274.0044
                                                                        52.5004
        41.5004
 -13758935.49647 -10683164.39845
                  22566902.3364                                   22566898.0904
                                                                        45.7504
        31.0004
  -3601064.95347  -2788264.09844
                  22498999.3594                                   22498995.0864
                                                                        43.7504
        28.7504
 -17080576.42248 -13270827.40646
                  22141328.9064                                   22141325.9614
                                                                        49.0004
        38.5004
  -3142468.20747  -2415650.51244
                  23616186.2974                                   23616181.7854
                                                                        42.0004
        26.5004
  -6132778.80147  -4764351.05145
                  22951918.0164                                   22951913.6564
                                                                        46.0004
        32.2504
 09 10 20  0 59  0.0000000  0  8G02G05G10G25G13G29G16G07
  -1146275.22348   -874027.53546
                  21979896.5234                                   21979890.5664
                                                                        48.5004
        37.7504
 -26011420.10948 -20227723.92247
                  20904137.1414                                   20904133.0554
                                                                        52.5004
        42.2504
 -24389618.31648 -18971690.37946
                  20494552.3444                                   20494549.0594
                                                                        52.5004
        41.5004
 -13847026.48847 -10751806.73845
                  22550139.1644                                   22550135.9104
                                                                        44.0004
        31.5004
  -3604389.66047  -2790854.77744
                  22498366.4774                                   22498362.2894
                                                                        45.5004
        29.0004
 -17146301.08648 -13322041.43446
                  22128822.0554                                   22128819.1054
                                                                        50.0004
        38.0004
  -3234642.87946  -2487474.89844
                  23598645.7974                                   23598642.1884
                                                                        40.0004
        24.0004
  -6278512.84447  -4877910.04345
                  22924185.4614                                   22924181.2624
                                                                        45.5004
        31.7504
 09 10 20  0 59 30.0000000  0  8G02G05G10G25G13G29G16G07
  -1144920.53548   -872971.96946
                  21980154.7034                                   21980149.0944
                                                                        49.0004
        37.5004
 -26142379.59048 -20329770.21147
                  20879216.2734                                   20879212.6054
                                                                        52.7504
        42.7504
 -24497968.49248 -19056119.09046
                  20473933.8834                                   20473930.2384
                                                                        52.2504
        41.5004
 -13934532.01247 -10819992.84845
                  22533487.2274                                   22533483.6374
                                                                        45.0004
        30.7504
  -3607288.80947  -2793113.85544
                  22497814.9924                                   22497810.9454
                                                                        45.0004
        29.0004
 -17211428.94148 -13372790.40646
                  22116428.7974                                   22116425.6134
                                                                        49.7504
        38.0004
  -3326207.88347  -2558824.23444
                  23581221.9844                                   23581217.4104
                                                                        42.0004
        25.5004
  -6423731.21147  -4991067.19145
                  22896551.3204                                   22896546.6524
                                                                        45.0004
        31.7504
 09 10 20  1  0  0.0000000  0  8G02G05G10G25G13G29G16G07
  -1143173.05148   -871610.30546
                  21980487.0474                                   21980481.7544
                                                                        48.7504
        38.0004
 -26272841.90248 -20431429.15247
                  20854390.3134                                   20854386.5944
                                                                        53.0004
        42.5004
 -24605752.50848 -19140106.57446
                  20453423.4304                                   20453419.8984
                                                                        52.2504
        41.2504
 -14021448.02047 -10887719.59845
                  22516948.0554                                   22516944.2584
                                                                        44.7504
        32.2504
  -3609760.49647  -2795039.83644
                  22497344.9144                                   22497340.3524
                                                                        45.0004
        29.5004
 -17275956.58248 -13423071.63746
                  22104149.5084                                   22104146.3284
                                                                        49.2504
        38.2504
  -3417158.83646  -2629695.10244
                  23563913.8594                                   23563910.3164
                                                                        41.5004
        24.5004
  -6568427.66847  -5103817.66045
                  22869016.2424                                   22869012.3054
                                                                        45.0004
        31.7504
 09 10 20  1  0 30.0000000  0  8G02G05G10G25G13G29G16G07
  -1141035.58647   -869944.75446
                  21980893.3364                                   21980887.9844
                                                                        47.2504
        37.7504
 -26402806.21548 -20532699.99647
                  20829658.5784                                   20829655.2584
                                                                        52.7504
        42.7504
 -24712970.56648 -19223653.12946
                  20433020.2274                                   20433016.7624
                                                                        52.5004
        41.7504
 -14107775.18047 -10954987.49645
                  22500520.5704                                   22500516.3914
                                                                        44.5004
        31.5004
  -3611807.39547  -2796634.82044
                  22496955.4144                                   22496951.6884
                                                                        44.2504
        29.0004
 -17339885.77048 -13472886.53946
                  22091984.1724                                   22091980.9184
                                                                        49.2504
        38.0004
  -3507496.53146  -2700088.08244
                  23546723.3364                                   23546719.7734
                                                                        40.5004
        25.0004
  -6712600.73847  -5216160.28945
                  22841580.9454                                   22841577.2074
                                                                        45.0004
        32.5004
 09 10 20  1  1  0.0000000  0  8G02G05G10G25G13G29G16G07
  -1138511.93748   -867978.30946
                  21981374.1094                                   21981368.4224
                                                                        48.2504
        36.7504
 -26532273.36748 -20633583.57047
                  20805022.2504                                   20805018.2624
                                                                        53.0004
        43.0004
 -24819623.59848 -19306759.40246
                  20412724.8674                                   20412721.2664
                                                                        52.2504
        41.5004
 -14193515.09847 -11021797.80945
                  22484204.6094                                   22484201.0124
                                                                        45.0004
        31.2504
  -3613434.89147  -2797903.01644
                  22496645.6024                                   22496641.7114
                                                                        44.0004
        28.5004
 -17403218.93048 -13522237.05546
                  22079932.4384                                   22079929.2034
                                                                        49.2504
        38.0004
  -3597222.14846  -2770004.13344
                  23529649.1334                                   23529645.6724
                                                                        41.2504
        24.5004
  -6856250.02347  -5328094.75445
                  22814245.3984                                   22814241.4654
                                                                        46.0004
        31.7504
 09 10 20  1  1 30.0000000  0  8G02G05G10G25G13G29G16G07
  -1135602.84848   -865711.51246
                  21981927.5554                                   21981922.0784
                                                                        48.0004
        37.0004
 -26661240.12548 -20734077.02047
                  20780480.5394                                   20780476.9184
                                                                        52.5004
        43.2504
 -24925709.51648 -19389423.78946
                  20392537.4694                                   20392533.8364
                                                                        52.0004
        41.7504
 -14278666.40247 -11088149.46945
                  22468001.1804                                   22467997.1254
                                                                        45.0004
        31.5004
  -3614643.66847  -2798844.92244
                  22496415.2114                                   22496411.3164
                                                                        44.0004
        29.0004
 -17465955.34848 -13571122.63746
                  22067994.0864                                   22067991.0704
                                                                        49.0004
        38.0004
  -3686334.47346  -2839442.28543
                  23512692.1484                                   23512687.7624
                                                                        41.5004
        22.5004
  -6999371.71147  -5439618.13745
                  22787009.9224                                   22787006.2734
                                                                        46.0004
        32.0004
 09 10 20  1  2  0.0000000  0  8G02G05G10G25G13G29G16G07
  -1132308.74248   -863144.67246
                  21982554.5314                                   21982548.7464
                                                                        48.2504
        36.7504
 -26789704.48448 -20834179.06647
                  20756034.4064                                   20756030.7704
                                                                        52.7504
        43.0004
 -25031226.22348 -19471644.54346
                  20372457.9614                                   20372455.0514
                                                                        52.2504
        41.5004
 -14363227.41047 -11154041.14545
                  22451909.4534                                   22451905.3754
                                                                        44.2504
        30.7504
  -3615434.61347  -2799461.22744
                  22496264.3834                                   22496261.0394
                                                                        45.0004
        29.0004
 -17528093.91048 -13619542.30946
                  22056169.3524                                   22056166.4574
                                                                        48.5004
        38.2504
  -3774831.30946  -2908400.81244
                  23495851.3054                                   23495847.4774
                                                                        41.2504
        25.0004
  -7141962.14847  -5550727.55145
                  22759876.2584                                   22759872.0044
                                                                        46.0004
        32.2504
 09 10 20  1  2 30.0000000  0  8G02G05G10G25G13G29G16G07
  -1128632.72748   -860280.25046
                  21983253.8594                                   21983248.4104
                                                                        48.7504
        37.2504
 -26917665.62548 -20933889.00447
                  20731684.2814                                   20731680.4454
                                                                        52.5004
        42.7504
 -25136174.43448 -19553422.32447
                  20352487.3054                                   20352483.8364
                                                                        52.7504
        42.0004
 -14447199.02747 -11219473.58645
                  22435930.2894                                   22435926.0864
                                                                        45.5004
        31.5004
  -3615810.95347  -2799754.48844
                  22496192.9694                                   22496188.9964
                                                                        43.5004
        28.2504
 -17589636.13748 -13667497.25046
                  22044458.1644                                   22044455.2034
                                                                        49.0004
        38.2504
  -3862713.47746  -2976880.34844
                  23479128.1024                                   23479124.1564
                                                                        41.2504
        26.2504
  -7284019.95347  -5661421.93045
                  22732843.6484                                   22732839.2304
                                                                        47.0004
        32.2504
 09 10 20  1  3  0.0000000  0  8G02G05G10G25G13G29G16G07
  -1124575.94947   -857119.18446
                  21984025.8674                                   21984020.5864
                                                                        47.7504
        36.5004
 -27045121.60248 -21033205.33647
                  20707430.0634                                   20707426.2584
                                                                        53.2504
        42.7504
 -25240552.35548 -19634755.69946
                  20332624.7584                                   20332621.4884
                                                                        52.7504
        41.7504
 -14530580.40647 -11284446.09845
                  22420063.1724                                   22420058.9184
                                                                        44.5004
        30.7504
  -3615774.60547  -2799726.15244
                  22496199.9224                                   22496195.8834
                                                                        43.2504
        29.2504
 -17650582.39848 -13714987.81246
                  22032860.3284                                   22032857.3014
                                                                        48.5004
        37.5004
  -3949980.16846  -3044880.34044
                  23462521.5084                                   23462517.4654
                                                                        41.7504
        25.2504
  -7425542.34447  -5771699.10545
                  22705912.9454                                   22705908.6844
                                                                        46.0004
        32.2504
 09 10 20  1  3 30.0000000  0  8G02G05G10G25G13G29G16G07
  -1120138.82848   -853661.70346
                  21984870.1094                                   21984864.7624
                                                                        48.2504
        37.0004
 -27172069.66448 -21132125.90647
                  20683272.5944                                   20683268.9144
                                                                        52.7504
        43.2504
 -25344358.13748 -19715643.29747
                  20312871.5084                                   20312867.5784
                                                                        52.0004
        42.2504
 -14613370.08647 -11348957.52345
                  22404309.3134                                   22404305.1094
                                                                        44.5004
        31.0004
  -3615326.74647  -2799377.21144
                  22496285.1804                                   22496281.2854
                                                                        44.7504
        27.5004
 -17710931.87948 -13762013.41446
                  22021376.3134                                   22021373.1094
                                                                        49.0004
        37.5004
  -4036629.61347  -3112399.35544
                  23446032.7194                                   23446028.5044
                                                                        42.0004
        26.0004
  -7566525.44147  -5881556.03945
                  22679084.7664                                   22679080.3204
                                                                        46.0004
        32.7504
 09 10 20  1  4  0.0000000  0  8G02G05G10G25G13G29G16G07
  -1115324.86348   -849910.56246
                  21985786.4924                                   21985780.7664
                                                                        48.0004
        36.5004
 -27298510.28548 -21230651.04747
                  20659211.8754                                   20659208.1604
                                                                        52.5004
        43.0004
 -25447592.79348 -19796085.86347
                  20293226.4384                                   20293223.0594
                                                                        52.7504
        42.5004
 -14695569.36347 -11413008.94145
                  22388666.9774                                   22388663.5394
                                                                        45.7504
        31.0004
  -3614470.88347  -2798710.31244
                  22496448.6024                                   22496444.2274
                                                                        44.7504
        28.0004
 -17770686.50448 -13808575.51246
                  22010005.8594                                   22010001.9614
                                                                        49.2504
        37.7504
  -4122663.28147  -3179438.55544
                  23429660.8594                                   23429657.2384
                                                                        42.0004
        24.0004
  -7706968.28947  -5990991.98845
                  22652359.2894                                   22652354.9774
                                                                        47.0004
        32.0004
 09 10 20  1  4 30.0000000  0  8G02G05G10G25G13G29G16G07
  -1110133.36347   -845865.24646
                  21986774.4384                                   21986768.8524
                                                                        47.7504
        36.7504
 -27424439.77348 -21328777.94947
                  20635248.3284                                   20635244.5554
                                                                        53.0004
        43.2504
 -25550252.82048 -19876080.62546
                  20273690.7274                                   20273687.2274
                                                                        53.0004
        41.5004
 -14777175.52747 -11476598.12945
                  22373137.7584                                   22373133.8014
                                                                        45.5004
        31.0004
  -3613207.41447  -2797725.80544
                  22496689.2034                                   22496684.2704
                                                                        44.0004
        27.7504
 -17829844.42248 -13854672.62546
                  21998748.3594                                   21998745.0004
                                                                        49.0004
        38.0004
  -4208078.16846  -3245995.57844
                  23413406.4924                                   23413402.9614
                                                                        41.7504
        25.5004
  -7846866.26247  -6100003.36345
                  22625737.0704                                   22625733.2234
                                                                        46.0004
        31.7504
 09 10 20  1  5  0.0000000  0  8G02G05G10G25G13G29G16G07
  -1104565.59848   -841526.73446
                  21987834.0474                                   21987828.4454
                                                                        48.7504
        37.0004
 -27549855.36748 -21426504.50047
                  20611382.8834                                   20611378.9804
                                                                        52.5004
        42.7504
 -25652336.66448 -19955626.45346
                  20254264.8284                                   20254261.0164
                                                                        52.2504
        41.7504
 -14858187.77347 -11539724.57445
                  22357721.5474                                   22357717.6174
                                                                        46.0004
        31.2504
  -3611536.94547  -2796424.11744
                  22497006.6884                                   22497002.1454
                                                                        45.5004
        28.5004
 -17888405.20348 -13900304.32446
                  21987604.6174                                   21987601.3244
                                                                        48.5004
        37.7504
  -4292873.12546  -3312069.53544
                  23397270.9144                                   23397267.3484
                                                                        40.5004
        25.0004
  -7986215.81647  -6208587.39845
                  22599219.8834                                   22599215.8244
                                                                        46.2504
        31.7504
 09 10 20  1  5 30.0000000  0  8G02G05G10G25G13G29G16G07
  -1098625.43748   -836898.05546
                  21988964.1954                                   21988958.7624
                                                                        49.0004
        37.0004
 -27674758.00048 -21523831.22347
                  20587614.2114                                   20587610.3674
                                                                        53.0004
        42.7504
 -25753846.01648 -20034724.64147
                  20234948.2664                                   20234944.5354
                                                                        52.5004
        42.0004
 -14938607.96147 -11602389.67645
                  22342418.2034                                   22342414.5864
                                                                        46.2504
        31.0004
  -3609464.41047  -2794809.13744
                  22497400.6484                                   22497396.7464
                                                                        44.2504
        27.7504
 -17946371.80148 -13945473.04746
                  21976573.7814                                   21976570.7504
                                                                        48.2504
        37.5004
  -4377050.26647  -3377662.11344
                  23381252.1564                                   23381249.0434
                                                                        42.5004
        24.5004
  -8125017.17247  -6316744.30945
                  22572806.9304                                   22572802.7424
                                                                        46.2504
        32.7504
 09 10 20  1  6  0.0000000  0  8G02G05G10G25G13G29G16G07
  -1092316.34448   -831981.88746
                  21990164.8524                                   21990159.1334
                                                                        48.7504
        36.0004
 -27799147.76248 -21620758.28947
                  20563943.7894                                   20563939.7624
                                                                        52.5004
        43.2504
 -25854781.45348 -20113375.62946
                  20215740.7664                                   20215737.5274
                                                                        52.5004
        41.7504
 -15018437.48047 -11664594.51645
                  22327227.1804                                   22327223.5204
                                                                        45.7504
        30.7504
  -3606993.85547  -2792884.04744
                  22497870.5784                                   22497867.0164
                                                                        44.0004
        27.5004
 -18003746.42248 -13990180.53546
                  21965655.8594                                   21965652.5634
                                                                        48.2504
        37.5004
  -4460610.58647  -3442774.03144
                  23365351.2424                                   23365348.0744
                                                                        42.2504
        26.2504
  -8263269.44147  -6424473.33245
                  22546498.0864                                   22546494.3134
                                                                        45.7504
        32.5004
 09 10 20  1  6 30.0000000  0  8G02G05G10G25G13G29G16G07
    489782.30548    400822.21545
                  22291228.2034                                   22291222.4104
                                                                        48.7504
        35.5004
 -26347596.61348 -20489679.45747
                  20840164.9694                                   20840161.0394
                                                                        52.5004
        43.2504
 -24379716.76248 -18963974.58246
                  20496436.2274                                   20496432.7704
                                                                        52.5004
        41.0004
 -13522251.03147 -10498734.94145
                  22611942.2114                                   22611938.4804
                                                                        46.5004
        31.0004
  -2028704.71547  -1563048.35544
                  22798209.2734                                   22798205.3204
                                                                        44.5004
        28.2504
 -16485105.61348 -12806824.04746
                  22254643.7584                                   22254640.6604
                                                                        48.0004
        38.0004
  -2968128.75047  -2279801.14544
                  23649361.4694                                   23649357.4144
                                                                        42.0004
        25.5004
  -6825542.88747  -5304166.92645
                  22820088.7274                                   22820084.4144
                                                                        46.2504
        32.5004
 09 10 20  1  7  0.0000000  0  8G02G05G10G25G13G29G16G07
    496828.52047    406312.77746
                  22292568.7664                                   22292563.3444
                                                                        47.7504
        36.2504
 -26470952.10948 -20585800.65647
                  20816691.2114                                   20816687.3094
                                                                        52.0004
        42.5004
 -24479498.49248 -19041726.59047
                  20477448.3674                                   20477444.6724
                                                                        52.7504
        42.0004
 -13600894.35547 -10560015.41045
                  22596976.7584                                   22596973.1334
                                                                        45.7504
        31.5004
  -2025440.12947  -1560504.52044
                  22798830.5864                                   22798827.1884
                                                                        45.0004
        28.2504
 -16541293.93047 -12850607.16446
                  22243951.3204                                   22243947.8244
                                                                        47.7504
        37.5004
  -3050450.14147  -2343947.65244
                  23633696.3674                                   23633692.3714
                                                                        42.0004
        26.7504
  -6962684.96147  -5411030.85545
                  22793991.7114                                   22793987.6094
                                                                        46.5004
        33.0004
 09 10 20  1  7 30.0000000  0  8G02G05G10G25G13G29G16G07
    504236.69548    412085.36345
                  22293978.6334                                   22293973.1844
                                                                        48.2504
        35.2504
 -26593792.12948 -20681520.14847
                  20793315.4144                                   20793311.7584
                                                                        52.7504
        42.7504
 -24578705.62948 -19119030.83646
                  20458569.6094                                   20458566.1604
                                                                        53.0004
        41.5004
 -13678948.22747 -10620836.59445
                  22582123.8674                                   22582119.9144
                                                                        46.5004
        31.2504
  -2021785.12547  -1557656.46544
                  22799526.4924                                   22799522.2934
                                                                        45.7504
        27.5004
 -16596893.72348 -12893931.69146
                  22233370.9384                                   22233367.7034
                                                                        48.2504
        37.7504
  -3132155.73047  -2407614.32844
                  23618148.0234                                   23618144.4104
                                                                        43.0004
        27.0004
  -7099272.26647  -5517462.52045
                  22767999.9144                                   22767995.2584
                                                                        46.7504
        32.2504
 09 10 20  1  8  0.0000000  0  8G02G05G10G25G13G29G16G07
    512004.19948    418137.98046
                  22295456.6644                                   22295451.4304
                                                                        48.2504
        36.0004
 -26716116.32448 -20776837.73047
                  20770037.7664                                   20770034.0394
                                                                        52.5004
        43.2504
 -24677338.79348 -19195887.82446
                  20439800.7114                                   20439797.0394
                                                                        53.0004
        41.5004
 -13756413.53147 -10681199.18045
                  22567382.4224                                   22567378.4574
                                                                        45.2504
        31.2504
  -2017743.36347  -1554507.03144
                  22800295.7114                                   22800290.9964
                                                                        45.0004
        27.0004
 -16651906.51248 -12936798.79346
                  22222902.5554                                   22222899.1214
                                                                        48.0004
        38.0004
  -3213246.08246  -2470801.57044
                  23602717.4144                                   23602713.0704
                                                                        41.0004
        26.0004
  -7235303.36747  -5623460.78945
                  22742113.9694                                   22742109.9304
                                                                        46.2504
        32.0004
 09 10 20  1  8 30.0000000  0  8G02G05G10G25G13G29G16G07
    520131.28947    424470.73046
                  22297003.4064                                   22296997.9494
                                                                        47.0004
        36.2504
 -26837921.03148 -20871750.56247
                  20746859.2034                                   20746855.5824
                                                                        52.7504
        43.5004
 -24775395.10248 -19272295.33646
                  20421141.2034                                   20421137.5594
                                                                        53.0004
        41.5004
 -13833287.93047 -10741101.30145
                  22552753.5944                                   22552749.6524
                                                                        46.0004
        31.5004
  -2013315.30547  -1551056.58644
                  22801137.9614                                   22801133.7854
                                                                        42.0004
        27.5004
 -16706330.92648 -12979207.51246
                  22212546.0314                                   22212542.8754
                                                                        48.0004
        38.5004
  -3293718.98047  -2533507.70744
                  23587403.6644                                   23587399.5944
                                                                        42.0004
        26.0004
  -7370773.84447  -5729022.18445
                  22716334.7194                                   22716330.5394
                                                                        46.0004
        32.5004
 09 10 20  1  9  0.0000000  0  8G02G05G10G25G13G29G16G07
    528615.35548    431081.66446
                  22298618.0234                                   22298612.7504
                                                                        48.2504
        36.5004
 -26959205.78148 -20966258.30547
                  20723779.7814                                   20723775.9694
                                                                        52.0004
        42.7504
 -24872874.45748 -19348253.26646
                  20402591.3834                                   20402587.8204
                                                                        53.0004
        41.5004
 -13909572.21147 -10800543.60945
                  22538237.0164                                   22538233.8054
                                                                        46.0004
        31.5004
  -2008502.85547  -1547306.60544
                  22802053.9924                                   22802049.8954
                                                                        43.5004
        27.5004
 -16760168.43448 -13021158.88746
                  22202300.7734                                   22202297.7894
                                                                        48.0004
        38.2504
  -3373575.11746  -2595733.25044
                  23572207.4224                                   23572203.3014
                                                                        41.2504
        24.2504
  -7505682.19947  -5834145.55945
                  22690662.7114                                   22690658.1994
                                                                        46.5004
        33.0004
 09 10 20  1  9 30.0000000  0  8G02G05G10G25G13G29G16G07
    537452.21547    437967.49246
                  22300299.8674                                   22300294.2664
                                                                        47.5004
        36.7504
 -27079971.13348 -21060361.25447
                  20700798.7424                                   20700795.2034
                                                                        52.5004
        43.0004
 -24969778.72748 -19423763.07846
                  20384151.0784                                   20384147.3674
                                                                        52.0004
        41.2504
 -13985268.48047 -10859527.70345
                  22523832.8444                                   22523828.8554
                                                                        46.7504
        31.0004
  -2003311.60547  -1543261.48844
                  22803041.6804                                   22803037.7854
                                                                        43.2504
        26.5004
 -16813421.85247 -13062655.06246
                  22192167.0314                                   22192164.0234
                                                                        46.5004
        38.2504
  -3452816.07046  -2657479.42244
                  23557128.6334                                   23557124.5004
                                                                        41.5004
        25.5004
  -7640028.69147  -5938831.11745
                  22665097.0164                                   22665093.0044
                                                                        47.5004
        33.2504
 09 10 20  1 10  0.0000000  0  8G02G05G10G25G13G29G16G07
    546637.18447    445124.59046
                  22302047.2894                                   22302042.2424
                                                                        47.2504
        36.2504
 -27200218.96948 -21154060.84447
                  20677916.4614                                   20677912.8324
                                                                        51.7504
        43.2504
 -25066110.34848 -19498826.78146
                  20365819.9534                                   20365816.3524
                                                                        52.0004
        41.7504
 -14060379.76647 -10918055.98045
                  22509539.4384                                   22509535.8054
                                                                        46.2504
        31.7504
  -1997746.28947  -1538924.87544
                  22804100.8134                                   22804096.5354
                                                                        43.0004
        27.0004
 -16866095.03947 -13103699.13746
                  22182143.6024                                   22182140.8364
                                                                        46.7504
        38.0004
  -3531445.05946  -2718748.73844
                  23542165.8284                                   23542161.6524
                                                                        41.0004
        25.5004
  -7773813.40647  -6043078.94145
                  22639638.8364                                   22639634.6844
                                                                        47.7504
        33.5004
 09 10 20  1 10 30.0000000  0  8G02G05G10G25G13G29G16G07
    556166.37547    452549.90245
                  22303860.7344                                   22303855.2584
                                                                        47.7504
        35.2504
 -27319949.98048 -21247357.69147
                  20655132.2974                                   20655128.4304
                                                                        52.0004
        43.2504
 -25161870.86348 -19573445.50046
                  20347597.4144                                   20347593.5554
                                                                        53.2504
        41.5004
 -14134908.10947 -10976130.00045
                  22495357.0554                                   22495353.3714
                                                                        46.5004
        31.0004
  -1991812.04347  -1534300.81644
                  22805229.6254                                   22805225.8524
                                                                        43.7504
        27.5004
 -16918190.13348 -13144292.65646
                  22172230.4384                                   22172226.9844
                                                                        48.7504
        38.0004
  -3609464.05947  -2779542.74244
                  23527319.6884                                   23527315.2304
                                                                        42.0004
        24.7504
  -7907036.51247  -6146889.14145
                  22614287.5554                                   22614282.9104
                                                                        47.2504
        33.0004
 09 10 20  1 11  0.0000000  0  8G02G05G10G25G13G29G16G07
    566040.44148    460243.96545
                  22305740.0554                                   22305734.0664
                                                                        48.7504
        34.5004
 -27439160.53548 -21340249.03147
                  20632447.1334                                   20632443.7384
                                                                        52.0004
        43.2504
 -25257057.32048 -19647616.88346
                  20329483.8674                                   20329480.9454
                                                                        52.7504
        41.5004
 -14208851.09447 -11033747.92645
                  22481286.4064                                   22481282.3404
                                                                        46.5004
        31.2504
  -1985507.40247  -1529388.11744
                  22806429.4774                                   22806425.4654
                                                                        44.5004
        27.0004
 -16969707.03547 -13184435.69946
                  22162426.8524                                   22162423.9224
                                                                        47.0004
        37.5004
  -3686870.54346  -2839859.48444
                  23512588.8674                                   23512585.1414
                                                                        41.7504
        24.0004
  -8039693.64847  -6250258.34445
                  22589043.6644                                   22589039.0744
                                                                        47.0004
        32.7504
 09 10 20  1 11 30.0000000  0  8G02G05G10G25G13G29G16G07
    576254.15647    468202.71945
                  22307683.1254                                   22307677.6724
                                                                        47.7504
        34.7504
 -27557852.38748 -21432736.18747
                  20609861.1644                                   20609857.4454
                                                                        52.2504
        43.7504
 -25351672.37948 -19721343.02046
                  20311479.5634                                   20311476.3984
                                                                        52.5004
        41.7504
 -14282212.25047 -11090912.46545
                  22467326.2424                                   22467322.4494
                                                                        45.2504
        31.5004
  -1978838.28947  -1524191.40644
                  22807698.7584                                   22807694.9304
                                                                        42.7504
        27.2504
 -17020648.89147 -13224130.59446
                  22152733.0554                                   22152729.6804
                                                                        47.7504
        37.5004
  -3763667.77346  -2899701.44944
                  23497974.8204                                   23497970.7664
                                                                        41.5004
        25.7504
  -8171785.45347  -6353187.01245
                  22563907.7504                                   22563902.9804
                                                                        47.0004
        32.5004
 09 10 20  1 12  0.0000000  0  8G02G05G10G25G13G29G16G07
    586802.16848    476421.95745
                  22309690.6804                                   22309685.0984
                                                                        48.2504
        35.2504
 -27676027.85948 -21524820.97747
                  20587372.5164                                   20587368.9734
                                                                        52.0004
        43.0004
 -25445718.31648 -19794625.62546
                  20293583.1644                                   20293580.1564
                                                                        52.2504
        41.5004
 -14354994.63347 -11147626.00045
                  22453476.1954                                   22453472.1884
                                                                        46.2504
        30.5004
  -1971810.61747  -1518715.30144
                  22809036.5084                                   22809032.0354
                                                                        45.0004
        27.5004
 -17071019.81248 -13263380.61746
                  22143147.5314                                   22143144.0394
                                                                        48.5004
        36.7504
  -3839859.04347  -2959071.27044
                  23483476.8674                                   23483472.2584
                                                                        42.0004
        25.0004
  -8303313.21147  -6455676.15245
                  22538878.1564                                   22538874.0784
                                                                        46.7504
        32.5004
 09 10 20  1 12 30.0000000  0  8G02G05G10G25G13G29G16G07
    597682.09048    484899.81645
                  22311761.3754                                   22311755.6174
                                                                        48.2504
        35.5004
 -27793685.90248 -21616502.55547
                  20564983.4924                                   20564980.0044
                                                                        52.0004
        43.2504
 -25539195.19548 -19867464.78946
                  20275795.3444                                   20275792.1294
                                                                        52.2504
        41.7504
 -14427199.09447 -11203889.24245
                  22439735.7504                                   22439732.2154
                                                                        46.0004
        30.2504
  -1964426.73447  -1512961.62544
                  22810440.9144                                   22810436.7934
                                                                        44.0004
        26.7504
 -17120820.94148 -13302186.59846
                  22133671.0634                                   22133667.7154
                                                                        48.5004
        37.0004
  -3915444.77047  -3017969.21544
                  23469093.5474                                   23469089.1254
                                                                        42.0004
        24.5004
  -8434275.12547  -6557724.41445
                  22513957.2344                                   22513952.9884
                                                                        47.0004
        32.5004
 09 10 20  1 13  0.0000000  0  8G02G05G10G25G13G29G16G07
    608894.33648    493636.62945
                  22313894.8134                                   22313889.1954
                                                                        48.5004
        35.7504
 -27910823.53948 -21707778.61347
                  20542692.7114                                   20542689.1054
                                                                        52.2504
        43.2504
 -25632100.65648 -19939858.61746
                  20258115.8754                                   20258112.5984
                                                                        52.5004
        41.2504
 -14498823.42647 -11259700.40245
                  22426106.6094                                   22426102.5274
                                                                        47.0004
        30.2504
  -1956687.38747  -1506930.96544
                  22811913.8524                                   22811910.1484
                                                                        43.5004
        24.7504
 -17170051.39548 -13340547.87546
                  22124302.4224                                   22124298.9454
                                                                        48.5004
        37.5004
  -3990422.70346  -3076393.56644
                  23454825.3524                                   23454820.8524
                                                                        41.2504
        24.7504
  -8564667.14147  -6659328.57845
                  22489143.8444                                   22489139.9774
                                                                        47.0004
        32.5004
 09 10 20  1 13 30.0000000  0  8G02G05G10G25G13G29G16G07
    620437.47748    502631.27745
                  22316091.1334                                   22316085.7344
                                                                        48.7504
        35.5004
 -28027438.80548 -21798647.67247
                  20520501.9064                                   20520497.9654
                                                                        52.5004
        43.5004
 -25724433.82048 -20011806.55146
                  20240545.7974                                   20240542.0314
                                                                        53.0004
        41.7504
 -14569867.67647 -11315059.55545
                  22412587.2974                                   22412583.1024
                                                                        46.5004
        31.5004
  -1948593.99247  -1500624.43044
                  22813453.9534                                   22813449.6094
                                                                        43.7504
        25.7504
 -17218711.50448 -13378464.77346
                  22115042.6174                                   22115039.4924
                                                                        48.7504
        37.0004
  -4064792.91047  -3134344.37144
                  23440672.9224                                   23440668.9574
                                                                        42.7504
        26.0004
  -8694487.06647  -6760486.96945
                  22464440.2584                                   22464436.0474
                                                                        47.5004
        32.5004
 09 10 20  1 14  0.0000000  0  8G02G05G10G25G13G29G16G07
    632306.61347    511879.94545
                  22318349.6804                                   22318344.5204
                                                                        47.0004
        34.7504
 -28143533.63748 -21889111.17247
                  20498409.6174                                   20498406.0044
                                                                        52.2504
        43.5004
 -25816197.09048 -20083310.38346
                  20223083.7814                                   20223080.0044
                                                                        52.7504
        41.7504
 -14640334.79747 -11369968.99245
                  22399177.9224                                   22399174.1564
                                                                        46.5004
        31.0004
  -1940151.75847  -1494046.07444
                  22815060.2974                                   22815056.2624
                                                                        43.0004
        25.5004
 -17266805.71548 -13415940.73046
                  22105890.7584                                   22105887.5664
                                                                        48.2504
        37.5004
  -4138558.35947  -3191823.93444
                  23426635.8054                                   23426631.4774
                                                                        42.5004
        26.0004
  -8823735.27747  -6861199.85245
                  22439845.2974                                   22439841.0984
                                                                        47.0004
        33.5004
 09 10 20  1 14 30.0000000  0  8G02G05G10G25G13G29G16G07
    644498.12947    521379.80545
                  22320670.0084                                   22320664.9884
                                                                        47.5004
        35.2504
 -28259108.68748 -21979169.65647
                  20476416.2664                                   20476412.7504
                                                                        52.0004
        43.5004
 -25907391.94948 -20154371.27747
                  20205729.6804                                   20205726.3324
                                                                        51.5004
        42.0004
 -14710226.64547 -11424430.14845
                  22385877.8054                                   22385874.0234
                                                                        46.5004
        31.0004
  -1931364.77047  -1487199.06244
                  22816732.5164                                   22816728.7814
                                                                        44.5004
        27.5004
 -17314336.06648 -13452977.30946
                  22096846.0864                                   22096842.3404
                                                                        49.0004
        38.2504
  -4211720.74247  -3248833.57044
                  23412713.6174                                   23412709.4024
                                                                        42.2504
        25.5004
  -8952411.43447  -6961466.96945
                  22415359.3524                                   22415355.0664
                                                                        47.0004
        33.0004
 09 10 20  1 15  0.0000000  0  8G02G05G10G25G13G29G16G07
    657010.71547    531129.86345
                  22323050.7344                                   22323045.4184
                                                                        47.5004
        35.2504
 -28374162.02048 -22068821.58647
                  20454522.4614                                   20454518.6524
                                                                        51.5004
        43.0004
 -25998017.28148 -20224988.34446
                  20188484.3204                                   20188480.5864
                                                                        51.7504
        41.5004
 -14779543.41447 -11478443.25445
                  22372687.2274                                   22372683.3524
                                                                        46.7504
        31.5004
  -1922235.51647  -1480085.35244
                  22818470.3984                                   22818465.7504
                                                                        44.2504
        26.5004
 -17361303.66048 -13489575.38346
                  22087908.4384                                   22087904.5514
                                                                        49.5004
        37.0004
  -4284279.87547  -3305373.13744
                  23398905.7584                                   23398902.0904
                                                                        43.0004
        24.2504
  -9080513.43047  -7061286.70745
                  22390982.3134                                   22390977.5904
                                                                        46.7504
        33.0004
 09 10 20  1 15 30.0000000  0  9G02G21G05G10G25G13G29G16G07
   2245259.65247   1768726.41045
                  22625284.9144                                   22625279.3134
                                                                        47.7504
        34.5004
  13932795.48457  10986633.59053
                  24927639.4774                                   24927635.7114
                                                                        42.0004
        21.7504
 -26913270.59448 -20930464.63747
                  20732520.6174                                   20732516.9804
                                                                        52.0004
        43.7504
 -24512651.92248 -19067560.73046
                  20471139.5864                                   20471136.0394
                                                                        52.0004
        41.5004
 -13272864.63347 -10304407.83645
                  22659398.6094                                   22659394.6094
                                                                        46.2504
        31.2504
   -337347.89547   -245107.98444
                  23120063.7814                                   23120059.8984
                                                                        43.7504
        26.7504
 -15832289.75448 -12298135.92246
                  22378869.6334                                   22378866.1024
                                                                        49.0004
        37.2504
  -2780815.68447  -2133842.60544
                  23685005.9694                                   23685001.8754
                                                                        42.5004
        25.2504
  -7632616.74247  -5933055.50845
                  22666507.5084                                   22666503.3754
                                                                        47.0004
        33.0004
 09 10 20  1 16  0.0000000  0  9G02G21G05G10G25G13G29G16G07
   2258400.81347   1778966.27745
                  22627785.2034                                   22627779.9804
                                                                        47.0004
        34.5004
  13740580.73846  10836855.96143
                  24891061.5944                                   24891057.7704
                                                                        40.0004
        22.5004
 -27027284.22348 -21019306.40247
                  20710824.5234                                   20710821.0904
                                                                        51.5004
        43.2504
 -24602144.59848 -19137295.25047
                  20454109.7894                                   20454106.3954
                                                                        51.7504
        42.0004
 -13341038.36347 -10357530.23045
                  22646425.5234                                   22646421.9304
                                                                        46.0004
        31.7504
   -327546.69947   -237470.69944
                  23121929.5314                                   23121925.0394
                                                                        44.0004
        26.5004
 -15878141.37548 -12333864.43446
                  22370144.6954                                   22370141.2194
                                                                        49.0004
        37.0004
  -2852176.09047  -2189448.13344
                  23671426.6644                                   23671422.2854
                                                                        42.0004
        26.5004
  -7759570.98847  -6031980.89145
                  22642348.9304                                   22642344.3754
                                                                        47.0004
        33.0004
 09 10 20  1 16 30.0000000  0  9G02G21G05G10G25G13G29G16G07
   2271846.33247   1789443.30145
                  22630344.1804                                   22630338.1954
                                                                        46.7504
        34.5004
  13548468.92246  10687158.61343
                  24854503.3754                                   24854499.9964
                                                                        38.2504
        22.5004
 -27140783.41448 -21107747.32047
                  20689226.4694                                   20689222.4774
                                                                        52.2504
        43.5004
 -24691077.37148 -19206593.52746
                  20437186.4454                                   20437183.2504
                                                                        52.0004
        41.5004
 -13408648.16447 -10410213.17645
                  22633559.6174                                   22633556.3404
                                                                        46.0004
        30.5004
   -317420.11747   -229579.85944
                  23123856.0474                                   23123852.3524
                                                                        42.7504
        26.2504
 -15923443.48048 -12369164.76646
                  22361523.6414                                   22361520.3634
                                                                        48.7504
        37.5004
  -2922944.44947  -2244592.29344
                  23657959.5944                                   23657955.2854
                                                                        43.0004
        25.2504
  -7885955.80947  -6130462.56245
                  22618298.8754                                   22618294.5274
                                                                        46.5004
        33.5004
