     2.11           OBSERVATION DATA    G (GPS)             RINEX VERSION / TYPE
teqc  2019Feb25                         20221121 12:27:56UTCPGM / RUN BY / DATE
OSX ker:10.11.6|Core i5|gcc 4.3 -m64|OSX ker:10.10+|=+      COMMENT
BIT 2 OF LLI FLAGS DATA COLLECTED UNDER A/S CONDITION       COMMENT
04712750                                                    MARKER NAME
2750                                                        MARKER NUMBER
-Unknown-           -Unknown-                               OBSERVER / AGENCY
0220400471          TRIMBLE R7          2.30                REC # / TYPE / VERS
-Unknown-           TRM39105.00     NONE                    ANT # / TYPE
  1449461.2702 -1709240.0343  5952444.3762                  APPROX POSITION XYZ
        0.0000        0.0000        0.0000                  ANTENNA: DELTA H/E/N
     1     1                                                WAVELENGTH FACT L1/2
    20    L1    L2    L5    L6    L7    L8    C1    P1    C2# / TYPES OF OBSERV
          P2    C5    C6    C7    C8    S1    S2    S5    S6# / TYPES OF OBSERV
          S7    S8                                          # / TYPES OF OBSERV
    30.0000                                                 INTERVAL
    15                                                      LEAP SECONDS
Forced Modulo Decimation to 30 seconds                      COMMENT
 SNR is mapped to RINEX snr flag value [0-9]                COMMENT
  L1 & L2: min(max(int(snr_dBHz/6), 0), 9)                  COMMENT
teqc edited: Beidou # 1 - 37 excluded                       COMMENT
  2009    10     2     0     0    0.0000000     GPS         TIME OF FIRST OBS
                                                            END OF HEADER
 09 10  2  0  0  0.0000000  0  8G02G04G12G13G20G23G30G31
 -17503384.92648 -13603557.05947
                  21100200.7034                                   21100196.1644
                                                                        52.0004
        42.5004
  -9772967.17648  -7591739.81646
                  20766525.5864                                   20766522.9454
                                                                        51.7504
        41.5004
  -3826463.20347  -2970162.93745
                  23811420.0084                                   23811416.9614
                                                                        46.0004
        31.2504
 -19762059.28948 -15324988.29345
                  22295739.6174                                   22295735.7974
                                                                        49.5004
        33.5004
    270979.21147    212683.85243
                  24256479.4844                                   24256476.4064
                                                                        42.2504
        20.2504
 -12429673.16448  -9656547.48045
                  21937759.6414                                   21937753.5904
                                                                        50.2504
        35.0004
  -9586812.14547  -7446562.13744
                  22801895.3594                                   22801893.4774
                                                                        45.7504
        29.2504
  -9704104.17646  -7541620.55544
                  23895864.8204                                   23895860.9024
                                                                        41.2504
        29.0004
 09 10  2  0  0 30.0000000  0  8G02G04G12G13G20G23G30G31
 -17650010.53548 -13717810.68747
                  21072299.0864                                   21072294.1604
                                                                        52.7504
        42.5004
  -9836887.55548  -7641547.86747
                  20754361.7814                                   20754359.0434
                                                                        51.5004
        42.0004
  -3837250.93047  -2978568.90645
                  23809366.8054                                   23809363.9844
                                                                        45.5004
        30.0004
 -19931500.64148 -15457020.46545
                  22263495.5784                                   22263492.0904
                                                                        48.7504
        34.0004
    288235.88346    226130.66443
                  24259763.6174                                   24259759.8984
                                                                        39.2504
        19.0004
 -12516267.21948  -9724023.37545
                  21921280.6884                                   21921275.2424
                                                                        50.5004
        35.5004
  -9643440.58247  -7490688.19145
                  22791119.7584                                   22791117.0514
                                                                        46.0004
        30.0004
  -9765843.45746  -7589729.02044
                  23884115.5394                                   23884112.1524
                                                                        41.2504
        28.5004
 09 10  2  0  1  0.0000000  0  8G02G04G12G13G20G23G30G31
 -17796140.87948 -13831678.45747
                  21044491.1484                                   21044486.1844
                                                                        53.5004
        42.2504
  -9900245.89848  -7690917.96547
                  20742305.1334                                   20742302.4844
                                                                        53.0004
        42.5004
  -3847636.05147  -2986661.23445
                  23807390.7974                                   23807387.6294
                                                                        46.2504
        30.5004
 -20100424.06248 -15588649.05145
                  22231350.9064                                   22231347.3164
                                                                        49.0004
        32.2504
    305673.02346    239718.02343
                  24263081.2194                                   24263078.1254
                                                                        37.2504
        18.2504
 -12602211.10248  -9790992.60945
                  21904926.4534                                   21904920.8284
                                                                        50.7504
        34.7504
  -9699415.97747  -7534305.42645
                  22780467.0004                                   22780465.5314
                                                                        46.0004
        30.0004
  -9826997.10547  -7637381.21544
                  23872479.1804                                   23872474.7074
                                                                        44.5004
        28.5004
 09 10  2  0  1 30.0000000  0  8G02G04G12G13G20G23G30G31
 -17941774.42648 -13945159.22746
                  21016777.9304                                   21016772.6684
                                                                        52.5004
        41.7504
  -9963042.94148  -7739850.66447
                  20730355.1804                                   20730352.6954
                                                                        52.7504
        42.0004
  -3857620.90647  -2994441.64145
                  23805491.0394                                   23805487.4844
                                                                        46.5004
        30.5004
 -20268826.28148 -15719871.48845
                  22199304.7034                                   22199301.5164
                                                                        48.5004
        32.7504
    323289.37546    253444.98443
                  24266432.8754                                   24266430.8834
                                                                        37.5004
        19.2504
 -12687504.54348  -9857455.00045
                  21888695.6414                                   21888690.2304
                                                                        50.0004
        35.5004
  -9754740.33247  -7577415.31245
                  22769939.2734                                   22769937.6844
                                                                        46.5004
        30.2504
  -9887565.66847  -7684577.48044
                  23860953.1334                                   23860949.2424
                                                                        42.7504
        28.5004
 09 10  2  0  2  0.0000000  0  8G02G04G12G13G20G23G30G31
 -18086909.42248 -14058251.74247
                  20989159.8364                                   20989155.0594
                                                                        52.7504
        42.0004
 -10025279.09848  -7788346.32847
                  20718511.9384                                   20718509.2274
                                                                        51.2504
        42.0004
  -3867209.07047  -3001912.90645
                  23803665.9144                                   23803662.9454
                                                                        46.5004
        30.2504
 -20436704.48848 -15850685.59845
                  22167358.4774                                   22167355.1414
                                                                        49.2504
        32.7504
    341082.68846    267309.85943
                  24269819.6724                                   24269817.0274
                                                                        40.0004
        21.7504
 -12772147.68448  -9923410.71545
                  21872588.5554                                   21872583.0354
                                                                        50.7504
        35.5004
  -9809415.22347  -7620019.14145
                  22759535.6564                                   22759533.7624
                                                                        45.5004
        30.0004
  -9947550.41046  -7731318.78544
                  23849537.8364                                   23849534.5944
                                                                        41.0004
        28.0004
 09 10  2  0  2 30.0000000  0  8G02G04G12G13G20G23G30G31
 -18231547.53548 -14170956.74247
                  20961636.2894                                   20961631.2544
                                                                        52.5004
        42.0004
 -10086959.68048  -7836409.08247
                  20706774.6484                                   20706772.1414
                                                                        52.7504
        42.0004
  -3876406.85947  -3009079.98045
                  23801915.8284                                   23801912.2624
                                                                        46.2504
        31.2504
 -20604061.19548 -15981093.35545
                  22135511.4224                                   22135507.9884
                                                                        49.5004
        33.0004
    359045.97747    281307.25444
                  24273238.6804                                   24273235.3874
                                                                        42.2504
        24.5004
 -12856145.39548  -9988863.49245
                  21856604.0234                                   21856598.6604
                                                                        50.0004
        35.5004
  -9863446.25047  -7662121.28945
                  22749254.0864                                   22749252.0864
                                                                        46.2504
        30.7504
 -10006957.03147  -7777609.59044
                  23838233.7194                                   23838230.0824
                                                                        44.5004
        28.5004
 09 10  2  0  3  0.0000000  0  8G02G04G12G13G20G23G30G31
 -18375682.43048 -14283269.55947
                  20934208.2584                                   20934203.2114
                                                                        52.2504
        42.0004
 -10148080.37148  -7884035.50847
                  20695143.8054                                   20695141.0594
                                                                        53.0004
        42.0004
  -3885212.02347  -3015941.13345
                  23800240.3054                                   23800236.7464
                                                                        46.0004
        30.5004
 -20770888.38348 -16111088.57045
                  22103765.2344                                   22103761.8554
                                                                        50.0004
        33.5004
    377182.35946    295439.52743
                  24276689.7274                                   24276686.5944
                                                                        41.7504
        22.5004
 -12939492.86748 -10053809.60245
                  21840744.2274                                   21840738.3874
                                                                        49.0004
        34.7504
  -9916830.00047  -7703719.02045
                  22739094.8914                                   22739093.1094
                                                                        45.5004
        30.2504
 -10065781.77047  -7823447.01644
                  23827039.7664                                   23827035.7234
                                                                        43.5004
        28.7504
 09 10  2  0  3 30.0000000  0  8G02G04G12G13G20G23G30G31
 -18519312.89548 -14395189.39847
                  20906876.1414                                   20906871.1054
                                                                        52.5004
        42.0004
 -10208642.18048  -7931226.52747
                  20683619.0394                                   20683616.4344
                                                                        52.5004
        42.2504
  -3893627.22747  -3022498.43045
                  23798638.5234                                   23798635.9694
                                                                        45.2504
        30.5004
 -20937183.20348 -16240668.97745
                  22072120.4144                                   22072117.2274
                                                                        49.2504
        33.7504
    395490.30946    309705.48043
                  24280172.8054                                   24280170.4454
                                                                        40.0004
        19.7504
 -13022189.50048 -10118248.54745
                  21825007.2114                                   21825001.6294
                                                                        49.0004
        35.2504
  -9969568.12947  -7744813.70345
                  22729059.1024                                   22729057.4964
                                                                        47.0004
        31.5004
 -10124025.56246  -7868831.76244
                  23815956.0394                                   23815952.3324
                                                                        41.5004
        28.5004
 09 10  2  0  4  0.0000000  0  8G02G04G12G13G20G23G30G31
 -18662438.79348 -14506716.02347
                  20879640.2894                                   20879635.1994
                                                                        52.0004
        42.0004
 -10268647.91048  -7977984.35947
                  20672200.5634                                   20672197.8484
                                                                        53.7504
        42.5004
  -3901656.77747  -3028755.26245
                  23797110.7584                                   23797107.9804
                                                                        45.2504
        30.0004
 -21102944.97748 -16369833.99245
                  22040577.2034                                   22040573.5124
                                                                        49.5004
        33.7504
    413965.30546    324101.60242
                  24283689.2424                                   24283686.6254
                                                                        38.5004
        17.2504
 -13104238.73848 -10182183.16045
                  21809394.0554                                   21809388.3594
                                                                        50.0004
        34.7504
 -10021663.97347  -7785407.91045
                  22719146.2504                                   22719144.2274
                                                                        46.5004
        30.5004
 -10181691.35547  -7913766.10944
                  23804982.5084                                   23804979.1094
                                                                        43.7504
        27.2504
 09 10  2  0  4 30.0000000  0  8G02G04G12G13G20G23G30G31
 -18805059.17648 -14617848.80946
                  20852500.4384                                   20852495.3674
                                                                        52.5004
        41.7504
 -10328098.57448  -8024309.60947
                  20660887.6024                                   20660884.8914
                                                                        53.2504
        42.0004
  -3909304.17647  -3034714.29745
                  23795655.7424                                   23795652.9224
                                                                        45.2504
        30.2504
 -21268171.71148 -16498582.09845
                  22009135.4924                                   22009131.8324
                                                                        49.5004
        33.5004
    432605.04746    338626.09843
                  24287235.2664                                   24287233.3914
                                                                        39.7504
        18.2504
 -13185640.39148 -10245612.96945
                  21793903.6254                                   21793897.7034
                                                                        50.0004
        35.5004
 -10073119.43047  -7825503.03945
                  22709354.9304                                   22709352.3674
                                                                        46.0004
        31.2504
 -10238780.57047  -7958251.18744
                  23794119.0004                                   23794115.3524
                                                                        44.0004
        28.2504
 09 10  2  0  5  0.0000000  0  8G02G04G12G13G20G23G30G31
 -18947169.21948 -14728583.84447
                  20825457.7734                                   20825452.8134
                                                                        51.7504
        42.5004
 -10386992.71148  -8070201.21947
                  20649680.3594                                   20649677.7504
                                                                        53.5004
        42.0004
  -3916569.47747  -3040375.54345
                  23794272.8914                                   23794270.4614
                                                                        45.2504
        30.0004
 -21432858.17648 -16626909.16445
                  21977796.9384                                   21977793.1804
                                                                        50.0004
        34.2504
    451409.96946    353279.25443
                  24290814.2664                                   24290811.4654
                                                                        40.5004
        19.2504
 -13266393.03148 -10308537.09045
                  21778536.5394                                   21778531.1564
                                                                        49.0004
        35.2504
 -10123934.06247  -7865098.81645
                  22699684.9844                                   22699682.4804
                                                                        46.0004
        30.5004
 -10295292.52347  -8002286.46544
                  23783364.4534                                   23783361.7194
                                                                        43.7504
        27.0004
 09 10  2  0  5 30.0000000  0  7G02G04G12G13G23G30G31
 -19088769.90248 -14838921.96547
                  20798512.0314                                   20798507.0394
                                                                        52.0004
        42.2504
 -10445333.14548  -8115661.31647
                  20638578.8524                                   20638575.8794
                                                                        52.7504
        42.2504
  -3923458.22747  -3045743.39845
                  23792962.4064                                   23792959.0514
                                                                        44.7504
        30.5004
 -21597004.43048 -16754815.34045
                  21946560.7734                                   21946556.9694
                                                                        49.0004
        34.0004
 -13346498.83248 -10370957.15645
                  21763293.1174                                   21763287.6524
                                                                        48.5004
        35.0004
 -10174112.14147  -7904198.59045
                  22690136.4924                                   22690133.6844
                                                                        45.2504
        30.2504
 -10351230.92247  -8045874.83644
                  23772720.0784                                   23772716.7504
                                                                        43.0004
        27.5004
 09 10  2  0  6  0.0000000  0  7G02G04G12G13G23G30G31
 -19229856.86348 -14948859.84847
                  20771664.0314                                   20771659.0084
                                                                        52.5004
        42.2504
 -10503118.27048  -8160688.68046
                  20627582.3984                                   20627579.8794
                                                                        53.7504
        41.7504
  -3929969.48047  -3050817.12144
                  23791723.4144                                   23791719.5824
                                                                        45.2504
        29.5004
 -21760604.81248 -16882296.17645
                  21915428.6954                                   21915424.7274
                                                                        49.0004
        34.0004
 -13425955.28548 -10432871.23045
                  21748172.8594                                   21748167.6564
                                                                        48.7504
        35.0004
 -10223652.06247  -7942801.11744
                  22680708.9694                                   22680706.3164
                                                                        46.2504
        29.5004
 -10406593.53547  -8089014.50844
                  23762184.9064                                   23762181.1954
                                                                        44.5004
        27.5004
 09 10  2  0  6 30.0000000  0  7G02G04G12G13G23G30G31
 -19370424.34848 -15058392.85547
                  20744914.8524                                   20744909.8954
                                                                        51.7504
        42.5004
 -10560345.23448  -8205281.13346
                  20616692.5864                                   20616689.8754
                                                                        53.2504
        41.7504
  -3936102.52347  -3055596.11744
                  23790556.6884                                   23790552.4654
                                                                        46.0004
        29.2504
 -21923653.72348 -17009347.29345
                  21884401.9924                                   21884397.7274
                                                                        49.2504
        33.7504
 -13504759.51648 -10494277.05945
                  21733176.9144                                   21733171.6604
                                                                        48.5004
        35.5004
 -10272551.71947  -7980904.71944
                  22671403.6334                                   22671401.1914
                                                                        45.5004
        29.0004
 -10461378.37947  -8131703.98844
                  23751759.6954                                   23751756.0704
                                                                        45.0004
        27.7504
 09 10  2  0  7  0.0000000  0  7G02G04G12G13G23G30G31
 -19510468.02748 -15167517.76247
                  20718265.5394                                   20718260.4454
                                                                        52.5004
        42.2504
 -10617011.73448  -8249436.85246
                  20605909.0554                                   20605906.5594
                                                                        52.7504
        41.5004
  -3941857.31247  -3060080.37144
                  23789461.0704                                   23789457.3054
                                                                        45.0004
        29.0004
 -22086144.57848 -17135963.53145
                  21853480.4224                                   21853477.0124
                                                                        49.0004
        33.2504
 -13582908.74648 -10555172.52745
                  21718306.0554                                   21718300.3674
                                                                        49.2504
        34.5004
 -10320809.93047  -8018508.45745
                  22662220.7974                                   22662217.8364
                                                                        46.0004
        30.0004
 -10515583.62946  -8173941.85244
                  23741445.1334                                   23741441.5904
                                                                        41.5004
        27.2504
 09 10  2  0  7 30.0000000  0  7G02G04G12G13G23G30G31
 -19649988.78948 -15276235.20347
                  20691715.5004                                   20691710.5004
                                                                        52.0004
        42.5004
 -10673121.33248  -8293158.57847
                  20595231.8834                                   20595229.3754
                                                                        51.7504
        42.0004
  -3947238.86347  -3064273.75844
                  23788436.9694                                   23788433.5704
                                                                        44.5004
        29.2504
 -22248077.88748 -17262145.30945
                  21822665.6174                                   21822661.9104
                                                                        49.2504
        34.0004
 -13660406.41048 -10615560.41845
                  21703558.6724                                   21703552.8594
                                                                        49.5004
        34.7504
 -10368431.10247  -8055615.80945
                  22653158.1414                                   22653155.8244
                                                                        44.0004
        30.0004
 -10569213.36346  -8215731.28144
                  23731239.2974                                   23731235.8794
                                                                        41.0004
        27.2504
 09 10  2  0  8  0.0000000  0  7G02G04G12G13G23G30G31
 -19788989.76648 -15384547.63347
                  20665264.2734                                   20665259.3164
                                                                        51.7504
        42.7504
 -10728679.78548  -8336450.81247
                  20584659.5234                                   20584656.7544
                                                                        53.5004
        42.5004
  -3952254.33647  -3068181.90644
                  23787482.0944                                   23787479.1024
                                                                        44.5004
        29.7504
 -22409456.23848 -17387894.62145
                  21791956.3364                                   21791952.7194
                                                                        50.0004
        33.5004
 -13737257.21548 -10675444.19545
                  21688934.6564                                   21688928.4344
                                                                        48.5004
        35.2504
 -10415421.47347  -8092231.64544
                  22644216.4614                                   22644213.9344
                                                                        45.0004
        29.2504
 -10622273.10947  -8257076.57444
                  23721141.9774                                   23721138.8634
                                                                        44.0004
        28.2504
 09 10  2  0  8 30.0000000  0  7G02G04G12G13G23G30G31
 -18352049.53548 -14264853.99647
                  20938705.2894                                   20938700.4064
                                                                        52.5004
        42.5004
  -9208270.99248  -7151716.59846
                  20873983.4924                                   20873980.8554
                                                                        53.0004
        41.5004
  -2381491.78147  -1844211.10544
                  24086388.2194                                   24086385.4304
                                                                        44.0004
        29.5004
 -20994856.29748 -16285608.89145
                  22061145.7664                                   22061142.0394
                                                                        49.5004
        33.5004
 -12238043.44548  -9507225.62545
                  21974225.1414                                   21974219.3674
                                                                        49.5004
        35.5004
  -8886366.76247  -6900760.45744
                  22935185.8524                                   22935183.2234
                                                                        45.2504
        29.5004
  -9099347.66047  -7070381.45344
                  24010945.9694                                   24010941.9144
                                                                        42.2504
        28.2504
 09 10  2  0  9  0.0000000  0  8G02G04G12G13G29G23G30G31
 -18490019.74648 -14372363.34447
                  20912450.5164                                   20912445.4964
                                                                        50.7504
        42.2504
  -9262743.88348  -7194162.94547
                  20863617.6724                                   20863614.9104
                                                                        52.0004
        42.0004
  -2385798.17247  -1847566.77044
                  24085569.0474                                   24085566.8794
                                                                        43.5004
        29.2504
 -21155130.60248 -16410497.91045
                  22030646.2664                                   22030642.7234
                                                                        49.5004
        34.7504
   1255416.33656    993472.60254
                  24510149.0084                                   24510146.5784
                                                                        41.0004
        26.7504
 -12313616.11348  -9566113.44545
                  21959844.1414                                   21959839.0004
                                                                        48.2504
        35.7504
  -8932115.69947  -6936408.98044
                  22926480.1564                                   22926477.6804
                                                                        44.7504
        29.5004
  -9151286.04346  -7110852.91444
                  24001061.7034                                   24001058.4774
                                                                        40.2504
        27.5004
 09 10  2  0  9 30.0000000  0  8G02G04G12G13G29G23G30G31
 -18627479.57448 -14479474.93447
                  20886292.6094                                   20886287.8164
                                                                        50.5004
        42.5004
  -9316682.85248  -7236193.29347
                  20853353.4534                                   20853350.5394
                                                                        53.0004
        42.0004
  -2389761.43047  -1850655.07845
                  24084815.1484                                   24084812.0474
                                                                        44.7504
        30.2504
 -21314856.66048 -16534959.68445
                  22000251.6254                                   22000248.2504
                                                                        50.0004
        34.5004
   1060512.79746    841599.73844
                  24473059.7894                                   24473058.0474
                                                                        40.5004
        27.2504
 -12388557.80947  -9624509.52746
                  21945583.3134                                   21945578.0044
                                                                        47.7504
        36.2504
  -8977253.73847  -6971581.45745
                  22917890.5084                                   22917888.2384
                                                                        44.2504
        30.5004
  -9202673.53946  -7150895.15644
                  23991283.3834                                   23991280.1844
                                                                        41.5004
        26.5004
 09 10  2  0 10  0.0000000  0  8G02G04G12G13G29G23G30G31
 -18764431.82448 -14586191.02347
                  20860231.6564                                   20860226.8444
                                                                        52.2504
        42.5004
  -9370093.35948  -7277811.83647
                  20843189.8204                                   20843186.7544
                                                                        53.5004
        42.2504
  -2393388.83247  -1853481.65645
                  24084124.8204                                   24084121.5164
                                                                        45.2504
        31.0004
 -21474036.20348 -16658995.64845
                  21969960.6174                                   21969957.5824
                                                                        49.0004
        34.7504
    865841.73446    689908.05144
                  24436014.1254                                   24436013.4024
                                                                        37.0004
        26.0004
 -12462873.68048  -9682418.08645
                  21931441.5864                                   21931436.1524
                                                                        49.0004
        35.5004
  -9021787.47347  -7006283.12544
                  22909416.0314                                   22909413.7664
                                                                        45.5004
        29.5004
  -9253515.61747  -7190512.31244
                  23981608.6174                                   23981605.3204
                                                                        43.0004
        27.2504
 09 10  2  0 10 30.0000000  0  8G02G04G12G13G29G23G30G31
 -18900870.98048 -14692507.21147
                  20834267.8914                                   20834262.8164
                                                                        51.0004
        42.5004
  -9422972.66048  -7319016.45746
                  20833127.0864                                   20833124.4414
                                                                        51.7504
        41.5004
  -2396678.98447  -1856045.44545
                  24083498.9694                                   24083495.9264
                                                                        46.0004
        30.7504
 -21632663.61348 -16782601.36345
                  21939774.5864                                   21939771.8634
                                                                        49.5004
        34.0004
    671410.13746    538403.01244
                  24399015.2584                                   24399013.7734
                                                                        39.5004
        25.2504
 -12536560.71147  -9739836.52045
                  21917419.4144                                   21917413.8164
                                                                        47.7504
        34.5004
  -9065714.80947  -7040512.26644
                  22901057.0084                                   22901054.7034
                                                                        44.0004
        29.2504
  -9303810.26246  -7229702.93744
                  23972037.4144                                   23972034.3874
                                                                        40.5004
        27.2504
 09 10  2  0 11  0.0000000  0  8G02G04G12G13G29G23G30G31
 -19036794.87148 -14798421.93447
                  20808402.3364                                   20808397.4104
                                                                        51.5004
        42.2504
  -9475320.80148  -7359807.18747
                  20823165.4694                                   20823162.9414
                                                                        53.0004
        42.0004
  -2399633.98447  -1858348.01644
                  24082936.2734                                   24082933.2854
                                                                        46.0004
        29.7504
 -21790735.59848 -16905774.29345
                  21909694.4064                                   21909691.0984
                                                                        49.7504
        34.7504
    477221.03146    387086.89144
                  24362062.4844                                   24362060.9534
                                                                        40.5004
        25.5004
 -12609618.53148  -9796764.62145
                  21903516.9694                                   21903511.1254
                                                                        49.0004
        34.5004
  -9109036.89547  -7074269.75044
                  22892813.2114                                   22892810.6954
                                                                        44.2504
        29.2504
  -9353557.60247  -7268467.12544
                  23962571.3524                                   23962567.9774
                                                                        42.2504
        28.2504
 09 10  2  0 11 30.0000000  0  8G02G04G12G13G29G23G30G31
 -19172197.35948 -14903930.29747
                  20782636.1174                                   20782631.3324
                                                                        51.7504
        42.0004
  -9527134.47348  -7400181.46547
                  20813305.6094                                   20813302.7704
                                                                        53.7504
        42.0004
  -2402251.86747  -1860387.98444
                  24082438.2974                                   24082434.7934
                                                                        44.5004
        28.5004
 -21948245.18748 -17028508.98845
                  21879721.2194                                   21879718.0554
                                                                        49.5004
        34.0004
    283281.76647    235965.39544
                  24325157.5004                                   24325155.1334
                                                                        43.0004
        24.2504
 -12682043.46948  -9853199.68445
                  21889735.1024                                   21889729.4804
                                                                        48.7504
        35.2504
  -9151751.04347  -7107553.46944
                  22884684.7504                                   22884682.3984
                                                                        44.0004
        29.5004
  -9402754.96947  -7306802.76644
                  23953209.4144                                   23953206.0164
                                                                        43.0004
        28.2504
 09 10  2  0 12  0.0000000  0  8G02G04G12G13G29G23G30G31
 -19307074.84848 -15009029.54747
                  20756969.8444                                   20756964.8134
                                                                        51.5004
        42.2504
  -9578412.32848  -7440138.18746
                  20803547.8444                                   20803545.2154
                                                                        53.0004
        41.7504
  -2404533.85247  -1862166.10944
                  24082003.3204                                   24082001.0664
                                                                        43.7504
        28.0004
 -22105187.65648 -17150801.80545
                  21849856.4144                                   21849852.6094
                                                                        49.0004
        34.5004
     89596.77047     85041.94144
                  24288300.5944                                   24288297.6254
                                                                        43.2504
        24.5004
 -12753833.82848  -9909140.21545
                  21876073.5944                                   21876067.8554
                                                                        48.7504
        34.7504
  -9193857.55947  -7140363.66844
                  22876672.2504                                   22876669.5004
                                                                        43.5004
        29.7504
  -9451401.53947  -7344709.15244
                  23943952.3984                                   23943948.7734
                                                                        43.5004
        28.2504
 09 10  2  0 12 30.0000000  0  8G02G04G12G13G29G23G30G31
 -19441424.57048 -15113717.67247
                  20731403.7274                                   20731398.8834
                                                                        51.0004
        42.5004
  -9629154.40248  -7479677.42646
                  20793891.9144                                   20793888.9024
                                                                        51.7504
        41.7504
  -2406481.19547  -1863683.57444
                  24081632.9924                                   24081630.3674
                                                                        44.0004
        27.7504
 -22261559.72748 -17272650.13345
                  21820099.4924                                   21820095.9454
                                                                        49.5004
        34.7504
   -103830.03547    -65680.28544
                  24251492.3914                                   24251490.1524
                                                                        43.0004
        25.7504
 -12824989.30148  -9964586.07845
                  21862533.2584                                   21862527.8874
                                                                        48.0004
        35.2504
  -9235356.79747  -7172700.66845
                  22868774.5634                                   22868772.9734
                                                                        44.2504
        30.0004
  -9499497.93746  -7382186.88744
                  23934799.9384                                   23934796.2114
                                                                        41.5004
        26.5004
 09 10  2  0 13  0.0000000  0  8G02G04G12G13G29G23G30G31
 -19575243.40248 -15217992.21547
                  20705938.9924                                   20705933.8204
                                                                        52.5004
        42.5004
  -9679360.06648  -7518798.68047
                  20784337.8524                                   20784335.1414
                                                                        53.5004
        42.0004
  -2408094.80547  -1864941.01644
                  24081326.5394                                   24081323.1134
                                                                        44.5004
        28.5004
 -22417357.30948 -17394050.87545
                  21790452.4924                                   21790449.0314
                                                                        49.7504
        35.0004
   -296994.08246   -216197.73044
                  24214734.2974                                   24214732.5204
                                                                        39.7504
        25.0004
 -12895508.71948 -10019536.28945
                  21849114.0394                                   21849108.6844
                                                                        48.5004
        34.7504
  -9276249.02747  -7204564.77045
                  22860993.6414                                   22860991.2894
                                                                        44.7504
        30.0004
  -9547043.37947  -7419235.30144
                  23925752.1414                                   23925748.4574
                                                                        43.5004
        27.2504
 09 10  2  0 13 30.0000000  0  8G02G04G12G13G29G23G30G31
 -19708530.50448 -15321852.35547
                  20680575.6024                                   20680570.6804
                                                                        51.7504
        42.5004
  -9729031.37948  -7557503.57047
                  20774885.6484                                   20774883.1844
                                                                        53.5004
        42.2504
  -2409378.61347  -1865941.40244
                  24081082.0394                                   24081079.4384
                                                                        44.5004
        29.5004
 -22572579.04348 -17515002.89145
                  21760914.9304                                   21760911.0124
                                                                        49.5004
        34.5004
   -489894.39546   -366509.58643
                  24178025.7344                                   24178024.9104
                                                                        37.5004
        22.5004
 -12965393.67248 -10073992.07845
                  21835815.0784                                   21835809.7974
                                                                        49.5004
        35.0004
  -9316537.56647  -7235958.44545
                  22853326.8984                                   22853324.8554
                                                                        45.5004
        30.0004
  -9594041.25847  -7455857.09444
                  23916808.3204                                   23916805.2234
                                                                        43.5004
        27.5004
 09 10  2  0 14  0.0000000  0  8G02G04G12G13G29G23G30G31
 -19841285.25048 -15425297.52047
                  20655313.0704                                   20655308.0394
                                                                        52.0004
        42.7504
  -9778170.75049  -7595793.97346
                  20765534.7584                                   20765531.9264
                                                                        54.2504
        41.5004
  -2410336.73847  -1866688.08245
                  24080899.5554                                   24080897.0554
                                                                        44.7504
        30.0004
 -22727223.94948 -17635505.39845
                  21731486.7114                                   21731483.2424
                                                                        49.0004
        35.0004
   -682528.72746   -516614.12144
                  24141368.9304                                   24141368.1724
                                                                        40.2504
        27.2504
 -13034646.17648 -10127954.96145
                  21822636.7894                                   21822631.7344
                                                                        49.5004
        35.5004
  -9356225.41447  -7266884.03945
                  22845774.7274                                   22845772.6054
                                                                        45.7504
        30.2504
  -9640493.50447  -7492053.66844
                  23907968.8594                                   23907965.6644
                                                                        42.5004
        25.7504
 09 10  2  0 14 30.0000000  0  8G02G04G12G13G29G23G30G31
 -19973500.88348 -15528322.61347
                  20630153.4614                                   20630148.3674
                                                                        52.2504
        42.5004
  -9826773.47348  -7633666.24646
                  20756286.2274                                   20756283.3794
                                                                        53.7504
        41.5004
  -2410965.84847  -1867178.28544
                  24080780.3834                                   24080777.3754
                                                                        45.0004
        29.0004
 -22881283.66448 -17755551.87145
                  21702170.2734                                   21702166.5124
                                                                        49.7504
        35.0004
   -874889.27747   -666505.39844
                  24104764.3984                                   24104763.0394
                                                                        42.5004
        28.7504
 -13103261.82048 -10181421.64845
                  21809579.3674                                   21809573.9694
                                                                        49.0004
        34.7504
  -9395309.40647  -7297339.07445
                  22838337.5864                                   22838335.1414
                                                                        45.7504
        30.7504
  -9686396.59446  -7527822.29344
                  23899233.8834                                   23899230.3244
                                                                        41.5004
        26.2504
 09 10  2  0 15  0.0000000  0  8G02G04G12G13G29G23G30G31
 -20105175.52748 -15630926.18047
                  20605096.2114                                   20605091.6214
                                                                        52.0004
        43.0004
  -9874839.61748  -7671120.36747
                  20747139.4694                                   20747136.8204
                                                                        52.5004
        42.0004
  -2411268.30547  -1867414.03145
                  24080722.7734                                   24080719.8634
                                                                        44.5004
        30.5004
 -23034755.73848 -17875140.46145
                  21672965.5474                                   21672962.0514
                                                                        49.0004
        34.7504
  -1066972.00847   -816180.24644
                  24068212.8594                                   24068210.5784
                                                                        43.7504
        29.5004
 -13171240.12548 -10234391.77745
                  21796643.7344                                   21796638.2424
                                                                        50.0004
        34.7504
  -9433790.34047  -7327324.21544
                  22831014.5164                                   22831011.7624
                                                                        46.0004
        29.5004
  -9731750.87146  -7563163.28944
                  23890602.9694                                   23890599.8524
                                                                        40.0004
        25.2504
 09 10  2  0 15 30.0000000  0  9G02G04G12G13G29G10G23G30G31
 -20236311.77348 -15733110.16447
                  20580141.7584                                   20580136.9734
                                                                        52.0004
        42.5004
  -9922375.16848  -7708161.05947
                  20738093.7274                                   20738091.0204
                                                                        53.2504
        42.0004
  -2411251.32447  -1867400.76644
                  24080726.3444                                   24080723.1684
                                                                        44.5004
        29.2504
 -23187642.13348 -17994272.69145
                  21643872.3594                                   21643868.4964
                                                                        49.5004
        35.5004
  -1258779.17647   -965640.32044
                  24031712.4924                                   24031710.0594
                                                                        44.0004
        27.7504
   1229058.82056   1002729.49654
                  24006633.4304                                   24006631.6954
                                                                        41.7504
        24.5004
 -13238586.22348 -10286869.21945
                  21783828.1094                                   21783822.4304
                                                                        49.5004
        34.5004
  -9471674.86347  -7356844.58644
                  22823805.4304                                   22823802.8284
                                                                        45.5004
        29.7504
  -9776562.76647  -7598081.66844
                  23882076.0554                                   23882072.3444
                                                                        42.0004
        24.5004
 09 10  2  0 16  0.0000000  0  9G02G04G12G13G29G10G23G30G31
 -20366923.09448 -15834885.15647
                  20555287.4844                                   20555282.1094
                                                                        52.5004
        43.0004
  -9969396.06248  -7744800.73046
                  20729145.8594                                   20729143.3984
                                                                        53.2504
        41.7504
  -2410932.57047  -1867152.41044
                  24080786.7504                                   24080783.7704
                                                                        42.7504
        27.2504
 -23339955.41048 -18112958.32846
                  21614887.9844                                   21614884.3674
                                                                        49.5004
        36.0004
  -1450323.50847  -1114895.59844
                  23995262.8674                                   23995259.8834
                                                                        42.5004
        24.2504
   1017973.12547    838247.10943
                  23966465.8204                                   23966462.5634
                                                                        43.2504
        23.7504
 -13305316.48048 -10338866.85945
                  21771129.9144                                   21771124.2734
                                                                        49.2504
        35.0004
  -9508980.14847  -7385913.61744
                  22816706.6644                                   22816703.7384
                                                                        44.0004
        29.5004
  -9820848.95347  -7632590.36344
                  23873648.8444                                   23873644.7344
                                                                        43.0004
        26.5004
 09 10  2  0 16 30.0000000  0  9G02G04G12G13G29G10G23G30G31
 -20497007.70348 -15936249.79347
                  20530533.3674                                   20530528.2034
                                                                        52.5004
        42.7504
 -10015902.95348  -7781039.84846
                  20720295.8364                                   20720293.0984
                                                                        52.5004
        41.7504
  -2410313.99247  -1866670.41444
                  24080903.6644                                   24080901.0944
                                                                        42.5004
        26.2504
 -23491693.33248 -18231195.67645
                  21586012.8054                                   21586009.5204
                                                                        49.5004
        35.2504
  -1641601.52046  -1263943.40643
                  23958863.5164                                   23958861.0164
                                                                        41.2504
        22.2504
    807030.34047    673875.97344
                  23926325.1174                                   23926322.0554
                                                                        44.5004
        25.7504
 -13371431.15248 -10390384.78145
                  21758548.7504                                   21758542.9774
                                                                        50.0004
        34.0004
  -9545708.03547  -7414532.77344
                  22809717.2894                                   22809715.2234
                                                                        45.0004
        29.5004
  -9864610.57446  -7666690.33644
                  23865320.9774                                   23865317.4774
                                                                        39.7504
        26.5004
 09 10  2  0 17  0.0000000  0  9G02G04G12G13G29G10G23G30G31
 -19051135.51248 -14809596.20747
                  20805673.4384                                   20805668.3594
                                                                        52.5004
        43.0004
  -8486471.24648  -6589274.86746
                  21011336.9924                                   21011334.3524
                                                                        53.0004
        41.2504
   -833974.61347   -638354.07444
                  24380871.1954                                   24380868.8914
                                                                        43.0004
        26.7504
 -22067424.06248 -17121375.44945
                  21857042.3754                                   21857038.7194
                                                                        50.0004
        35.5004
   -257179.39546   -185172.85544
                  24222309.7504                                   24222307.9024
                                                                        40.2504
        24.7504
   2171664.42647   1737227.10544
                  24186006.4924                                   24186003.3874
                                                                        45.5004
        26.0004
 -11861504.35548  -9213818.43445
                  22045878.6094                                   22045872.5274
                                                                        50.0004
        34.5004
  -8006434.54747  -6215098.89544
                  23102631.4924                                   23102628.7734
                                                                        45.2504
        29.5004
  -8332422.94146  -6472777.87144
                  24156886.6094                                   24156882.9694
                                                                        40.0004
        25.5004
 09 10  2  0 17 30.0000000  0  9G02G04G12G13G29G10G23G30G31
 -19180149.48448 -14910126.75447
                  20781123.1334                                   20781118.2544
                                                                        53.0004
        42.7504
  -8531940.63748  -6624705.59046
                  21002684.6884                                   21002682.1294
                                                                        53.5004
        41.5004
   -832752.65647   -637401.91844
                  24381104.3984                                   24381101.2544
                                                                        43.7504
        28.2504
 -22217990.87148 -17238700.15645
                  21828390.1724                                   21828386.5164
                                                                        49.5004
        35.2504
   -447903.52046   -333789.00844
                  24186016.8524                                   24186014.6294
                                                                        40.0004
        26.5004
   1961027.88346   1573094.66044
                  24145922.9924                                   24145921.5274
                                                                        41.7504
        25.5004
 -11926377.02348  -9264368.53945
                  22033533.1174                                   22033527.7704
                                                                        49.7504
        34.5004
  -8042000.12547  -6242812.35244
                  23095863.1414                                   23095860.5944
                                                                        44.5004
        29.5004
  -8375126.77347  -6506053.53144
                  24148760.3284                                   24148756.4574
                                                                        42.5004
        25.0004
 09 10  2  0 18  0.0000000  0  9G02G04G12G13G29G10G23G30G31
 -19308620.97748 -15010234.52347
                  20756675.7814                                   20756670.7584
                                                                        51.7504
        42.7504
  -8576888.09048  -6659729.58246
                  20994131.3284                                   20994128.7464
                                                                        53.5004
        41.5004
   -831228.21547   -636214.02344
                  24381394.5084                                   24381391.4144
                                                                        44.2504
        29.0004
 -22367964.28148 -17355562.53145
                  21799851.5784                                   21799847.9654
                                                                        49.5004
        35.7504
   -638341.77746   -482182.40644
                  24149777.9384                                   24149775.3484
                                                                        41.0004
        27.5004
   1750552.44546   1409087.87544
                  24105871.4694                                   24105869.4884
                                                                        41.0004
        25.7504
 -11990625.17648  -9314432.03145
                  22021307.1884                                   22021301.3324
                                                                        49.2504
        34.5004
  -8076983.05547  -6270071.84444
                  23089206.5474                                   23089204.3524
                                                                        44.5004
        29.0004
  -8417299.46547  -6538915.37544
                  24140735.0394                                   24140731.3134
                                                                        42.5004
        25.5004
 09 10  2  0 18 30.0000000  0  9G02G04G12G13G29G10G23G30G31
 -19436547.10248 -15109917.28147
                  20732332.1804                                   20732327.3984
                                                                        52.5004
        43.0004
  -8621313.40248  -6694346.73046
                  20985677.5634                                   20985674.7274
                                                                        53.7504
        41.5004
   -829402.59847   -634791.48044
                  24381741.6884                                   24381738.4264
                                                                        45.0004
        29.2504
 -22517340.53948 -17471959.61345
                  21771425.7894                                   21771422.2624
                                                                        50.0004
        35.7504
   -828490.32847   -630350.09044
                  24113593.7974                                   24113591.7854
                                                                        42.5004
        29.0004
   1540242.29346   1245210.01644
                  24065850.3134                                   24065848.6454
                                                                        41.2504
        27.5004
 -12054248.29348  -9364008.51645
                  22009200.2034                                   22009195.0354
                                                                        49.5004
        35.0004
  -8111384.37947  -6296878.15244
                  23082659.4924                                   23082657.3874
                                                                        45.0004
        29.0004
  -8458941.39147  -6571363.64844
                  24132811.4144                                   24132807.6724
                                                                        42.5004
        26.7504
 09 10  2  0 19  0.0000000  0  9G02G04G12G13G29G10G23G30G31
 -19563923.98848 -15209171.90647
                  20708093.2584                                   20708088.2504
                                                                        52.0004
        43.0004
  -8665215.98848  -6728556.53947
                  20977323.1644                                   20977320.3284
                                                                        53.7504
        42.0004
   -827276.40247   -633134.69944
                  24382146.7424                                   24382143.4024
                                                                        44.0004
        29.0004
 -22666115.93048 -17587888.46946
                  21743115.0084                                   21743111.3554
                                                                        49.0004
        36.0004
  -1018344.07447   -778288.05544
                  24077465.9384                                   24077463.3714
                                                                        42.0004
        28.5004
   1330101.44547   1081464.11344
                  24025862.0864                                   24025860.1024
                                                                        42.0004
        29.7504
 -12117245.75048  -9413097.44145
                  21997211.9534                                   21997206.9574
                                                                        49.0004
        34.5004
  -8145204.07047  -6323231.21144
                  23076224.1644                                   23076221.7544
                                                                        43.5004
        28.5004
  -8500052.09047  -6603397.96544
                  24124987.7974                                   24124984.2814
                                                                        42.7504
        27.2504
 09 10  2  0 19 30.0000000  0  9G02G04G12G13G29G10G23G30G31
 -19690751.00848 -15307998.06247
                  20683958.7034                                   20683953.8134
                                                                        51.7504
        43.0004
  -8708597.00448  -6762359.93446
                  20969068.2584                                   20969065.4924
                                                                        53.5004
        41.0004
   -824853.17247   -631246.44544
                  24382606.9774                                   24382604.5044
                                                                        42.5004
        28.0004
 -22814288.21948 -17703347.36746
                  21714918.8594                                   21714915.0434
                                                                        48.7504
        36.0004
  -1207900.79747   -925994.55944
                  24041393.9304                                   24041392.1604
                                                                        42.0004
        27.0004
   1120132.04747    917851.72344
                  23985906.0234                                   23985903.6914
                                                                        42.5004
        28.5004
 -12179618.32448  -9461699.41445
                  21985342.7344                                   21985337.4964
                                                                        48.5004
        34.2504
  -8178444.80547  -6349133.17244
                  23069898.6564                                   23069896.3134
                                                                        43.2504
        27.7504
  -8540633.39847  -6635019.75444
                  24117265.5164                                   24117262.2234
                                                                        42.2504
        27.7504
 09 10  2  0 20  0.0000000  0  9G02G04G12G13G29G10G23G30G31
 -19817026.48848 -15406394.56247
                  20659929.7114                                   20659924.2974
                                                                        52.0004
        42.7504
  -8751457.25448  -6795757.52346
                  20960912.1334                                   20960909.3674
                                                                        53.5004
        41.2504
   -822135.01647   -629128.46544
                  24383124.6024                                   24383121.8524
                                                                        42.2504
        27.2504
 -22961854.90248 -17818334.37145
                  21686837.6024                                   21686833.9494
                                                                        49.7504
        35.0004
  -1397157.77346  -1073467.48444
                  24005379.8444                                   24005377.7894
                                                                        40.7504
        27.5004
    910336.83647    754375.02344
                  23945983.4224                                   23945980.5514
                                                                        43.0004
        26.2504
 -12241366.57848  -9509814.95345
                  21973592.6644                                   21973587.1844
                                                                        48.5004
        34.2504
  -8211108.08647  -6374585.08244
                  23063683.3594                                   23063680.8324
                                                                        44.2504
        28.5004
  -8580687.00847  -6666230.40244
                  24109643.6334                                   24109640.3594
                                                                        43.5004
        27.0004
 09 10  2  0 20 30.0000000  0  9G02G04G12G13G29G10G23G30G31
 -19942749.79748 -15504360.78547
                  20636005.1174                                   20636000.0904
                                                                        52.7504
        42.7504
  -8793798.87948  -6828750.97746
                  20952854.8204                                   20952852.0084
                                                                        53.5004
        41.5004
   -819125.42647   -626783.41044
                  24383697.4774                                   24383695.0554
                                                                        42.2504
        26.5004
 -23108814.69948 -17932848.48045
                  21658872.3364                                   21658868.3984
                                                                        49.0004
        35.2504
  -1586112.87546  -1220705.19544
                  23969422.0084                                   23969420.1804
                                                                        40.5004
        24.7504
    700717.09446    591034.88743
                  23906093.6884                                   23906091.2814
                                                                        41.0004
        22.5004
 -12302492.82048  -9557445.80145
                  21961960.9454                                   21961954.8674
                                                                        49.2504
        33.7504
  -8243197.09447  -6399589.52044
                  23057577.1644                                   23057574.6804
                                                                        45.0004
        29.2504
  -8620215.33647  -6697031.70344
                  24102122.1414                                   24102118.3364
                                                                        43.5004
        28.0004
 09 10  2  0 21  0.0000000  0  9G02G04G12G13G29G10G23G30G31
 -20067919.97348 -15601895.93447
                  20612186.2424                                   20612180.7934
                                                                        52.2504
        43.2504
  -8835623.67648  -6861341.69946
                  20944895.7974                                   20944892.6334
                                                                        53.2504
        41.7504
   -815828.10547   -624214.14144
                  24384324.6094                                   24384321.9774
                                                                        42.7504
        28.5004
 -23255166.26648 -18046888.65645
                  21631022.5944                                   21631018.3794
                                                                        49.7504
        34.7504
  -1774764.16046  -1367706.18044
                  23933523.0864                                   23933521.1414
                                                                        40.2504
        24.0004
    491274.75046    427833.04344
                  23866238.1804                                   23866235.6374
                                                                        41.0004
        25.2504
 -12362998.14548  -9604592.80545
                  21950446.6724                                   21950441.2384
                                                                        48.7504
        33.7504
  -8274714.73847  -6424148.74245
                  23051579.3594                                   23051577.4844
                                                                        43.7504
        30.5004
  -8659220.92247  -6727425.68444
                  24094699.4384                                   24094696.3634
                                                                        42.7504
        28.7504
 09 10  2  0 21 30.0000000  0  9G02G04G12G13G29G10G23G30G31
 -20192537.00048 -15699000.08247
                  20588471.9384                                   20588466.9884
                                                                        52.5004
        42.7504
  -8876934.18748  -6893531.69146
                  20937034.3364                                   20937031.5394
                                                                        53.2504
        41.0004
   -812246.66447   -621423.35944
                  24385006.4694                                   24385003.1174
                                                                        43.5004
        26.2504
 -23400908.77048 -18160454.24645
                  21603288.6724                                   21603285.2424
                                                                        50.0004
        35.2504
  -1963110.09846  -1514469.24244
                  23897682.5864                                   23897679.9144
                                                                        41.0004
        25.5004
    282010.96947    264770.32444
                  23826417.2424                                   23826414.6134
                                                                        42.2504
        27.7504
 -12422885.04348  -9651257.94545
                  21939051.1024                                   21939044.9574
                                                                        48.7504
        34.0004
  -8305664.87147  -6448265.77745
                  23045689.8364                                   23045688.0354
                                                                        44.7504
        30.0004
  -8697706.56647  -6757414.52744
                  24087375.2114                                   24087372.3364
                                                                        43.0004
        27.2504
 09 10  2  0 22  0.0000000  0  9G02G04G12G13G29G10G23G30G31
 -20316599.01248 -15795671.80947
                  20564863.8054                                   20564859.0554
                                                                        52.2504
        43.0004
  -8917730.87148  -6925321.32446
                  20929271.0704                                   20929268.7194
                                                                        52.2504
        41.2504
   -808383.47747   -618413.07044
                  24385741.7664                                   24385739.0634
                                                                        42.7504
        26.0004
 -23546039.19148 -18273542.90245
                  21575670.9384                                   21575667.2194
                                                                        50.0004
        35.5004
  -2151147.17247  -1660991.62944
                  23861900.4224                                   23861897.5984
                                                                        42.0004
        28.0004
     72928.97347    101849.34044
                  23786630.6884                                   23786627.4344
                                                                        43.5004
        28.7504
 -12482153.52348  -9697441.18445
                  21927772.4454                                   21927766.8674
                                                                        48.5004
        34.0004
  -8336048.94547  -6471941.67245
                  23039908.2974                                   23039906.2344
                                                                        45.2504
        31.0004
  -8735673.08647  -6786998.82044
                  24080150.6094                                   24080147.4574
                                                                        42.5004
        28.5004
 09 10  2  0 22 30.0000000  0  9G02G04G12G13G29G10G23G30G31
 -20440104.33648 -15891909.67647
                  20541361.7424                                   20541356.4454
                                                                        52.0004
        43.5004
  -8958015.21948  -6956711.75846
                  20921605.5944                                   20921602.4574
                                                                        51.7504
        41.0004
   -804241.06246   -615185.26644
                  24386530.6884                                   24386526.7854
                                                                        41.5004
        26.2504
 -23690556.25048 -18386153.59446
                  21548170.6644                                   21548166.9304
                                                                        49.2504
        36.0004
  -2338872.35547  -1807270.95344
                  23826177.6644                                   23826174.8284
                                                                        43.0004
        27.0004
   -135969.24247    -60928.46144
                  23746877.8754                                   23746875.5474
                                                                        42.2504
        27.5004
 -12540805.26648  -9743143.80545
                  21916611.6724                                   21916605.6724
                                                                        48.5004
        34.5004
  -8365868.66447  -6495177.82045
                  23034233.8364                                   23034231.5084
                                                                        45.0004
        30.5004
  -8773122.76246  -6816180.43044
                  24073024.1254                                   24073021.1524
                                                                        40.0004
        28.7504
 09 10  2  0 23  0.0000000  0  9G02G04G12G13G29G10G23G30G31
 -20563053.21548 -15987713.88347
                  20517965.2504                                   20517960.1254
                                                                        52.0004
        43.0004
  -8997789.43048  -6987704.68446
                  20914036.6644                                   20914034.1564
                                                                        52.2504
        40.7504
   -799823.69147   -611743.15644
                  24387370.9384                                   24387367.3244
                                                                        42.2504
        26.5004
 -23834458.73048 -18498285.41446
                  21520786.6884                                   21520783.0904
                                                                        50.5004
        36.0004
  -2526284.73447  -1953306.55544
                  23790514.1254                                   23790511.6604
                                                                        42.5004
        28.0004
   -344682.48847   -223562.05544
                  23707161.1724                                   23707158.8954
                                                                        42.0004
        27.5004
 -12598842.52748  -9788367.69145
                  21905567.4694                                   21905562.0554
                                                                        48.5004
        35.2504
  -8395128.15647  -6517977.45344
                  23028665.8284                                   23028663.5124
                                                                        45.0004
        29.7504
  -8810058.30146  -6844961.39144
                  24065996.2114                                   24065992.5864
                                                                        40.0004
        27.7504
 09 10  2  0 23 30.0000000  0  9G02G04G12G13G29G10G23G30G31
 -20685444.92248 -16083084.07847
                  20494674.5704                                   20494669.6454
                                                                        52.0004
        43.2504
  -9037055.18748  -7018301.35946
                  20906564.4614                                   20906561.8094
                                                                        53.0004
        41.2504
   -795134.50446   -608089.34444
                  24388263.1484                                   24388259.8554
                                                                        40.2504
        26.5004
 -23977744.93448 -18609937.03545
                  21493520.0784                                   21493516.5904
                                                                        50.2504
        35.7504
  -2713381.96547  -2099096.59044
                  23754910.1954                                   23754908.7624
                                                                        43.0004
        28.5004
   -553208.91447   -386050.03144
                  23667479.2814                                   23667476.9344
                                                                        42.2504
        26.5004
 -12656266.55548  -9833113.69545
                  21894640.0234                                   21894634.3794
                                                                        48.7504
        34.5004
  -8423830.00047  -6540342.52744
                  23023204.0784                                   23023201.4804
                                                                        45.2504
        28.5004
  -8846482.21946  -6873343.68744
                  24059064.0164                                   24059061.3444
                                                                        40.0004
        26.5004
 09 10  2  0 24  0.0000000  0  9G02G04G12G13G29G10G23G30G31
 -20807275.55948 -16178017.07847
                  20471491.1884                                   20471486.4804
                                                                        52.0004
        43.0004
  -9075811.79748  -7048501.34046
                  20899189.2114                                   20899186.9144
                                                                        52.5004
        41.2504
   -790174.12546   -604224.23844
                  24389206.0864                                   24389204.2234
                                                                        39.2504
        25.2504
 -24120410.71948 -18721105.25045
                  21466372.1484                                   21466368.5984
                                                                        50.7504
        35.7504
  -2900159.16047  -2244637.20344
                  23719368.0634                                   23719365.8754
                                                                        42.7504
        28.2504
   -761544.30147   -548389.21544
                  23627834.5234                                   23627832.2814
                                                                        42.5004
        28.5004
 -12713076.25048  -9877380.97345
                  21883829.4224                                   21883824.2584
                                                                        49.7504
        35.2504
  -8451974.61347  -6562273.37544
                  23017848.6644                                   23017846.2894
                                                                        44.5004
        28.0004
  -8882394.21146  -6901327.10544
                  24052230.1414                                   24052227.1414
                                                                        41.5004
        24.5004
 09 10  2  0 24 30.0000000  0  9G02G04G12G13G29G10G23G30G31
 -20928546.83648 -16272514.15247
                  20448414.1484                                   20448408.9144
                                                                        52.7504
        43.0004
  -9114063.45748  -7078307.87146
                  20891910.1884                                   20891907.8404
                                                                        53.0004
        41.5004
   -784947.87946   -600151.89844
                  24390201.0704                                   24390198.7664
                                                                        40.5004
        26.0004
 -24262457.62948 -18831791.13746
                  21439341.6254                                   21439337.8244
                                                                        50.2504
        36.2504
  -3086616.51647  -2389928.57044
                  23683885.8524                                   23683884.5274
                                                                        42.0004
        28.0004
   -969689.21147   -710580.10244
                  23588225.4844                                   23588223.4654
                                                                        42.0004
        26.5004
 -12769276.34448  -9921173.27045
                  21873135.0474                                   21873129.3834
                                                                        49.5004
        35.0004
  -8479567.13747  -6583774.06644
                  23012597.4304                                   23012595.0314
                                                                        43.5004
        26.5004
  -8917798.84447  -6928915.13344
                  24045492.9694                                   24045490.1254
                                                                        42.2504
        24.7504
 09 10  2  0 25  0.0000000  0  9G02G04G12G13G29G10G23G30G31
 -21049258.23848 -16366574.94147
                  20425443.2734                                   20425438.6884
                                                                        52.7504
        43.0004
  -9151811.81248  -7107722.16046
                  20884727.1884                                   20884724.7194
                                                                        53.0004
        41.5004
   -779459.62947   -595875.38344
                  24391246.0084                                   24391243.6564
                                                                        43.0004
        28.2504
 -24403883.82848 -18941993.33646
                  21412428.4304                                   21412425.3444
                                                                        50.7504
        36.7504
  -3272751.98047  -2534969.07044
                  23648465.6484                                   23648463.3324
                                                                        42.2504
        27.7504
  -1177641.53147   -872620.85944
                  23548654.0634                                   23548651.2074
                                                                        42.7504
        28.0004
 -12824867.88348  -9964491.37945
                  21862556.3284                                   21862551.0434
                                                                        49.5004
        34.5004
  -8506610.98047  -6604847.23444
                  23007450.9614                                   23007448.6334
                                                                        43.5004
        27.2504
  -8952698.90246  -6956110.01643
                  24038852.1954                                   24038848.2974
                                                                        41.2504
        22.5004
 09 10  2  0 25 30.0000000  0  8G02G04G13G29G10G23G30G31
 -19593983.58648 -15232594.65647
                  20702372.6954                                   20702367.6294
                                                                        52.0004
        43.0004
  -7613636.60948  -5909144.01646
                  21177432.1484                                   21177429.4224
                                                                        52.7504
        41.0004
 -22969262.42648 -17824106.48446
                  21685428.3054                                   21685424.6174
                                                                        50.7504
        36.0004
  -1883135.75847  -1452151.14844
                  23912900.2584                                   23912898.1884
                                                                        43.2504
        27.5004
    190029.19546    193096.66044
                  23808912.6174                                   23808910.2154
                                                                        41.7504
        28.0004
 -11304429.71948  -8779734.34445
                  22151886.1334                                   22151880.6454
                                                                        49.7504
        34.0004
  -6957686.16047  -5397892.73844
                  23302201.1644                                   23302199.2774
                                                                        43.2504
        26.7504
  -7411673.90646  -5755311.30143
                  24332098.9064                                   24332094.7974
                                                                        41.5004
        21.5004
 09 10  2  0 26  0.0000000  0  8G02G04G13G29G10G23G30G31
 -19713568.19948 -15325777.36747
                  20679616.5864                                   20679611.3134
                                                                        52.7504
        43.0004
  -7650379.96948  -5937775.15646
                  21170439.8914                                   21170437.0904
                                                                        52.0004
        41.0004
 -23109439.49648 -17933335.34446
                  21658753.3674                                   21658749.3484
                                                                        51.5004
        36.5004
  -2068616.42247  -1596681.50044
                  23877605.1094                                   23877602.3324
                                                                        44.0004
        28.0004
    -17527.55547     31364.14844
                  23769416.3204                                   23769413.7074
                                                                        42.5004
        28.0004
 -11358805.57048  -8822105.12945
                  22141539.1094                                   22141533.2424
                                                                        49.0004
        34.5004
  -6983635.75847  -5418113.18744
                  23297263.2894                                   23297261.4304
                                                                        42.5004
        28.5004
  -7445566.93747  -5781721.42243
                  24325649.6644                                   24325645.6914
                                                                        42.5004
        23.0004
 09 10  2  0 26 30.0000000  0  8G02G04G13G29G10G23G30G31
 -19832582.74648 -15418515.95747
                  20656968.7584                                   20656963.4144
                                                                        52.7504
        43.0004
  -7686617.46948  -5966012.15646
                  21163544.2274                                   21163541.2584
                                                                        52.2504
        40.5004
 -23248983.56248 -18042070.95346
                  21632198.8594                                   21632195.0554
                                                                        51.0004
        36.2504
  -2253760.22747  -1740949.32444
                  23842373.2424                                   23842370.6564
                                                                        44.0004
        26.7504
   -224878.15247   -130207.75844
                  23729958.9694                                   23729956.3444
                                                                        43.5004
        27.5004
 -11412569.99248  -8863999.47345
                  22131307.4774                                   22131302.1994
                                                                        49.7504
        33.5004
  -7009037.04747  -5437906.35944
                  23292429.6094                                   23292427.6804
                                                                        43.5004
        28.5004
  -7478954.14547  -5807737.43444
                  24319296.5314                                   24319292.5044
                                                                        43.5004
        24.7504
 09 10  2  0 27  0.0000000  0  8G02G04G13G29G10G23G30G31
 -19951023.05548 -15510807.18447
                  20634430.3364                                   20634425.5124
                                                                        52.5004
        43.0004
  -7722348.00448  -5993854.10246
                  21156744.9614                                   21156742.0474
                                                                        52.2504
        40.7504
 -23387890.39148 -18150310.02045
                  21605765.5554                                   21605761.8554
                                                                        50.5004
        35.7504
  -2438561.99647  -1884950.62144
                  23807206.5394                                   23807204.3594
                                                                        45.0004
        28.5004
   -432017.13747   -291614.72744
                  23690541.4224                                   23690539.3524
                                                                        43.5004
        27.7504
 -11465721.91048  -8905416.57445
                  22121193.0784                                   22121187.6024
                                                                        49.7504
        33.5004
  -7033889.61747  -5457271.92644
                  23287700.7664                                   23287698.3324
                                                                        45.0004
        29.2504
  -7511835.07047  -5833358.93744
                  24313039.7424                                   24313036.0354
                                                                        44.2504
        28.0004
 09 10  2  0 27 30.0000000  0  8G02G04G13G29G10G23G30G31
 -20068890.82848 -15602652.12147
                  20612001.0944                                   20611995.1644
                                                                        52.0004
        43.0004
  -7757575.67648  -6021304.23046
                  21150041.4224                                   21150038.8204
                                                                        52.0004
        40.5004
 -23526161.14848 -18258053.46945
                  21579453.7974                                   21579450.0004
                                                                        50.5004
        35.5004
  -2623022.21947  -2028685.79344
                  23772104.8914                                   23772102.8674
                                                                        44.7504
        29.0004
   -638945.60547   -452857.68044
                  23651164.2894                                   23651161.4534
                                                                        43.7504
        28.2504
 -11518265.20348  -8946359.42245
                  22111194.1804                                   22111188.8014
                                                                        50.0004
        34.0004
  -7058199.27347  -5476214.41044
                  23283074.9774                                   23283072.1914
                                                                        44.2504
        29.2504
  -7544214.37547  -5858589.57844
                  24306878.0784                                   24306874.5274
                                                                        44.0004
        28.2504
 09 10  2  0 28  0.0000000  0  8G02G04G13G29G10G23G30G31
 -20186188.62948 -15694053.01647
                  20589679.8204                                   20589674.5554
                                                                        52.0004
        43.5004
  -7792305.42248  -6048366.35946
                  21143432.5554                                   21143429.4924
                                                                        52.2504
        41.0004
 -23663797.80948 -18365302.81645
                  21553262.4774                                   21553258.5234
                                                                        50.7504
        35.5004
  -2807141.52347  -2172155.34444
                  23737068.1804                                   23737066.0354
                                                                        45.0004
        29.0004
   -845664.43047   -613937.19544
                  23611826.5784                                   23611824.8094
                                                                        43.2504
        28.2504
 -11570204.82848  -8986831.87145
                  22101310.6884                                   22101305.2074
                                                                        48.7504
        34.7504
  -7081972.23047  -5494738.83244
                  23278550.9384                                   23278548.3674
                                                                        43.5004
        29.2504
  -7576097.61747  -5883433.66444
                  24300811.4304                                   24300807.4614
                                                                        44.2504
        29.2504
 09 10  2  0 28 30.0000000  0  9G02G04G05G13G29G10G23G30G31
 -20302920.67648 -15785013.13347
                  20567466.6094                                   20567461.5124
                                                                        52.5004
        43.0004
  -7826544.09048  -6075045.85246
                  21136917.0784                                   21136914.5044
                                                                        53.0004
        40.5004
   4386290.27356   3462067.64854
                  24354412.5634                                   24354411.0434
                                                                        41.0004
        27.0004
 -23800803.79748 -18472060.69946
                  21527190.7504                                   21527187.3364
                                                                        50.5004
        36.2504
  -2990922.41847  -2315361.18444
                  23702095.7584                                   23702093.4224
                                                                        45.0004
        29.0004
  -1052176.83647   -774855.93744
                  23572528.9844                                   23572526.5634
                                                                        44.2504
        29.0004
 -11621547.59448  -9026839.20345
                  22091540.3204                                   22091535.1484
                                                                        49.0004
        33.7504
  -7105215.40647  -5512850.45744
                  23274128.2194                                   23274125.4534
                                                                        44.5004
        29.5004
  -7607491.95347  -5907896.82044
                  24294837.3364                                   24294833.9884
                                                                        43.5004
        27.5004
 09 10  2  0 29  0.0000000  0  9G02G04G05G13G29G10G23G30G31
 -20419094.10248 -15875537.91847
                  20545359.2344                                   20545354.2114
                                                                        53.0004
        43.0004
  -7860301.41048  -6101350.26246
                  21130493.3984                                   21130489.8954
                                                                        53.0004
        40.5004
   4179135.92647   3300648.73444
                  24314993.1954                                   24314990.1994
                                                                        44.0004
        28.5004
 -23937185.74248 -18578332.37546
                  21501238.2814                                   21501234.7304
                                                                        50.5004
        36.5004
  -3174370.93047  -2458308.03944
                  23667186.6804                                   23667184.5354
                                                                        43.7504
        28.5004
  -1258488.26647   -935618.02344
                  23533269.0314                                   23533266.9654
                                                                        45.5004
        28.5004
 -11672303.41448  -9066389.19945
                  22081881.7734                                   22081875.9614
                                                                        48.7504
        33.7504
  -7127940.05947  -5530557.94544
                  23269803.1954                                   23269801.4224
                                                                        44.2504
        29.2504
  -7638407.80546  -5931987.10944
                  24288953.9844                                   24288950.7854
                                                                        41.2504
        28.0004
 09 10  2  0 29 30.0000000  0  9G02G04G05G13G29G10G23G30G31
 -20534712.94148 -15965630.51247
                  20523357.9694                                   20523352.8554
                                                                        52.7504
        43.0004
  -7893583.95748  -6127284.68046
                  21124160.0164                                   21124157.0204
                                                                        52.0004
        40.5004
   3972103.78947   3139325.05544
                  24275596.2664                                   24275593.1804
                                                                        44.5004
        29.5004
 -24072947.09848 -18684120.39146
                  21475403.8054                                   21475400.2464
                                                                        51.0004
        36.2504
  -3357489.68747  -2600997.92244
                  23632339.9844                                   23632338.0704
                                                                        44.5004
        28.7504
  -1464602.29347  -1096226.30944
                  23494047.2274                                   23494044.1684
                                                                        45.5004
        29.2504
 -11722478.60948  -9105486.79345
                  22072333.8524                                   22072328.4574
                                                                        48.7504
        33.5004
  -7150154.52347  -5547867.91844
                  23265575.2734                                   23265573.9924
                                                                        43.0004
        29.0004
  -7668852.74246  -5955710.52344
                  24283159.9534                                   24283157.5204
                                                                        41.2504
        27.5004
 09 10  2  0 30  0.0000000  0  9G02G04G05G13G29G10G23G30G31
 -20649773.44148 -16055288.02047
                  20501462.6334                                   20501457.2854
                                                                        52.2504
        43.2504
  -7926390.37948  -6152848.12546
                  21117916.8754                                   21117913.9454
                                                                        52.7504
        41.0004
   3765198.42647   2978100.09044
                  24236223.5944                                   24236220.8014
                                                                        44.2504
        29.0004
 -24208083.60248 -18789421.52346
                  21449688.2894                                   21449684.5204
                                                                        51.0004
        36.2504
  -3540273.19147  -2743426.59044
                  23597557.2734                                   23597555.7034
                                                                        43.5004
        28.7504
  -1670513.35547  -1256676.52344
                  23454863.4614                                   23454860.7504
                                                                        44.2504
        29.0004
 -11772071.66848  -9144130.73445
                  22062896.8984                                   22062890.7934
                                                                        48.5004
        33.2504
  -7171858.55947  -5564780.18044
                  23261445.3674                                   23261443.3794
                                                                        43.2504
        28.0004
  -7698825.99646  -5979066.36744
                  24277456.0474                                   24277453.5744
                                                                        40.2504
        25.5004
 09 10  2  0 30 30.0000000  0  9G02G04G05G13G29G10G23G30G31
 -20764271.87948 -16144507.58647
                  20479674.3364                                   20479668.9264
                                                                        51.7504
        43.0004
  -7958719.78548  -6178039.95346
                  21111764.8914                                   21111761.9774
                                                                        52.5004
        41.0004
   3558425.14847   2816978.05144
                  24196875.7194                                   24196872.8874
                                                                        42.2504
        28.0004
 -24342591.16848 -18894232.57446
                  21424092.0704                                   21424088.5744
                                                                        51.2504
        36.5004
  -3722715.51647  -2885589.37144
                  23562839.7034                                   23562837.6684
                                                                        44.5004
        29.2504
  -1876216.31247  -1416964.55544
                  23415719.2974                                   23415716.6094
                                                                        42.5004
        29.0004
 -11821081.75848  -9182320.38345
                  22053570.2584                                   22053564.6914
                                                                        48.7504
        33.5004
  -7193051.30547  -5581294.02344
                  23257412.5474                                   23257410.7704
                                                                        42.0004
        28.5004
  -7728326.30546  -6002053.70744
                  24271841.8984                                   24271839.8324
                                                                        39.7504
        24.7504
 09 10  2  0 31  0.0000000  0  9G02G04G05G13G29G10G23G30G31
 -20878204.52348 -16233286.25847
                  20457993.6414                                   20457988.4774
                                                                        51.5004
        43.2504
  -7990570.53148  -6202858.74246
                  21105703.8284                                   21105701.3444
                                                                        53.2504
        40.5004
   3351788.54746   2655962.55144
                  24157553.7504                                   24157551.4964
                                                                        41.0004
        26.7504
 -24476465.09448 -18998549.92246
                  21398616.8054                                   21398612.8914
                                                                        51.7504
        36.0004
  -3904811.75047  -3027482.47745
                  23528188.4844                                   23528186.2194
                                                                        44.2504
        30.0004
  -2081706.86747  -1577087.03144
                  23376615.8834                                   23376613.6024
                                                                        42.5004
        29.5004
 -11869507.03148  -9220054.35245
                  22044355.2814                                   22044350.0474
                                                                        49.5004
        33.5004
  -7213733.04347  -5597409.68744
                  23253477.3054                                   23253475.6294
                                                                        43.0004
        27.0004
  -7757353.53146  -6024672.37144
                  24266318.6254                                   24266316.2704
                                                                        40.0004
        25.5004
 09 10  2  0 31 30.0000000  0  9G02G04G05G13G29G10G23G30G31
 -20991568.27348 -16321621.61347
                  20436421.2274                                   20436415.7464
                                                                        52.2504
        43.5004
  -8021942.23048  -6227304.19546
                  21099733.9224                                   21099731.6334
                                                                        53.0004
        40.7504
   3145292.03547   2495056.25844
                  24118258.6644                                   24118256.3054
                                                                        42.5004
        29.5004
 -24609701.85948 -19102370.73446
                  21373262.8054                                   21373258.7854
                                                                        50.5004
        36.7504
  -4086557.79947  -3169102.78544
                  23493602.9064                                   23493600.7464
                                                                        45.0004
        29.2504
  -2286980.72347  -1737040.66444
                  23337553.5314                                   23337551.0704
                                                                        44.2504
        29.7504
 -11917347.30548  -9257332.48845
                  22035251.8984                                   22035246.2384
                                                                        49.2504
        33.5004
  -7233904.75047  -5613127.94544
                  23249639.1804                                   23249636.7304
                                                                        44.0004
        26.5004
  -7785907.97746  -6046922.59444
                  24260885.0554                                   24260882.1524
                                                                        41.2504
        24.5004
 09 10  2  0 32  0.0000000  0  9G02G04G05G13G29G10G23G30G31
 -21104359.88748 -16409511.18747
                  20414957.5234                                   20414952.5824
                                                                        52.2504
        43.5004
  -8052834.09848  -6251375.74246
                  21093855.2584                                   21093852.8594
                                                                        52.5004
        40.7504
   2938940.43447   2334262.82044
                  24078991.5234                                   24078988.7664
                                                                        44.0004
        28.7504
 -24742298.07448 -19205692.44946
                  21348030.2894                                   21348026.5354
                                                                        51.5004
        36.5004
  -4267948.19547  -3310445.92644
                  23459085.9224                                   23459083.0634
                                                                        44.5004
        29.5004
  -2492032.32447  -1896821.04744
                  23298533.0474                                   23298530.6054
                                                                        43.2504
        29.2504
 -11964602.29348  -9294154.56645
                  22026259.5394                                   22026253.7544
                                                                        48.7504
        33.5004
  -7253566.03947  -5628448.41044
                  23245897.4144                                   23245895.1564
                                                                        43.5004
        28.0004
  -7813989.09446  -6068804.02744
                  24255541.7734                                   24255538.0474
                                                                        40.5004
        24.7504
 09 10  2  0 32 30.0000000  0  9G02G04G05G13G29G10G23G30G31
 -21216578.84048 -16496954.55547
                  20393603.1174                                   20393598.0234
                                                                        51.7504
        43.2504
  -8083248.21148  -6275075.03946
                  21088067.9064                                   21088064.9574
                                                                        52.5004
        40.7504
   2732735.13347   2173583.35944
                  24039751.3364                                   24039749.3364
                                                                        43.0004
        29.0004
 -24874252.43748 -19308514.01646
                  21322920.6724                                   21322916.5354
                                                                        50.7504
        36.0004
  -4448981.33647  -3451510.70344
                  23424636.0634                                   23424633.4884
                                                                        44.0004
        29.2504
  -2696860.62947  -2056427.45344
                  23259555.3204                                   23259553.0354
                                                                        42.5004
        29.5004
 -12011273.44948  -9330521.68445
                  22017378.2734                                   22017372.3634
                                                                        48.7504
        33.5004
  -7272720.83647  -5643374.21544
                  23242252.1804                                   23242250.0004
                                                                        43.7504
        26.7504
  -7841599.94547  -6090318.96143
                  24250288.2584                                   24250283.5004
                                                                        43.0004
        23.0004
 09 10  2  0 33  0.0000000  0  9G02G04G05G13G29G10G23G30G31
 -21328226.07048 -16583952.41447
                  20372357.2664                                   20372352.0784
                                                                        52.0004
        43.5004
  -8113188.04348  -6298404.76646
                  21082370.6724                                   21082367.7034
                                                                        52.2504
        40.5004
   2526676.89847   2013018.55144
                  24000540.3914                                   24000537.4414
                                                                        43.2504
        29.0004
 -25005565.64148 -19410836.00046
                  21297932.2974                                   21297928.1914
                                                                        51.2504
        36.0004
  -4629655.76247  -3592295.95344
                  23390255.1414                                   23390252.5204
                                                                        44.5004
        29.2504
  -2901464.92647  -2215859.28544
                  23220620.8284                                   23220617.8594
                                                                        44.5004
        28.7504
 -12057364.20748  -9366436.57045
                  22008607.2894                                   22008601.8094
                                                                        49.2504
        33.5004
  -7291373.30547  -5657908.55144
                  23238703.2034                                   23238700.6294
                                                                        43.0004
        28.7504
  -7868744.08647  -6111470.21143
                  24245122.5554                                   24245117.8204
                                                                        42.5004
        22.7504
 09 10  2  0 33 30.0000000  0  9G02G04G05G13G29G10G23G30G31
 -21439298.01648 -16670501.97747
                  20351221.0394                                   20351216.1994
                                                                        52.0004
        43.2504
  -8142652.24248  -6321363.87146
                  21076763.7194                                   21076760.9414
                                                                        49.7504
        40.5004
   2320770.22746   1852571.85944
                  23961357.6414                                   23961354.9694
                                                                        41.5004
        29.2504
 -25136232.86748 -19512654.61346
                  21273066.7114                                   21273063.4024
                                                                        51.0004
        36.0004
  -4809966.61747  -3732797.92245
                  23355943.1414                                   23355940.8554
                                                                        44.0004
        30.0004
  -3105839.97347  -2375112.49644
                  23181729.3674                                   23181727.1954
                                                                        43.7504
        29.7504
 -12102873.35248  -9401898.23445
                  21999947.1564                                   21999941.7194
                                                                        48.5004
        34.0004
  -7309523.55147  -5672051.49244
                  23235249.1954                                   23235246.3794
                                                                        43.0004
        27.5004
  -7895420.93046  -6132257.33243
                  24240045.7274                                   24240041.2114
                                                                        41.0004
        22.5004
 09 10  2  0 34  0.0000000  0  9G02G04G05G13G29G10G23G30G31
 -19974367.18048 -15528997.44147
                  20629988.2974                                   20629982.8834
                                                                        52.5004
        43.5004
  -6596218.73448  -5116350.73846
                  21371040.0394                                   21371037.3914
                                                                        52.2504
        40.2504
   3690446.35247   2919851.95744
                  24221998.3364                                   24221995.5434
                                                                        43.7504
        29.2504
 -23690825.73848 -18386363.31646
                  21548118.6804                                   21548114.9454
                                                                        50.7504
        37.0004
  -3414482.43047  -2645407.60245
                  23621494.5084                                   23621492.6604
                                                                        44.5004
        30.2504
  -1734554.00447  -1306577.87544
                  23442676.6804                                   23442673.7814
                                                                        44.0004
        29.7504
 -10572378.46548  -8209304.80545
                  22291190.8284                                   22291185.1374
                                                                        49.7504
        33.2504
  -5751750.97747  -4458202.61344
                  23531683.7424                                   23531680.6884
                                                                        43.7504
        26.7504
  -6346209.41447  -4925079.51244
                  24534851.1954                                   24534846.7774
                                                                        43.2504
        25.2504
 09 10  2  0 34 30.0000000  0  9G02G04G05G13G29G10G23G30G31
 -20084283.43748 -15614646.47347
                  20609071.7034                                   20609066.7774
                                                                        52.5004
        43.2504
  -6624734.58248  -5138570.87146
                  21365613.6254                                   21365610.8984
                                                                        51.5004
        39.5004
   3484850.56347   2759647.50844
                  24182874.4774                                   24182871.8404
                                                                        43.0004
        29.2504
 -23820194.91448 -18487170.44946
                  21523500.6954                                   21523497.0904
                                                                        51.5004
        37.0004
  -3594056.05547  -2785335.04345
                  23587323.0084                                   23587320.4104
                                                                        44.0004
        30.0004
  -1938462.16447  -1465467.31245
                  23403873.9774                                   23403871.8324
                                                                        44.5004
        30.7504
 -10616727.85948  -8243862.79745
                  22282751.3984                                   22282745.4924
                                                                        48.5004
        33.0004
  -5768903.17247  -4471567.93744
                  23528419.5234                                   23528417.4494
                                                                        42.2504
        28.0004
  -6371956.72347  -4945142.35544
                  24529951.9384                                   24529947.5204
                                                                        43.0004
        25.0004
 09 10  2  0 35  0.0000000  0  9G02G04G05G13G29G10G23G30G31
 -20193623.05948 -15699846.16847
                  20588265.0944                                   20588260.2464
                                                                        53.0004
        43.2504
  -6652780.84848  -5160425.16446
                  21360276.9454                                   21360274.0274
                                                                        52.0004
        40.0004
   3279410.85547   2599564.60245
                  24143780.7974                                   24143777.9494
                                                                        43.5004
        30.2504
 -23948915.81648 -18587472.46946
                  21499006.2974                                   21499002.4344
                                                                        51.7504
        36.5004
  -3773259.41447  -2924973.98445
                  23553221.6174                                   23553219.0204
                                                                        44.7504
        30.2504
  -2142136.10247  -1624174.25845
                  23365116.1024                                   23365113.5124
                                                                        45.7504
        30.2504
 -10660501.68048  -8277972.27345
                  22274421.4844                                   22274416.0084
                                                                        49.0004
        33.5004
  -5785563.05146  -4484549.71144
                  23525249.0704                                   23525247.0394
                                                                        41.7504
        27.0004
  -6397245.02047  -4964847.53944
                  24525139.3834                                   24525136.1524
                                                                        42.0004
        24.5004
 09 10  2  0 35 30.0000000  0  9G02G04G05G13G29G10G23G30G31
 -20302394.80148 -15784603.37947
                  20567566.7664                                   20567561.5864
                                                                        52.7504
        43.2504
  -6680368.89848  -5181922.33646
                  21355026.9144                                   21355024.1884
                                                                        52.0004
        40.5004
   3074119.96146   2439597.71544
                  24104715.0004                                   24104712.2974
                                                                        41.5004
        29.5004
 -24076996.81648 -18687275.83646
                  21474633.3834                                   21474629.6294
                                                                        51.5004
        36.5004
  -3952099.66447  -3064330.02345
                  23519189.0314                                   23519187.4344
                                                                        43.5004
        30.7504
  -2345582.77347  -1782704.07045
                  23326401.7274                                   23326398.8524
                                                                        43.5004
        31.0004
 -10703711.66048  -8311642.39545
                  22266199.1024                                   22266193.4654
                                                                        49.0004
        33.0004
  -5801742.50446  -4497157.12544
                  23522169.8054                                   23522168.1094
                                                                        41.0004
        26.7504
  -6422085.81246  -4984204.01244
                  24520411.5164                                   24520409.0084
                                                                        41.2504
        24.5004
 09 10  2  0 36  0.0000000  0  9G02G04G05G13G29G10G23G30G31
 -20410589.28948 -15868910.73847
                  20546977.9384                                   20546972.9024
                                                                        53.0004
        43.2504
  -6707491.69548  -5203056.96546
                  21349865.6724                                   21349863.1374
                                                                        51.0004
        40.5004
   2868987.76247   2279754.53544
                  24065679.4224                                   24065677.1374
                                                                        42.5004
        29.5004
 -24204427.57448 -18786572.49246
                  21450384.0784                                   21450380.0124
                                                                        51.5004
        37.0004
  -4130566.41847  -3203395.01245
                  23485228.3134                                   23485225.6884
                                                                        42.5004
        30.0004
  -2548791.66047  -1941048.57445
                  23287732.2034                                   23287729.1644
                                                                        45.5004
        30.2504
 -10746350.53148  -8344867.50045
                  22258084.6334                                   22258079.4924
                                                                        49.0004
        32.7504
  -5817436.59046  -4509386.27744
                  23519183.4454                                   23519181.7894
                                                                        41.0004
        27.5004
  -6446473.72746  -5003207.60544
                  24515770.5554                                   24515768.3484
                                                                        37.7504
        24.7504
 09 10  2  0 36 30.0000000  0  9G02G04G05G13G29G10G23G30G31
 -20518206.40648 -15952768.18447
                  20526499.4224                                   20526494.1524
                                                                        52.5004
        43.7504
  -6734151.97748  -5223831.19946
                  21344792.4844                                   21344789.9414
                                                                        51.2504
        40.2504
   2664016.21147   2120036.51045
                  24026675.0394                                   24026672.4924
                                                                        43.0004
        30.0004
 -24331208.48048 -18885362.80146
                  21426258.3984                                   21426255.1294
                                                                        51.2504
        37.0004
  -4308657.28147  -3342167.11745
                  23451338.5004                                   23451336.2664
                                                                        43.2504
        31.0004
  -2751760.68047  -2099206.07044
                  23249108.0784                                   23249104.9384
                                                                        45.0004
        29.7504
 -10788421.44548  -8377650.01645
                  22250079.0164                                   22250073.3134
                                                                        49.5004
        32.0004
  -5832648.18047  -4521239.48844
                  23516289.3754                                   23516287.3674
                                                                        42.2504
        29.2504
  -6470410.84846  -5021859.93044
                  24511215.6804                                   24511213.2974
                                                                        40.7504
        26.0004
 09 10  2  0 37  0.0000000  0  9G02G04G05G13G29G10G23G30G31
 -20625240.60948 -16036171.43047
                  20506131.0784                                   20506125.6724
                                                                        52.7504
        43.5004
  -6760346.34048  -5244242.38746
                  21339807.8594                                   21339805.2034
                                                                        52.0004
        40.0004
   2459212.04347   1960448.82845
                  23987702.0704                                   23987699.2304
                                                                        44.7504
        30.5004
 -24457331.74648 -18983640.68046
                  21402257.6564                                   21402253.6454
                                                                        51.0004
        36.7504
  -4486364.80147  -3480640.50445
                  23417522.3594                                   23417519.8484
                                                                        43.5004
        30.5004
  -2954483.21147  -2257171.59044
                  23210531.0864                                   23210528.3554
                                                                        44.7504
        29.7504
 -10829921.40248  -8409987.64845
                  22242182.0554                                   22242176.2664
                                                                        49.2504
        33.2504
  -5847375.48447  -4532715.29344
                  23513487.0554                                   23513484.6724
                                                                        43.7504
        29.2504
  -6493894.96547  -5040159.25844
                  24506746.7504                                   24506744.0554
                                                                        42.2504
        25.7504
 09 10  2  0 37 30.0000000  0  9G02G04G05G13G29G10G23G30G31
 -20731697.29748 -16119124.65647
                  20485872.9144                                   20485868.0234
                                                                        52.7504
        43.2504
  -6786082.73048  -5264296.71946
                  21334910.1414                                   21334907.5824
                                                                        51.0004
        40.0004
   2254570.63347   1800987.94145
                  23948760.1724                                   23948757.2424
                                                                        43.5004
        31.0004
 -24582804.21948 -19081411.44946
                  21378381.0234                                   21378377.4224
                                                                        51.0004
        37.2504
  -4663692.88747  -3618818.25045
                  23383777.8284                                   23383775.1804
                                                                        43.7504
        31.0004
  -3156963.44547  -2414948.37145
                  23172000.5864                                   23171997.4224
                                                                        42.7504
        30.5004
 -10870858.08248  -8441886.34845
                  22234392.0164                                   22234386.1334
                                                                        49.0004
        33.0004
  -5861627.64547  -4543820.86744
                  23510774.4614                                   23510771.9654
                                                                        42.7504
        27.2504
  -6516934.53146  -5058112.18744
                  24502363.0394                                   24502360.1374
                                                                        40.7504
        26.2504
 09 10  2  0 38  0.0000000  0  9G02G04G05G13G29G10G23G30G31
 -20837576.21148 -16201627.67647
                  20465724.8594                                   20465719.7274
                                                                        51.7504
        43.5004
  -6811363.03548  -5283995.65246
                  21330099.6484                                   21330096.8874
                                                                        51.0004
        39.5004
   2050093.86347   1641655.37545
                  23909849.1414                                   23909847.1134
                                                                        44.0004
        30.5004
 -24707623.82448 -19178673.48846
                  21354628.6024                                   21354625.0314
                                                                        51.0004
        36.7504
  -4840639.42247  -3756698.69545
                  23350105.8674                                   23350103.2774
                                                                        44.7504
        31.5004
  -3359199.53947  -2572535.03545
                  23133516.6334                                   23133513.8984
                                                                        45.7504
        31.0004
 -10911233.00848  -8473347.32845
                  22226708.8054                                   22226702.9884
                                                                        49.5004
        33.0004
  -5875407.95747  -4554558.69144
                  23508152.0314                                   23508149.2584
                                                                        44.0004
        26.5004
  -6539532.60247  -5075721.14844
                  24498063.4614                                   24498059.6214
                                                                        43.5004
        25.7504
 09 10  2  0 38 30.0000000  0  9G02G04G05G13G29G10G23G30G31
 -20942874.28548 -16283678.09847
                  20445687.2424                                   20445682.2894
                                                                        52.7504
        43.0004
  -6836186.67648  -5303338.73446
                  21325375.7894                                   21325372.9964
                                                                        52.0004
        40.0004
   1845785.84847   1482454.26245
                  23870970.8834                                   23870967.9734
                                                                        44.2504
        30.0004
 -24831787.76248 -19275424.59846
                  21331001.3914                                   21330997.1884
                                                                        51.0004
        36.2504
  -5017199.49247  -3894277.92645
                  23316507.9694                                   23316505.2424
                                                                        45.0004
        30.5004
  -3561186.92647  -2729927.88745
                  23095079.4694                                   23095076.7774
                                                                        45.7504
        32.0004
 -10951046.35948  -8504370.71145
                  22219132.5314                                   22219127.1374
                                                                        48.7504
        32.5004
  -5888717.28547  -4564929.56644
                  23505620.0634                                   23505616.9574
                                                                        43.7504
        26.7504
  -6561689.19947  -5092986.06644
                  24493846.3594                                   24493843.3524
                                                                        42.5004
        24.0004
 09 10  2  0 39  0.0000000  0  9G02G04G05G13G29G10G23G30G31
 -21047592.00848 -16365276.30947
                  20425760.0784                                   20425754.9694
                                                                        52.7504
        43.5004
  -6860556.92648  -5322328.53946
                  21320738.1644                                   21320735.3244
                                                                        51.0004
        40.5004
   1641648.15247   1323385.90244
                  23832124.7424                                   23832122.0474
                                                                        43.5004
        29.7504
 -24955296.61348 -19371665.26646
                  21307498.0164                                   21307494.4264
                                                                        51.0004
        36.7504
  -5193371.60547  -4031554.83245
                  23282982.8984                                   23282980.4964
                                                                        43.0004
        30.7504
  -3762924.26247  -2887125.84845
                  23056689.9454                                   23056687.6524
                                                                        44.7504
        31.5004
 -10990301.19548  -8534958.90245
                  22211662.6804                                   22211657.4924
                                                                        49.0004
        33.0004
  -5901559.03947  -4574936.13344
                  23503175.3674                                   23503172.4734
                                                                        42.0004
        25.2504
  -6583407.34846  -5109909.34843
                  24489713.9694                                   24489709.9614
                                                                        39.5004
        22.2504
 09 10  2  0 39 30.0000000  0  9G02G04G05G13G29G10G23G30G31
 -21151728.94948 -16446421.96147
                  20405943.5554                                   20405938.2624
                                                                        52.7504
        43.5004
  -6884475.24648  -5340966.17646
                  21316186.9384                                   21316184.0164
                                                                        51.7504
        40.0004
   1437681.76647   1164451.06645
                  23793311.2894                                   23793308.5704
                                                                        44.0004
        31.0004
 -25078148.41448 -19467393.93046
                  21284120.4614                                   21284116.2624
                                                                        50.5004
        37.0004
  -5369153.76647  -4168527.89145
                  23249532.6174                                   23249530.2934
                                                                        43.7504
        30.5004
  -3964409.62947  -3044127.45745
                  23018348.4454                                   23018346.3164
                                                                        44.7504
        31.5004
 -11028999.03548  -8565113.07045
                  22204298.4304                                   22204292.9534
                                                                        49.2504
        32.7504
  -5913936.72346  -4584581.10944
                  23500820.2974                                   23500817.3404
                                                                        41.0004
        24.5004
  -6604689.57047  -5126492.91843
                  24485663.9534                                   24485660.1564
                                                                        42.0004
        22.2504
 09 10  2  0 40  0.0000000  0  9G02G04G05G13G29G10G23G30G31
 -21255280.27748 -16527111.28547
                  20386238.5234                                   20386233.0594
                                                                        53.5004
        43.5004
  -6907939.38748  -5359249.94946
                  21311721.7814                                   21311718.8594
                                                                        52.0004
        40.0004
   1233893.05147   1005654.65245
                  23754531.6804                                   23754529.0314
                                                                        44.5004
        31.7504
 -25200337.83248 -19562606.45346
                  21260868.4144                                   21260864.4104
                                                                        51.0004
        37.0004
  -5544539.43047  -4305192.03145
                  23216157.5234                                   23216155.6484
                                                                        43.0004
        30.7504
  -4165636.43447  -3200927.53145
                  22980056.6884                                   22980053.9804
                                                                        44.2504
        31.5004
 -11067137.90648  -8594831.66445
                  22197041.4384                                   22197036.0664
                                                                        48.7504
        32.5004
  -5925849.12146  -4593863.55144
                  23498552.7424                                   23498550.7344
                                                                        41.0004
        24.2504
  -6625534.75046  -5142736.00843
                  24481697.1804                                   24481693.6174
                                                                        40.5004
        22.5004
 09 10  2  0 40 30.0000000  0  9G02G04G05G13G29G10G23G30G31
 -21358247.45348 -16607345.47347
                  20366644.1094                                   20366639.2624
                                                                        53.5004
        43.5004
  -6930952.93448  -5377182.55946
                  21307342.6174                                   21307339.5274
                                                                        51.7504
        40.2504
   1030282.56347    846997.16045
                  23715785.8524                                   23715783.1884
                                                                        43.0004
        32.2504
 -25321866.50448 -19657304.10946
                  21237742.1804                                   21237738.2624
                                                                        50.7504
        37.2504
  -5719527.94547  -4441546.72345
                  23182858.8674                                   23182856.6374
                                                                        43.7504
        30.5004
  -4366604.56247  -3357526.13345
                  22941813.9304                                   22941810.7464
                                                                        44.0004
        30.2504
 -11104721.77048  -8624117.80145
                  22189888.9774                                   22189883.4804
                                                                        49.2504
        33.2504
  -5937300.76446  -4602786.93044
                  23496373.9534                                   23496372.2154
                                                                        41.5004
        26.0004
  -6645946.80546  -5158641.57443
                  24477813.2734                                   24477809.4694
                                                                        39.5004
        22.2504
 09 10  2  0 41  0.0000000  0  9G02G04G05G13G29G10G23G30G31
 -21460631.89548 -16687125.43047
                  20347161.2114                                   20347156.0784
                                                                        53.0004
        43.0004
  -6953520.13348  -5394767.39146
                  21303047.8914                                   21303045.3404
                                                                        50.7504
        39.5004
    826849.16047    688477.68445
                  23677073.5554                                   23677070.6764
                                                                        43.2504
        31.2504
 -25442735.85548 -19751488.01246
                  21214741.3444                                   21214737.6994
                                                                        51.2504
        37.0004
  -5894119.34447  -4577591.90645
                  23149634.7344                                   23149632.6884
                                                                        44.0004
        31.0004
  -4567314.12947  -3513923.21545
                  22903620.4144                                   22903617.0944
                                                                        44.0004
        30.5004
 -11141754.64848  -8652974.57845
                  22182842.1174                                   22182836.2774
                                                                        49.0004
        32.5004
  -5948297.67647  -4611356.07444
                  23494281.6094                                   23494279.7344
                                                                        43.0004
        27.0004
  -6665930.73446  -5174213.54343
                  24474009.9064                                   24474006.7894
                                                                        37.5004
        22.5004
 09 10  2  0 41 30.0000000  0  9G02G04G05G13G29G10G23G30G31
 -21562438.73848 -16766455.38747
                  20327787.9924                                   20327782.7894
                                                                        53.0004
        43.5004
  -6975648.57048  -5412010.32046
                  21298837.0164                                   21298834.1604
                                                                        50.0004
        39.7504
    623589.76647    530093.83245
                  23638394.2814                                   23638391.4804
                                                                        43.0004
        30.5004
 -25562950.58648 -19845161.80546
                  21191865.3134                                   21191861.1684
                                                                        50.7504
        36.5004
  -6068316.42247  -4713329.90645
                  23116486.5004                                   23116484.0274
                                                                        43.7504
        31.2504
  -4767768.04747  -3670121.01645
                  22865475.2814                                   22865471.9614
                                                                        44.2504
        31.7504
 -11178244.40648  -8681408.17645
                  22175898.4304                                   22175892.2424
                                                                        49.0004
        31.7504
  -5958848.07047  -4619577.18444
                  23492274.0864                                   23492272.0784
                                                                        44.2504
        29.5004
  -6685494.39846  -5189458.02344
                  24470287.3754                                   24470284.4104
                                                                        38.5004
        24.2504
 09 10  2  0 42  0.0000000  0  9G02G04G05G13G29G10G23G30G31
 -21663665.45748 -16845333.30947
                  20308525.0864                                   20308519.7384
                                                                        53.2504
        43.5004
  -6997337.39148  -5428910.71546
                  21294709.8674                                   21294707.3524
                                                                        51.2504
        39.7504
    420507.77347    371848.18445
                  23599749.3914                                   23599746.0474
                                                                        42.0004
        31.0004
 -25682507.22748 -19938322.82846
                  21169114.6564                                   21169110.8284
                                                                        51.7504
        36.2504
  -6242115.26647  -4848757.58245
                  23083413.6484                                   23083410.9184
                                                                        45.0004
        31.7504
  -4967962.85547  -3826116.93745
                  22827378.7034                                   22827376.0474
                                                                        43.2504
        32.0004
 -11214190.76648  -8709418.32045
                  22169058.0864                                   22169051.7664
                                                                        49.2504
        32.5004
  -5968953.33647  -4627451.46144
                  23490351.4224                                   23490349.6954
                                                                        45.2504
        29.2504
  -6704638.37946  -5204375.53144
                  24466644.7894                                   24466641.5124
                                                                        41.2504
        26.5004
 09 10  2  0 42 30.0000000  0 10G02G04G05G13G29G10G23G30G31G25
 -20188884.96948 -15696153.68447
                  20589166.5554                                   20589161.5234
                                                                        53.0004
        43.0004
  -5443165.02348  -4217867.31646
                  21590459.1484                                   21590456.3984
                                                                        50.5004
        39.2504
   1793035.80147   1441350.61345
                  23860932.5164                                   23860929.9884
                                                                        43.2504
        31.7504
 -24225977.62148 -18803364.70346
                  21446282.8914                                   21446279.0044
                                                                        51.2504
        36.7504
  -4840083.96547  -3756265.66845
                  23350211.5704                                   23350208.8594
                                                                        44.7504
        31.2504
  -3592466.35947  -2754301.44945
                  23089126.8914                                   23089124.4804
                                                                        43.5004
        32.0004
  -9674171.00448  -7509402.91845
                  22462114.0554                                   22462108.9264
                                                                        48.7504
        32.2504
  -4403192.25447  -3407377.92244
                  23788306.3364                                   23788303.9064
                                                                        46.2504
        29.0004
  -5147940.97347  -3991364.62944
                  24762874.2274                                   24762871.5354
                                                                        42.2504
        26.0004
   7578424.46956   5944105.50453
                  24342896.2974                                   24342893.9344
                                                                        38.2504
        20.0004
 09 10  2  0 43  0.0000000  0  9G02G04G05G13G29G10G23G30G25
 -20288952.13348 -15774128.07447
                  20570124.2424                                   20570119.2854
                                                                        53.7504
        43.5004
  -5463983.06248  -4234089.19146
                  21586497.5394                                   21586494.9734
                                                                        50.0004
        39.0004
   1590313.37547   1283385.11345
                  23822355.8834                                   23822352.9454
                                                                        45.5004
        32.7504
 -24344218.02748 -18895500.07046
                  21423782.3834                                   21423778.5744
                                                                        51.7504
        37.2504
  -5013080.52747  -3891068.18745
                  23317291.4144                                   23317289.0784
                                                                        44.5004
        32.0004
  -3792138.03547  -2909889.70345
                  23051130.7344                                   23051128.1414
                                                                        45.0004
        31.7504
  -9709038.35248  -7536572.27745
                  22455479.0944                                   22455473.2304
                                                                        49.2504
        32.0004
  -4412417.19547  -3414566.18744
                  23786550.9144                                   23786547.9304
                                                                        45.7504
        28.2504
   7396644.60546   5802458.89143
                  24308305.3674                                   24308302.6174
                                                                        38.2504
        21.5004
 09 10  2  0 43 30.0000000  0  9G02G04G05G13G29G10G23G30G25
 -20388451.34448 -15851659.89547
                  20551190.4224                                   20551184.9574
                                                                        53.0004
        44.2504
  -5484380.83648  -4249983.59846
                  21582615.7894                                   21582613.1484
                                                                        50.7504
        39.0004
   1387761.18447   1125552.32045
                  23783811.1414                                   23783808.4614
                                                                        43.7504
        31.7504
 -24461811.44548 -18987131.30946
                  21401405.2274                                   21401401.2854
                                                                        51.2504
        36.2504
  -5185684.62147  -4025564.88745
                  23284446.3284                                   23284443.5904
                                                                        44.5004
        31.5004
  -3991557.21547  -3065281.21545
                  23013182.5394                                   23013179.5664
                                                                        45.5004
        32.0004
  -9743381.86348  -7563333.45745
                  22448943.6174                                   22448938.0704
                                                                        48.7504
        32.0004
  -4421219.19147  -3421424.87544
                  23784875.1024                                   23784873.1484
                                                                        44.0004
        26.0004
   7215142.48046   5661028.74243
                  24273767.1954                                   24273764.2774
                                                                        40.5004
        22.5004
 09 10  2  0 44  0.0000000  0  9G02G04G05G13G29G10G23G30G25
 -20487366.38748 -15928736.57047
                  20532367.1884                                   20532361.8714
                                                                        53.0004
        43.5004
  -5504344.53148  -4265539.73446
                  21578816.9304                                   21578814.3444
                                                                        50.2504
        39.2504
   1185396.60547    967865.67645
                  23745302.4304                                   23745299.3404
                                                                        44.2504
        32.0004
 -24578741.38748 -19078245.53546
                  21379153.9924                                   21379150.2344
                                                                        51.0004
        36.5004
  -5357878.75047  -4159742.09845
                  23251678.4774                                   23251676.0864
                                                                        43.5004
        32.2504
  -4190706.53947  -3220462.50445
                  22975286.0084                                   22975282.3404
                                                                        45.2504
        31.5004
  -9777188.06248  -7589675.98445
                  22442510.3364                                   22442504.6294
                                                                        48.5004
        31.7504
  -4429586.14847  -3427944.57844
                  23783282.2894                                   23783280.8524
                                                                        43.0004
        24.2504
   7033936.44547   5519829.29744
                  24239284.2894                                   24239282.3054
                                                                        42.0004
        24.5004
 09 10  2  0 44 30.0000000  0  9G02G04G05G13G29G10G23G30G25
 -20585687.83649 -16005350.69547
                  20513657.3284                                   20513652.0944
                                                                        54.0004
        43.5004
  -5523867.25848  -4280752.23446
                  21575102.1724                                   21575099.4184
                                                                        51.0004
        39.2504
    983230.44147    810333.67645
                  23706831.5944                                   23706828.7034
                                                                        44.5004
        31.7504
 -24694998.45348 -19168835.46546
                  21357031.0474                                   21357027.3914
                                                                        51.0004
        37.2504
  -5529651.49247  -4293590.93045
                  23218990.7974                                   23218988.8984
                                                                        45.0004
        32.5004
  -4389574.67247  -3375424.71545
                  22937442.5164                                   22937439.4024
                                                                        45.0004
        30.7504
  -9810449.89848  -7615594.30145
                  22436180.9384                                   22436175.1174
                                                                        48.5004
        31.7504
  -4437511.85247  -3434120.45343
                  23781773.5784                                   23781772.4694
                                                                        42.2504
        22.7504
   6853038.07447   5378869.58644
                  24204860.7194                                   24204857.6334
                                                                        42.5004
        25.2504
 09 10  2  0 45  0.0000000  0  9G02G04G05G13G29G10G23G30G25
 -20683414.50848 -16081501.32847
                  20495060.6724                                   20495055.6484
                                                                        53.7504
        43.7504
  -5542949.99248  -4295621.87946
                  21571470.4924                                   21571467.8834
                                                                        50.5004
        38.7504
    781265.53547    652958.46545
                  23668398.9454                                   23668395.9494
                                                                        43.5004
        32.5004
 -24810580.96948 -19258899.77346
                  21335036.5634                                   21335032.6684
                                                                        50.7504
        36.7504
  -5700999.46947  -4427108.84845
                  23186384.8284                                   23186382.3524
                                                                        44.0004
        32.2504
  -4588158.21947  -3530165.13745
                  22899652.9614                                   22899650.1804
                                                                        44.7504
        31.7504
  -9843168.82048  -7641089.56245
                  22429954.5634                                   22429948.8794
                                                                        48.5004
        32.0004
  -4444998.36347  -3439954.10243
                  23780349.6024                                   23780347.0274
                                                                        43.2504
        23.0004
   6672450.57047   5238152.09843
                  24170496.2344                                   24170492.8324
                                                                        42.5004
        23.2504
 09 10  2  0 45 30.0000000  0  9G02G04G05G13G29G10G23G30G25
 -20780546.14848 -16157188.31647
                  20476577.1024                                   20476571.9064
                                                                        53.5004
        43.2504
  -5561594.55548  -4310150.09846
                  21567922.7114                                   21567919.7504
                                                                        52.0004
        39.0004
    579503.80547    495741.63745
                  23630004.8134                                   23630002.0744
                                                                        43.7504
        31.5004
 -24925488.09048 -19348437.78546
                  21313170.5164                                   21313166.5944
                                                                        50.7504
        36.7504
  -5871920.63347  -4560294.16445
                  23153859.3594                                   23153857.2034
                                                                        43.7504
        32.0004
  -4786455.98047  -3684682.85945
                  22861918.4384                                   22861915.5434
                                                                        44.5004
        32.7504
  -9875346.71948  -7666163.24645
                  22423831.2584                                   22423825.7194
                                                                        48.0004
        32.2504
  -4452049.10747  -3445448.14744
                  23779008.7424                                   23779005.7384
                                                                        45.2504
        24.0004
   6492177.11346   5097679.28543
                  24136190.9144                                   24136187.2544
                                                                        41.5004
        22.5004
 09 10  2  0 46  0.0000000  0  9G02G04G05G13G29G10G23G30G25
 -20877087.37148 -16232415.25047
                  20458205.6884                                   20458200.6954
                                                                        53.2504
        43.7504
  -5579807.82848  -4324342.27346
                  21564456.5554                                   21564453.8834
                                                                        51.2504
        39.5004
    377942.30147    338680.75845
                  23591649.1644                                   23591645.8914
                                                                        43.7504
        31.7504
 -25039724.14148 -19437452.88746
                  21291432.1644                                   21291428.4224
                                                                        50.0004
        37.0004
  -6042417.47747  -4693148.83645
                  23121415.1024                                   23121412.6884
                                                                        44.5004
        32.5004
  -4984469.97747  -3838979.41445
                  22824237.1804                                   22824235.0514
                                                                        45.7504
        32.5004
  -9906990.75048  -7690820.93045
                  22417809.4304                                   22417804.2464
                                                                        48.2504
        32.0004
  -4458672.22347  -3450609.00044
                  23777748.4924                                   23777745.5004
                                                                        45.5004
        27.0004
   6312215.51246   4957449.48843
                  24101944.9224                                   24101941.5314
                                                                        40.5004
        20.5004
 09 10  2  0 46 30.0000000  0  9G02G04G05G13G29G10G23G30G25
 -20973041.16448 -16307184.45347
                  20439946.4844                                   20439941.1174
                                                                        53.2504
        43.5004
  -5597595.22348  -4338202.59046
                  21561072.1024                                   21561069.0824
                                                                        51.5004
        39.5004
    176579.30947    181774.55945
                  23553330.9694                                   23553327.7624
                                                                        44.5004
        31.2504
 -25153292.31648 -19525947.57046
                  21269820.9774                                   21269816.9884
                                                                        51.0004
        37.2504
  -6212490.95747  -4825673.63345
                  23089051.2894                                   23089047.8444
                                                                        45.2504
        31.5004
  -5182201.68047  -3993056.02345
                  22786610.2664                                   22786607.8834
                                                                        46.0004
        32.5004
  -9938106.68448  -7715067.10945
                  22411888.4454                                   22411883.1054
                                                                        48.5004
        32.0004
  -4464874.36747  -3455441.88344
                  23776568.1414                                   23776565.4384
                                                                        46.0004
        27.7504
   6132564.57446   4817461.82443
                  24067758.4304                                   24067755.7894
                                                                        40.5004
        19.7504
 09 10  2  0 47  0.0000000  0  9G02G04G05G13G29G10G23G30G25
 -21068404.64548 -16381493.66447
                  20421799.5634                                   20421794.3324
                                                                        53.2504
        43.7504
  -5614956.44548  -4351730.84846
                  21557768.1094                                   21557765.6844
                                                                        51.7504
        39.0004
    -24580.84447     25026.41445
                  23515051.3674                                   23515048.4614
                                                                        43.5004
        31.7504
 -25266189.27748 -19613919.23846
                  21248337.5864                                   21248333.5704
                                                                        50.7504
        37.0004
  -6382136.52047  -4957864.96145
                  23056768.3364                                   23056766.1564
                                                                        44.0004
        32.5004
  -5379646.84847  -4146909.33245
                  22749038.0314                                   22749035.1134
                                                                        45.5004
        33.0004
  -9968694.12548  -7738901.50045
                  22406068.4304                                   22406062.6804
                                                                        48.2504
        32.0004
  -4470656.47347  -3459947.41844
                  23775468.0944                                   23775465.4884
                                                                        46.2504
        29.7504
   5953229.53946   4677720.28143
                  24033632.1174                                   24033629.0554
                                                                        41.0004
        21.0004
 09 10  2  0 47 30.0000000  0  9G02G04G05G13G29G10G23G30G25
 -21163181.69148 -16455345.90647
                  20403763.9534                                   20403758.8524
                                                                        53.0004
        43.0004
  -5631896.95348  -4364931.24246
                  21554544.6724                                   21554541.9104
                                                                        51.2504
        38.2504
   -225539.98047   -131565.07045
                  23476810.2504                                   23476807.5004
                                                                        45.0004
        32.5004
 -25378418.07448 -19701370.25446
                  21226980.6804                                   21226976.8954
                                                                        50.5004
        37.5004
  -6551356.03147  -5089724.30145
                  23024567.3914                                   23024564.5084
                                                                        43.2504
        32.0004
  -5576807.24247  -4300540.78945
                  22711519.2504                                   22711516.7774
                                                                        45.5004
        32.7504
  -9998759.03548  -7762328.70345
                  22400347.0704                                   22400341.4694
                                                                        48.2504
        32.0004
  -4476024.91047  -3464130.61344
                  23774446.3984                                   23774444.5314
                                                                        45.2504
        28.7504
   5774209.39547   4538224.04743
                  23999565.8754                                   23999562.9844
                                                                        42.5004
        21.5004
 09 10  2  0 48  0.0000000  0  9G02G04G05G13G29G10G23G30G25
 -21257368.44948 -16528738.18447
                  20385840.7504                                   20385835.4964
                                                                        53.2504
        43.2504
  -5648415.25448  -4377802.64846
                  21551401.3444                                   21551398.5634
                                                                        51.2504
        38.5004
   -426293.20347   -287996.17245
                  23438607.9924                                   23438605.3594
                                                                        44.5004
        33.7504
 -25489974.90248 -19788297.62146
                  21205752.2664                                   21205748.6134
                                                                        50.7504
        36.7504
  -6720143.61347  -5221247.10245
                  22992447.8364                                   22992445.4264
                                                                        43.5004
        33.0004
  -5773677.15247  -4453945.88745
                  22674056.0864                                   22674053.1644
                                                                        46.2504
        32.5004
 -10028300.24648  -7785347.81645
                  22394725.0234                                   22394720.1644
                                                                        48.0004
        32.0004
  -4480979.74247  -3467991.60244
                  23773503.6484                                   23773501.4534
                                                                        44.7504
        27.5004
   5595510.23847   4398977.94144
                  23965561.1804                                   23965557.6454
                                                                        43.0004
        24.5004
 09 10  2  0 48 30.0000000  0  9G02G04G05G13G29G10G23G30G25
 -21350968.73448 -16601673.48847
                  20368029.5084                                   20368024.0904
                                                                        52.7504
        43.5004
  -5664517.18448  -4390349.61346
                  21548337.1804                                   21548334.3984
                                                                        51.5004
        39.2504
   -626841.68747   -444267.66845
                  23400445.2664                                   23400442.3634
                                                                        45.5004
        33.5004
 -25600862.90248 -19874703.86746
                  21184650.8984                                   21184646.6334
                                                                        50.0004
        37.0004
  -6888500.34447  -5352434.13345
                  22960410.9384                                   22960408.7774
                                                                        43.7504
        32.7504
  -5970258.18747  -4607125.91445
                  22636648.0784                                   22636645.1954
                                                                        46.0004
        31.7504
 -10057323.74647  -7807963.56245
                  22389202.5474                                   22389197.1764
                                                                        47.7504
        32.5004
  -4485528.23847  -3471535.93044
                  23772637.3674                                   23772635.9264
                                                                        43.0004
        24.5004
   5417131.04747   4259981.16444
                  23931616.6174                                   23931613.5984
                                                                        42.2504
        24.2504
 09 10  2  0 49  0.0000000  0  9G02G04G05G13G29G10G23G30G25
 -21443982.20348 -16674151.51247
                  20350329.2664                                   20350324.2194
                                                                        52.2504
        43.7504
  -5680205.22748  -4402574.08246
                  21545351.7664                                   21545349.0944
                                                                        50.0004
        39.0004
   -827183.93047   -600378.49245
                  23362321.1174                                   23362317.7194
                                                                        43.2504
        32.5004
 -25711082.41448 -19960589.20746
                  21163676.8054                                   21163673.2424
                                                                        50.0004
        37.5004
  -7056424.42647  -5483284.03945
                  22928455.5864                                   22928453.9064
                                                                        43.7504
        33.5004
  -6166548.35247  -4760079.27045
                  22599295.1954                                   22599292.0554
                                                                        44.5004
        32.5004
 -10085832.05148  -7830177.81645
                  22383778.0784                                   22383771.4694
                                                                        48.7504
        32.2504
  -4489673.23046  -3474765.83643
                  23771848.9304                                   23771846.8404
                                                                        41.2504
        22.5004
   5239073.79747   4121235.26644
                  23897732.9844                                   23897730.3714
                                                                        42.0004
        24.2504
 09 10  2  0 49 30.0000000  0  9G02G04G05G13G29G10G23G30G25
 -21536405.77748 -16746169.86747
                  20332741.8834                                   20332736.3874
                                                                        52.2504
        43.2504
  -5695478.18448  -4414475.10246
                  21542445.8134                                   21542442.9884
                                                                        51.0004
        39.7504
  -1027315.37947   -756325.07445
                  23324237.0554                                   23324233.8984
                                                                        45.2504
        32.2504
 -25820629.69148 -20045950.75046
                  21142830.5554                                   21142826.7074
                                                                        49.2504
        37.0004
  -7223910.68047  -5613792.77345
                  22896584.5784                                   22896582.0864
                                                                        45.0004
        33.0004
  -6362542.88347  -4912802.31245
                  22561998.6804                                   22561996.2584
                                                                        45.5004
        33.0004
 -10113824.45348  -7851990.08245
                  22378450.5944                                   22378445.2034
                                                                        48.0004
        31.2504
  -4493415.73047  -3477682.11343
                  23771136.1724                                   23771134.1564
                                                                        42.0004
        22.0004
   5061344.56346   3982745.01244
                  23863912.1174                                   23863910.2234
                                                                        41.7504
        25.0004
 09 10  2  0 50  0.0000000  0  9G02G04G05G13G29G10G23G30G25
 -21628238.62948 -16817727.93047
                  20315266.5164                                   20315261.0234
                                                                        51.7504
        43.5004
  -5710337.35948  -4426053.68046
                  21539618.0394                                   21539614.9224
                                                                        51.0004
        38.5004
  -1227233.43047   -912105.35545
                  23286193.7584                                   23286190.6374
                                                                        45.5004
        31.2504
 -25929503.34848 -20130787.33646
                  21122112.6484                                   21122109.0004
                                                                        49.5004
        37.0004
  -7390956.23447  -5743958.09845
                  22864796.4534                                   22864793.7194
                                                                        43.5004
        33.0004
  -6558238.67247  -5065292.53145
                  22524759.3674                                   22524756.6054
                                                                        46.5004
        35.0004
 -10141302.47747  -7873401.53545
                  22373221.7664                                   22373216.0864
                                                                        47.7504
        30.0004
  -4496757.82046  -3480286.34443
                  23770500.6884                                   23770498.4384
                                                                        41.5004
        22.2504
   4883946.26646   3844512.62943
                  23830154.5784                                   23830151.7344
                                                                        41.2504
        22.7504
 09 10  2  0 50 30.0000000  0  9G02G04G05G13G29G10G23G30G25
 -21719481.32448 -16888826.10247
                  20297903.5394                                   20297898.6254
                                                                        51.7504
        43.2504
  -5724785.62148  -4437312.08646
                  21536868.3984                                   21536865.5044
                                                                        49.7504
        38.2504
  -1426936.67247  -1067718.18445
                  23248191.6884                                   23248188.7034
                                                                        45.2504
        32.5004
 -26037704.13348 -20215099.60546
                  21101522.5864                                   21101519.0204
                                                                        48.7504
        37.2504
  -7557560.07447  -5873779.22345
                  22833092.8364                                   22833089.8594
                                                                        44.0004
        33.0004
  -6753634.73847  -5217549.18445
                  22487576.7344                                   22487574.0594
                                                                        45.5004
        34.5004
 -10168269.56647  -7894414.86745
                  22368090.1174                                   22368084.3834
                                                                        47.2504
        30.0004
  -4499703.49247  -3482581.71544
                  23769940.1254                                   23769937.8014
                                                                        43.0004
        24.0004
   4706880.77046   3706539.52343
                  23796459.7894                                   23796457.1604
                                                                        41.5004
        22.2504
 09 10  2  0 51  0.0000000  0  9G02G04G05G13G29G10G23G30G25
 -20234710.28148 -15731861.64547
                  20580446.2114                                   20580441.1024
                                                                        52.0004
        43.2504
  -4163403.75848  -3220650.90246
                  21833989.4224                                   21833986.6724
                                                                        50.2504
        38.7504
    -50996.23447      4443.23045
                  23510024.7894                                   23510021.8794
                                                                        46.2504
        33.7504
 -24569807.35548 -19071283.93746
                  21380854.2194                                   21380850.3134
                                                                        49.5004
        38.0004
  -6148293.44547  -4775649.32045
                  23101267.2974                                   23101264.4654
                                                                        44.5004
        33.0004
  -5373302.01647  -4141965.14545
                  22750245.3524                                   22750242.8324
                                                                        46.0004
        34.0004
  -8619306.00847  -6687430.27345
                  22662848.0394                                   22662842.2934
                                                                        47.5004
        30.5004
  -2926835.23847  -2256970.05944
                  24069247.3444                                   24069245.0044
                                                                        43.0004
        26.5004
   6105577.44946   4796433.05943
                  24062623.0554                                   24062620.5044
                                                                        41.2504
        22.5004
 09 10  2  0 51 30.0000000  0  9G02G04G05G13G29G10G23G30G25
 -20324774.02748 -15802041.17647
                  20563307.6024                                   20563302.1214
                                                                        52.5004
        43.2504
  -4177037.43448  -3231274.55946
                  21831395.0164                                   21831392.4924
                                                                        50.0004
        38.0004
   -250265.98447   -150831.84845
                  23472104.7424                                   23472101.5514
                                                                        45.5004
        33.2504
 -24676662.39848 -19154547.61746
                  21360520.6254                                   21360516.7384
                                                                        49.0004
        37.5004
  -6314007.69147  -4904777.26245
                  23069732.7504                                   23069729.7664
                                                                        44.0004
        31.5004
  -5568093.81247  -4293750.92245
                  22713177.2034                                   22713174.4694
                                                                        44.7504
        33.0004
  -8645258.44147  -6707652.94145
                  22657909.2974                                   22657904.1414
                                                                        47.0004
        30.5004
  -2928999.30147  -2258656.37944
                  24068835.8284                                   24068833.0664
                                                                        45.0004
        27.0004
   5929184.46147   4658984.00843
                  24029056.5474                                   24029053.0824
                                                                        42.0004
        22.2504
 09 10  2  0 52  0.0000000  0  9G02G04G05G13G29G10G23G30G25
 -20414247.28148 -15871760.59047
                  20546281.2814                                   20546276.0274
                                                                        52.0004
        43.0004
  -4190266.20348  -3241582.69546
                  21828878.1254                                   21828875.4734
                                                                        50.2504
        38.0004
   -449316.02047   -305935.71545
                  23434226.9534                                   23434223.6294
                                                                        46.5004
        33.5004
 -24782843.17248 -19237285.86346
                  21340314.9384                                   21340311.2384
                                                                        49.7504
        37.2504
  -6479273.23847  -5033555.60945
                  23038283.5314                                   23038280.8554
                                                                        45.2504
        32.0004
  -5762579.75047  -4445298.32845
                  22676167.6884                                   22676164.7234
                                                                        46.0004
        33.0004
  -8670706.51648  -6727482.61745
                  22653067.3204                                   22653061.2424
                                                                        48.5004
        31.7504
  -2930776.60247  -2260041.26244
                  24068497.4614                                   24068495.0274
                                                                        44.0004
        26.7504
   5753132.43047   4521800.64143
                  23995554.8914                                   23995551.8164
                                                                        42.5004
        22.5004
 09 10  2  0 52 30.0000000  0  9G02G04G05G13G29G10G23G30G25
 -20503130.71148 -15941020.41047
                  20529367.5704                                   20529362.3914
                                                                        51.0004
        43.2504
  -4203092.73848  -3251577.41046
                  21826437.2274                                   21826434.0004
                                                                        49.0004
        38.2504
   -648144.27047   -460866.71945
                  23396390.3204                                   23396388.3634
                                                                        45.7504
        33.0004
 -24888350.84848 -19319499.63746
                  21320237.4614                                   21320233.5594
                                                                        49.0004
        36.7504
  -6644088.84447  -5161983.33245
                  23006920.4454                                   23006917.9924
                                                                        44.7504
        32.5004
  -5956758.20747  -4596606.13745
                  22639216.8134                                   22639213.7814
                                                                        46.2504
        33.2504
  -8695653.87147  -6746922.10945
                  22648319.7424                                   22648314.0864
                                                                        47.0004
        31.0004
  -2932171.10946  -2261127.88344
                  24068231.7974                                   24068230.2194
                                                                        41.5004
        28.2504
   5577422.64147   4384883.91843
                  23962118.5004                                   23962115.3094
                                                                        42.5004
        22.5004
 09 10  2  0 53  0.0000000  0  9G02G04G05G13G29G10G23G30G25
 -20591425.87148 -16009821.83647
                  20512565.2664                                   20512559.9574
                                                                        52.0004
        43.2504
  -4215520.90648  -3261261.68046
                  21824072.0004                                   21824069.5084
                                                                        49.2504
        38.2504
   -846751.13747   -615625.28145
                  23358596.1094                                   23358594.2734
                                                                        45.0004
        33.0004
 -24993186.27348 -19401189.57846
                  21300288.1564                                   21300284.2974
                                                                        49.0004
        37.5004
  -6808453.80547  -5290059.91445
                  22975643.1024                                   22975640.3324
                                                                        45.0004
        33.0004
  -6150629.13747  -4747674.34045
                  22602324.9224                                   22602321.6884
                                                                        46.7504
        33.7504
  -8720103.58247  -6765973.80145
                  22643667.4694                                   22643661.3204
                                                                        47.7504
        30.7504
  -2933188.21946  -2261920.49244
                  24068037.9384                                   24068036.5784
                                                                        40.2504
        26.0004
   5402056.47346   4248234.96144
                  23928747.2734                                   23928744.4264
                                                                        41.7504
        25.2504
 09 10  2  0 53 30.0000000  0  9G02G04G05G13G29G10G23G30G25
 -20679130.34848 -16078162.98447
                  20495875.8674                                   20495870.6134
                                                                        51.7504
        43.0004
  -4227550.15248  -3270635.12946
                  21821783.1644                                   21821780.2584
                                                                        50.2504
        37.5004
  -1045131.97347   -770207.67645
                  23320846.4144                                   23320843.8244
                                                                        45.7504
        33.5004
 -25097346.60948 -19482353.47346
                  21280466.8284                                   21280463.1914
                                                                        48.7504
        37.2504
  -6972363.27747  -5417781.55145
                  22944452.1414                                   22944449.7114
                                                                        45.2504
        33.5004
  -6344187.77047  -4898499.21145
                  22565491.5634                                   22565488.7734
                                                                        46.7504
        34.7504
  -8744056.05147  -6784638.05545
                  22639109.2504                                   22639103.4414
                                                                        47.0004
        31.5004
  -2933828.40246  -2262419.38744
                  24067916.3134                                   24067914.9654
                                                                        40.5004
        25.7504
   5227038.76246   4111857.51644
                  23895441.9144                                   23895440.1094
                                                                        39.7504
        25.0004
 09 10  2  0 54  0.0000000  0  9G02G04G05G13G29G10G23G30G25
 -20766245.23048 -16146044.71547
                  20479298.3284                                   20479292.8594
                                                                        52.0004
        42.7504
  -4239183.53148  -3279700.11746
                  21819569.1804                                   21819566.6644
                                                                        49.7504
        38.0004
  -1243286.14547   -924613.47745
                  23283139.5394                                   23283136.1724
                                                                        47.5004
        34.2504
 -25200832.69548 -19562991.98046
                  21260774.2894                                   21260770.5004
                                                                        49.0004
        37.0004
  -7135816.50847  -5545147.68445
                  22913347.4614                                   22913346.0004
                                                                        45.7504
        34.2504
  -6537433.05547  -5049079.89845
                  22528718.1024                                   22528715.3524
                                                                        46.7504
        34.7504
  -8767514.63747  -6802917.47345
                  22634644.7584                                   22634639.5594
                                                                        47.0004
        30.7504
  -2934096.46546  -2262628.33244
                  24067865.3134                                   24067863.6564
                                                                        39.7504
        24.0004
   5052371.41846   3975753.19143
                  23862203.5554                                   23862202.1564
                                                                        38.7504
        22.5004
 09 10  2  0 54 30.0000000  0  9G02G04G05G13G29G10G23G30G25
 -20852771.71548 -16213467.95347
                  20462832.8524                                   20462827.4694
                                                                        52.2504
        43.0004
  -4250424.32448  -3288459.18446
                  21817430.0474                                   21817427.4924
                                                                        48.5004
        38.0004
  -1441212.64848  -1078841.84045
                  23245474.9924                                   23245471.8014
                                                                        48.5004
        33.7504
 -25303646.23448 -19643106.43046
                  21241209.3674                                   21241205.4964
                                                                        51.0004
        37.0004
  -7298812.25447  -5672157.29745
                  22882330.6334                                   22882328.4064
                                                                        46.0004
        34.7504
  -6730364.24247  -5199415.88345
                  22492004.0314                                   22492001.1094
                                                                        46.2504
        34.0004
  -8790483.12147  -6820815.01645
                  22630274.1884                                   22630268.8874
                                                                        47.0004
        30.7504
  -2933996.12547  -2262550.13343
                  24067884.8134                                   24067882.6684
                                                                        42.5004
        22.7504
   4878055.37146   3839922.57844
                  23829032.7034                                   23829030.4654
                                                                        39.7504
        25.2504
 09 10  2  0 55  0.0000000  0  9G02G04G05G13G29G10G23G30G25
 -20938707.53948 -16280430.91847
                  20446479.9384                                   20446474.6484
                                                                        52.2504
        42.5004
  -4261272.64848  -3296912.42246
                  21815365.7974                                   21815362.9804
                                                                        49.7504
        37.0004
  -1638907.82447  -1232890.02045
                  23207854.4064                                   23207851.9104
                                                                        47.7504
        34.0004
 -25405784.77048 -19722694.89146
                  21221773.0234                                   21221769.5474
                                                                        50.2504
        37.0004
  -7461346.44147  -5798807.25445
                  22851401.9064                                   22851398.8284
                                                                        45.5004
        34.5004
  -6922977.12947  -5349503.82045
                  22455351.5234                                   22455348.8794
                                                                        46.0004
        34.0004
  -8812961.47347  -6838330.61745
                  22625996.6414                                   22625991.2424
                                                                        46.0004
        31.7504
  -2933529.07047  -2262186.18443
                  24067973.4064                                   24067971.0084
                                                                        43.0004
        22.5004
   4704095.39147   3704369.35544
                  23795929.9774                                   23795927.3914
                                                                        42.0004
        25.2504
 09 10  2  0 55 30.0000000  0  9G02G04G05G13G29G10G23G30G25
 -21024053.61348 -16346934.35547
                  20430239.2114                                   20430233.4964
                                                                        52.2504
        43.0004
  -4271731.27048  -3305061.99646
                  21813375.7974                                   21813372.6484
                                                                        48.5004
        37.2504
  -1836370.46547  -1386756.94545
                  23170278.7034                                   23170275.5944
                                                                        47.0004
        34.0004
 -25507248.09048 -19801757.20746
                  21202465.1024                                   21202461.6454
                                                                        49.5004
        37.0004
  -7623417.80547  -5925096.60245
                  22820560.1414                                   22820557.8714
                                                                        45.5004
        33.2504
  -7115270.66847  -5499342.89545
                  22418759.5784                                   22418756.4024
                                                                        46.0004
        34.5004
  -8834952.92647  -6855466.82445
                  22621811.6484                                   22621806.2304
                                                                        46.5004
        31.0004
  -2932699.24647  -2261539.54743
                  24068131.5634                                   24068128.4534
                                                                        43.5004
        22.2504
   4530493.11346   3569094.89544
                  23762894.7424                                   23762891.7704
                                                                        41.5004
        26.0004
 09 10  2  0 56  0.0000000  0  9G02G04G05G13G29G10G23G30G25
 -21108810.61348 -16412978.75847
                  20414110.4454                                   20414104.3754
                                                                        52.5004
        42.7504
  -4281802.81248  -3312909.94546
                  21811459.2424                                   21811456.4304
                                                                        50.5004
        37.7504
  -2033599.53947  -1540441.83245
                  23132747.4064                                   23132744.3204
                                                                        46.7504
        33.5004
 -25608037.35548 -19880294.30546
                  21183285.7424                                   21183282.2584
                                                                        50.0004
        37.0004
  -7785025.00447  -6051024.29345
                  22789807.6484                                   22789804.5004
                                                                        45.5004
        33.5004
  -7307243.30147  -5648931.94145
                  22382228.1414                                   22382224.8134
                                                                        47.2504
        33.5004
  -8856460.37147  -6872225.86345
                  22617719.0944                                   22617713.5234
                                                                        46.0004
        30.2504
  -2931510.80147  -2260613.46543
                  24068358.0004                                   24068355.3874
                                                                        44.2504
        23.2504
   4357250.84047   3434100.92644
                  23729927.4454                                   23729924.2034
                                                                        42.5004
        24.2504
 09 10  2  0 56 30.0000000  0  9G02G04G05G13G29G10G23G30G25
 -21192977.70348 -16478563.48447
                  20398094.0164                                   20398088.5904
                                                                        52.0004
        43.0004
  -4291488.37148  -3320457.12546
                  21809615.8594                                   21809613.4924
                                                                        50.5004
        37.7504
  -2230591.96947  -1693942.35245
                  23095260.6884                                   23095257.8324
                                                                        47.0004
        34.0004
 -25708151.88348 -19958305.62146
                  21164234.3834                                   21164230.7234
                                                                        50.0004
        37.2504
  -7946164.53547  -6176587.56245
                  22759143.4694                                   22759140.7544
                                                                        45.7504
        34.0004
  -7498892.20347  -5798268.74645
                  22345758.6414                                   22345755.0784
                                                                        46.0004
        34.0004
  -8877485.73847  -6888609.23845
                  22613718.2034                                   22613712.5164
                                                                        46.7504
        30.5004
  -2929966.12147  -2259409.85244
                  24068651.5944                                   24068649.4414
                                                                        43.7504
        24.0004
   4184371.75846   3299389.97744
                  23697029.7584                                   23697026.6334
                                                                        41.5004
        25.0004
 09 10  2  0 57  0.0000000  0  9G02G04G05G13G29G10G23G30G25
 -21276554.74648 -16543688.45747
                  20382190.0084                                   20382184.5784
                                                                        52.5004
        42.7504
  -4300789.83648  -3327705.01646
                  21807845.8594                                   21807843.0394
                                                                        49.2504
        37.5004
  -2427345.81247  -1847257.00845
                  23057819.7424                                   23057817.0164
                                                                        46.5004
        34.2504
 -25807590.97348 -20035790.62146
                  21145311.6724                                   21145308.0594
                                                                        49.7504
        37.5004
  -8106834.17247  -6301784.67245
                  22728569.3204                                   22728566.2544
                                                                        45.7504
        34.0004
  -7690214.60947  -5947351.09445
                  22309350.7734                                   22309347.9454
                                                                        45.5004
        34.7504
  -8898030.73047  -6904618.31245
                  22609808.7114                                   22609802.9774
                                                                        47.0004
        30.5004
  -2928068.10947  -2257930.94144
                  24069012.6724                                   24069011.3134
                                                                        42.5004
        25.5004
   4011858.77346   3164964.28143
                  23664201.4454                                   23664198.0204
                                                                        41.7504
        22.5004
 09 10  2  0 57 30.0000000  0  9G02G04G05G13G29G10G23G30G25
 -21359542.02748 -16608353.90247
                  20366397.7344                                   20366392.4694
                                                                        52.0004
        43.0004
  -4309709.58648  -3334655.47746
                  21806148.3834                                   21806146.0664
                                                                        49.7504
        38.0004
  -2623859.26647  -2000384.37145
                  23020424.5314                                   23020421.1454
                                                                        47.5004
        34.0004
 -25906354.92248 -20112749.53546
                  21126517.6174                                   21126513.8054
                                                                        50.2504
        37.5004
  -8267032.09847  -6426614.20745
                  22698084.3524                                   22698081.2934
                                                                        45.0004
        33.2504
  -7881208.66847  -6096177.58245
                  22273005.4924                                   22273002.9844
                                                                        45.5004
        35.0004
  -8918098.46947  -6920255.48845
                  22605990.0004                                   22605983.7504
                                                                        46.5004
        30.5004
  -2925820.23047  -2256179.41443
                  24069440.2034                                   24069438.2974
                                                                        42.2504
        22.5004
   3839713.91846   3030825.43443
                  23631442.9844                                   23631440.4144
                                                                        40.5004
        21.5004
 09 10  2  0 58  0.0000000  0  9G02G04G05G13G29G10G23G30G25
 -21441939.46948 -16672559.73047
                  20350718.0004                                   20350712.6054
                                                                        52.2504
        43.2504
  -4318249.39548  -3341309.86746
                  21804523.1484                                   21804520.8404
                                                                        49.0004
        37.5004
  -2820130.16847  -2153322.69145
                  22983075.0864                                   22983071.7154
                                                                        47.2504
        34.2504
 -26004443.43048 -20189182.14146
                  21107852.1884                                   21107848.1564
                                                                        49.5004
        37.5004
  -8426755.82447  -6551074.23445
                  22667690.1804                                   22667687.1724
                                                                        46.0004
        33.7504
  -8071872.43747  -6244746.72745
                  22236724.0234                                   22236721.1844
                                                                        46.7504
        35.5004
  -8937690.74647  -6935522.19145
                  22602261.4924                                   22602255.8014
                                                                        45.7504
        30.0004
  -2923225.39547  -2254157.50043
                  24069934.4454                                   24069932.7384
                                                                        42.5004
        23.7504
   3667940.12546   2896975.76243
                  23598755.2974                                   23598753.1024
                                                                        41.7504
        22.7504
 09 10  2  0 58 30.0000000  0  9G02G04G05G13G29G10G23G30G25
 -21523744.32448 -16736303.79747
                  20335151.1884                                   20335145.9454
                                                                        52.0004
        43.0004
  -4326408.58248  -3347667.67646
                  21802970.7814                                   21802968.2074
                                                                        49.5004
        36.7504
  -3016153.95747  -2306068.46545
                  22945773.0704                                   22945769.8324
                                                                        47.2504
        34.0004
 -26101854.02748 -20265086.50446
                  21089315.5554                                   21089312.0044
                                                                        50.0004
        37.5004
  -8586000.52347  -6675161.02745
                  22637386.3524                                   22637383.8054
                                                                        46.0004
        33.0004
  -8262200.90247  -6393054.59045
                  22200505.5164                                   22200502.7504
                                                                        46.2504
        35.2504
  -8956807.53947  -6950418.38345
                  22598623.9534                                   22598617.9494
                                                                        45.0004
        30.7504
  -2920284.28947  -2251865.77744
                  24070493.6804                                   24070491.8754
                                                                        43.7504
        26.2504
   3496542.80546   2763419.45344
                  23566139.9774                                   23566137.4264
                                                                        41.7504
        24.5004
 09 10  2  0 59  0.0000000  0  8G02G04G05G13G29G10G23G25
 -21604956.38348 -16799585.89547
                  20319696.9844                                   20319691.8204
                                                                        51.5004
        43.5004
  -4334189.03548  -3353730.37546
                  21801490.2664                                   21801487.8134
                                                                        48.0004
        36.5004
  -3211928.48447  -2458620.00845
                  22908517.9694                                   22908515.2854
                                                                        46.7504
        34.0004
 -26198586.21148 -20340462.23046
                  21070907.9454                                   21070903.9184
                                                                        49.5004
        37.2504
  -8744764.35947  -6798873.09845
                  22607175.1884                                   22607172.0354
                                                                        46.0004
        34.0004
  -8452192.18447  -6541099.77745
                  22164351.3754                                   22164348.3594
                                                                        47.0004
        35.0004
  -8975451.01247  -6964945.77045
                  22595075.9384                                   22595070.5864
                                                                        44.5004
        30.0004
   3325524.56647   2630158.50844
                  23533596.6174                                   23533593.3874
                                                                        43.5004
        27.5004
 09 10  2  0 59 30.0000000  0  8G02G04G05G13G29G10G23G25
 -20110154.10548 -15634804.90247
                  20604148.2664                                   20604142.8324
                                                                        52.2504
        43.0004
  -2766173.14848  -2131899.80546
                  22099873.9304                                   22099870.9924
                                                                        48.5004
        37.5004
  -1832026.03547  -1383371.28945
                  23171104.9454                                   23171102.6294
                                                                        47.0004
        35.0004
 -24719217.25047 -19187707.20746
                  21352422.2424                                   21352418.6024
                                                                        47.7504
        36.5004
  -7327619.85547  -5694604.60545
                  22876848.5864                                   22876845.8984
                                                                        45.0004
        35.0004
  -7066418.30947  -5461275.91045
                  22428055.3984                                   22428052.3014
                                                                        46.2504
        35.0004
  -7418203.45747  -5751506.09844
                  22891410.1174                                   22891404.6054
                                                                        43.7504
        29.2504
   4730313.12547   3724799.00044
                  23800918.8284                                   23800916.0594
                                                                        44.2504
        27.2504
 09 10  2  1  0  0.0000000  0  8G02G04G05G13G29G10G23G25
 -20190174.09048 -15697158.13747
                  20588921.2194                                   20588915.7734
                                                                        52.7504
        43.0004
  -2773194.57048  -2137371.04746
                  22098537.6954                                   22098534.7974
                                                                        48.0004
        37.2504
  -2027288.84047  -1535524.05946
                  23133948.1644                                   23133945.0434
                                                                        47.5004
        36.2504
 -24814585.42648 -19262020.07446
                  21334274.6094                                   21334270.6024
                                                                        49.5004
        37.0004
  -7485407.52347  -5817556.03545
                  22846822.8204                                   22846820.2304
                                                                        45.0004
        34.7504
  -7255721.36747  -5608784.72345
                  22392032.1254                                   22392028.9344
                                                                        45.2504
        35.0004
  -7435900.21547  -5765295.78944
                  22888042.7584                                   22888037.1454
                                                                        44.2504
        29.2504
   4560068.22347   3592140.66444
                  23768522.0314                                   23768519.1724
                                                                        44.0004
        26.7504
 09 10  2  1  0 30.0000000  0  8G02G04G05G13G29G10G23G25
 -20269590.65248 -15759041.18747
                  20573808.4614                                   20573803.1484
                                                                        52.2504
        43.2504
  -2779832.39148  -2142543.37546
                  22097274.5784                                   22097271.4494
                                                                        49.5004
        37.2504
  -2222285.51647  -1687469.50046
                  23096841.1644                                   23096838.4924
                                                                        47.7504
        36.5004
 -24909263.93048 -19335795.53146
                  21316257.8524                                   21316253.9224
                                                                        49.0004
        37.0004
  -7642696.49247  -5940118.86745
                  22816891.4454                                   22816889.4384
                                                                        45.5004
        34.5004
  -7444669.65647  -5756017.14845
                  22356075.9534                                   22356072.9494
                                                                        47.0004
        35.0004
  -7453119.66047  -5778713.52745
                  22884765.8914                                   22884760.5354
                                                                        44.5004
        30.2504
   4390221.01247   3459792.21544
                  23736201.2034                                   23736198.2814
                                                                        42.5004
        25.5004
 09 10  2  1  1  0.0000000  0  8G02G04G05G13G29G10G23G25
 -20348408.92248 -15820458.01647
                  20558810.0704                                   20558804.8484
                                                                        52.2504
        43.5004
  -2786093.33648  -2147422.03546
                  22096083.3054                                   22096080.0164
                                                                        48.7504
        36.5004
  -2417018.78147  -1839209.67645
                  23059785.1484                                   23059781.2974
                                                                        47.5004
        34.7504
 -25003258.52348 -19409038.07446
                  21298371.0084                                   21298367.1094
                                                                        49.2504
        37.0004
  -7799489.67647  -6062295.35945
                  22787054.5394                                   22787052.0944
                                                                        46.7504
        35.0004
  -7633265.82447  -5902975.19145
                  22320187.9454                                   22320184.9924
                                                                        46.7504
        34.7504
  -7469869.06647  -5791765.01645
                  22881578.8364                                   22881572.9494
                                                                        45.2504
        30.5004
   4220769.20347   3327751.87144
                  23703955.8754                                   23703952.0084
                                                                        42.5004
        24.2504
 09 10  2  1  1 30.0000000  0  8G02G04G05G13G29G10G23G25
 -20426632.60548 -15881411.54347
                  20543924.5164                                   20543919.3134
                                                                        52.0004
        43.5004
  -2791982.75048  -2152011.16846
                  22094962.2424                                   22094959.6484
                                                                        49.5004
        36.5004
  -2611490.34047  -1990745.91445
                  23022777.5164                                   23022774.2464
                                                                        45.5004
        34.5004
 -25096572.42648 -19481750.21946
                  21280614.1024                                   21280610.6884
                                                                        50.0004
        36.7504
  -7955788.16847  -6184086.37945
                  22757312.0944                                   22757309.5664
                                                                        46.5004
        34.2504
  -7821511.07847  -6049659.77045
                  22284365.4534                                   22284362.5944
                                                                        47.5004
        34.7504
  -7486154.56647  -5804455.01244
                  22878479.5554                                   22878474.4224
                                                                        45.5004
        29.5004
   4051712.14846   3196019.08643
                  23671784.8284                                   23671781.9804
                                                                        41.2504
        22.5004
 09 10  2  1  2  0.0000000  0  8G02G04G05G13G29G10G23G25
 -20504266.10248 -15941905.18447
                  20529151.4694                                   20529145.9184
                                                                        52.2504
        43.2504
  -2797507.34848  -2156316.05946
                  22093910.9694                                   22093908.2304
                                                                        49.0004
        36.7504
  -2805702.53147  -2142080.06645
                  22985820.3444                                   22985817.0944
                                                                        46.7504
        33.7504
 -25189209.98048 -19553935.32846
                  21262985.5084                                   21262981.7704
                                                                        50.0004
        37.0004
  -8111594.50447  -6305493.92645
                  22727663.2664                                   22727660.9384
                                                                        47.0004
        34.5004
  -8009407.95747  -6196072.90246
                  22248610.2894                                   22248607.1644
                                                                        47.5004
        36.0004
  -7501982.99247  -5816788.84444
                  22875467.7274                                   22875461.6294
                                                                        47.0004
        29.7504
   3883047.71946   3064592.27043
                  23639689.4694                                   23639685.4144
                                                                        41.5004
        22.7504
 09 10  2  1  2 30.0000000  0  8G02G04G05G13G29G10G23G25
 -20581309.97748 -16001939.39147
                  20514490.5314                                   20514485.3554
                                                                        51.0004
        43.2504
  -2802669.32048  -2160338.36746
                  22092928.6804                                   22092926.1454
                                                                        49.7504
        36.7504
  -2999653.66447  -2293210.80545
                  22948912.3914                                   22948909.5204
                                                                        45.5004
        34.7504
 -25281171.39148 -19625593.55146
                  21245486.2504                                   21245482.6054
                                                                        50.2504
        37.2504
  -8266906.85247  -6426516.52045
                  22698108.1724                                   22698105.5704
                                                                        45.0004
        34.5004
  -8196954.55147  -6342213.09046
                  22212921.6094                                   22212918.5634
                                                                        47.0004
        36.2504
  -7517357.08647  -5828768.61344
                  22872541.9844                                   22872536.1844
                                                                        44.5004
        28.2504
   3714778.20347   2933473.19944
                  23607668.4844                                   23607665.7074
                                                                        42.5004
        26.0004
 09 10  2  1  3  0.0000000  0  8G02G04G05G13G29G10G23G25
 -20657767.16848 -16061516.42247
                  20499941.2274                                   20499935.9694
                                                                        51.5004
        43.2504
  -2807473.52348  -2164081.92246
                  22092014.8204                                   22092011.6094
                                                                        49.5004
        37.0004
  -3193344.68747  -2444138.82045
                  22912054.5704                                   22912051.6054
                                                                        46.2504
        35.7504
 -25372460.10248 -19696727.62146
                  21228114.7114                                   21228111.1054
                                                                        50.7504
        37.0004
  -8421725.98047  -6547154.81245
                  22668646.6484                                   22668644.3244
                                                                        47.0004
        34.5004
  -8384151.64147  -6488080.96546
                  22177299.0554                                   22177295.7274
                                                                        47.5004
        36.2504
  -7532281.82047  -5840398.28144
                  22869701.2504                                   22869696.1134
                                                                        43.0004
        28.0004
   3546903.54347   2802661.80944
                  23575723.2664                                   23575720.2464
                                                                        42.5004
        25.5004
 09 10  2  1  3 30.0000000  0  8G02G04G05G13G29G10G23G25
 -20733642.17248 -16120639.80147
                  20485502.4844                                   20485497.7734
                                                                        51.5004
        43.5004
  -2811926.06648  -2167551.45346
                  22091167.1724                                   22091164.5164
                                                                        50.0004
        36.0004
  -3386777.54747  -2594865.67246
                  22875245.7194                                   22875242.5864
                                                                        46.2504
        36.5004
 -25463080.52348 -19767340.94546
                  21210869.8134                                   21210866.0704
                                                                        50.7504
        37.0004
  -8576053.82047  -6667410.27345
                  22639279.7344                                   22639276.7934
                                                                        47.0004
        34.2504
  -8571000.96947  -6633677.82845
                  22141742.6564                                   22141739.4804
                                                                        47.7504
        35.5004
  -7546764.21147  -5851683.25444
                  22866946.3204                                   22866940.5904
                                                                        44.5004
        29.7504
   3379421.78147   2672156.56644
                  23543851.8914                                   23543849.5164
                                                                        42.5004
        27.0004
 09 10  2  1  4  0.0000000  0  8G02G04G05G13G29G10G23G25
 -20808930.35248 -16179305.93747
                  20471175.7734                                   20471170.4614
                                                                        51.2504
        43.0004
  -2816024.25848  -2170744.85945
                  22090387.3594                                   22090384.3484
                                                                        48.5004
        35.7504
  -3579945.96147  -2745386.49246
                  22838486.8524                                   22838483.7664
                                                                        46.2504
        36.7504
 -25553027.90248 -19837429.82446
                  21193753.4454                                   21193749.9344
                                                                        50.5004
        37.0004
  -8729883.74647  -6787277.77045
                  22610006.8444                                   22610003.8484
                                                                        47.5004
        34.7504
  -8757496.46947  -6778998.98845
                  22106253.7034                                   22106250.8324
                                                                        47.5004
        35.2504
  -7560801.64847  -5862621.50444
                  22864274.7504                                   22864269.3954
                                                                        45.5004
        28.5004
   3212340.30947   2541963.23044
                  23512058.2424                                   23512055.2154
                                                                        42.0004
        27.5004
 09 10  2  1  4 30.0000000  0  8G02G04G05G13G29G10G23G25
 -20883633.24248 -16237516.00847
                  20456960.4614                                   20456955.3364
                                                                        51.0004
        43.2504
  -2819771.50048  -2173664.80146
                  22089674.6094                                   22089671.7464
                                                                        49.2504
        36.5004
  -3772849.12547  -2895700.62145
                  22801778.3674                                   22801775.1094
                                                                        46.2504
        34.5004
 -25642303.91848 -19906995.55946
                  21176765.0554                                   21176761.0904
                                                                        51.0004
        36.5004
  -8883214.68047  -6906756.43445
                  22580828.4694                                   22580826.1024
                                                                        46.5004
        34.7504
  -8943636.82047  -6924043.38345
                  22070832.0004                                   22070829.0124
                                                                        46.2504
        35.5004
  -7574397.73447  -5873215.86744
                  22861687.2814                                   22861681.8914
                                                                        45.7504
        29.5004
   3045660.43046   2412082.81344
                  23480339.6564                                   23480336.8914
                                                                        41.5004
        27.5004
 09 10  2  1  5  0.0000000  0  8G02G04G05G13G29G10G23G25
 -20957750.85948 -16295270.00047
                  20442856.2734                                   20442851.2774
                                                                        52.0004
        42.7504
  -2823169.33248  -2176312.49646
                  22089027.5474                                   22089025.1764
                                                                        50.0004
        36.5004
  -3965484.50847  -3045806.10245
                  22765120.8204                                   22765117.5124
                                                                        46.2504
        35.2504
 -25730908.36748 -19976038.00046
                  21159903.8984                                   21159900.6804
                                                                        51.0004
        36.7504
  -9036044.68047  -7025844.73845
                  22551746.2274                                   22551743.9064
                                                                        46.0004
        35.0004
  -9129419.47747  -7068809.08245
                  22035478.8364                                   22035476.0204
                                                                        47.0004
        35.5004
  -7587555.11747  -5883468.37144
                  22859183.7974                                   22859178.0394
                                                                        45.7504
        28.2504
   2879384.85247   2282517.46144
                  23448698.9454                                   23448695.5744
                                                                        42.2504
        28.0004
 09 10  2  1  5 30.0000000  0  8G02G04G05G13G29G10G23G25
 -21031283.47348 -16352568.15647
                  20428863.4304                                   20428858.3674
                                                                        51.7504
        43.5004
  -2826219.68448  -2178689.40246
                  22088447.2734                                   22088444.6374
                                                                        48.7504
        36.0004
  -4157849.75047  -3195701.11345
                  22728515.1804                                   22728511.7704
                                                                        46.2504
        34.7504
 -25818841.05148 -20044556.98846
                  21143171.0864                                   21143167.6954
                                                                        51.2504
        36.5004
  -9188371.07447  -7144540.61745
                  22522759.2274                                   22522756.6174
                                                                        45.5004
        35.0004
  -9314842.19147  -7213294.31246
                  22000194.4694                                   22000191.1954
                                                                        47.2504
        36.2504
  -7600275.53147  -5893380.37944
                  22856763.3444                                   22856757.8204
                                                                        46.2504
        29.7504
   2713516.40646   2153269.35544
                  23417134.6954                                   23417131.5204
                                                                        41.5004
        25.5004
 09 10  2  1  6  0.0000000  0  8G02G04G05G13G29G10G23G25
 -21104230.83248 -16409410.26247
                  20414982.1724                                   20414976.9654
                                                                        52.0004
        43.5004
  -2828924.10548  -2180796.73846
                  22087932.8134                                   22087929.7544
                                                                        49.0004
        36.0004
  -4349942.67648  -3345383.88746
                  22691961.3914                                   22691957.9494
                                                                        48.7504
        36.0004
 -25906102.30948 -20112552.76646
                  21126565.6954                                   21126561.7194
                                                                        51.0004
        37.0004
  -9340192.30547  -7262842.84845
                  22493868.7584                                   22493866.4804
                                                                        46.7504
        35.2504
  -9499902.46547  -7357497.14146
                  21964978.7114                                   21964975.4494
                                                                        47.7504
        36.5004
  -7612561.51247  -5902953.86744
                  22854425.4304                                   22854419.7384
                                                                        46.0004
        29.0004
   2548057.87147   2024340.64844
                  23385648.8444                                   23385646.2384
                                                                        42.0004
        24.7504
 09 10  2  1  6 30.0000000  0  8G02G04G05G13G29G10G23G25
 -21176596.79348 -16465799.29747
                  20401211.0634                                   20401206.1954
                                                                        52.5004
        43.0004
  -2831288.87548  -2182639.41046
                  22087483.0084                                   22087480.3714
                                                                        49.0004
        36.2504
  -4541765.29348  -3494856.05146
                  22655458.6024                                   22655455.6954
                                                                        49.2504
        36.5004
 -25992696.25448 -20180028.55546
                  21110087.4924                                   21110083.6054
                                                                        50.5004
        37.2504
  -9491509.25047  -7380752.16045
                  22465074.1094                                   22465071.7034
                                                                        47.0004
        35.2504
  -9684601.94147  -7501418.82846
                  21929831.5864                                   21929828.6334
                                                                        47.7504
        36.5004
  -7624419.22747  -5912193.64844
                  22852168.8444                                   22852162.6994
                                                                        46.2504
        27.0004
   2383007.81646   1895730.26244
                  23354240.9304                                   23354237.8094
                                                                        40.7504
        25.0004
 09 10  2  1  7  0.0000000  0  8G02G04G05G13G29G10G23G25
 -21248377.82048 -16521732.55547
                  20387551.8444                                   20387546.3444
                                                                        52.5004
        43.0004
  -2833311.27748  -2184215.30945
                  22087097.6564                                   22087094.8284
                                                                        48.5004
        34.7504
  -4733311.32448  -3644112.69546
                  22619008.6644                                   22619005.6134
                                                                        49.2504
        36.5004
 -26078619.01248 -20246981.36746
                  21093736.8284                                   21093733.2734
                                                                        50.7504
        37.2504
  -9642316.07847  -7498263.95745
                  22436376.4924                                   22436374.4344
                                                                        47.2504
        35.5004
  -9868934.96548  -7645054.94546
                  21894754.2734                                   21894750.9224
                                                                        48.0004
        36.7504
  -7635846.67647  -5921098.16044
                  22849993.7664                                   22849988.1914
                                                                        45.7504
        27.5004
   2218372.98046   1767443.40244
                  23322912.0784                                   23322908.9924
                                                                        41.5004
        25.7504
 09 10  2  1  7 30.0000000  0  8G02G04G05G13G29G10G23G25
 -21319572.12948 -16577208.62547
                  20374003.7894                                   20373998.5864
                                                                        53.0004
        42.7504
  -2834991.47348  -2185524.55945
                  22086777.8914                                   22086774.9384
                                                                        48.7504
        35.2504
  -4924576.89548  -3793150.78546
                  22582611.5944                                   22582608.5164
                                                                        48.5004
        36.0004
 -26163868.82448 -20313409.79746
                  21077514.5474                                   21077511.0354
                                                                        51.2504
        37.0004
  -9792608.54747  -7615374.97745
                  22407776.6804                                   22407774.1564
                                                                        47.2504
        35.5004
 -10052897.05947  -7788402.03146
                  21859747.2424                                   21859744.2894
                                                                        47.5004
        36.0004
  -7646844.27047  -5929667.72344
                  22847901.3134                                   22847894.8674
                                                                        45.5004
        27.5004
   2054157.91447   1639483.61744
                  23291663.4144                                   23291659.7194
                                                                        42.2504
        25.7504
 09 10  2  1  8  0.0000000  0  8G02G04G05G13G29G10G23G25
 -19814761.40248 -15404628.82047
                  20660359.3284                                   20660354.3954
                                                                        52.5004
        43.0004
  -1260915.34447   -958971.71945
                  22386314.8284                                   22386312.2424
                                                                        47.7504
        35.5004
  -3540136.81648  -2714366.29346
                  22846061.7584                                   22846058.3714
                                                                        48.0004
        36.2504
 -24673026.98848 -19151714.85546
                  21361212.3364                                   21361208.3594
                                                                        51.2504
        36.5004
  -8366963.26647  -6504482.54345
                  22679067.8444                                   22679065.3554
                                                                        47.2504
        35.2504
  -8661063.34447  -6703856.27346
                  22124604.3674                                   22124601.1214
                                                                        47.7504
        36.2504
  -6081998.46947  -4710307.36744
                  23145681.8054                                   23145675.6094
                                                                        45.7504
        27.0004
   3465786.77747   2739454.17244
                  23560286.9614                                   23560283.9414
                                                                        42.5004
        26.0004
 09 10  2  1  8 30.0000000  0  8G02G04G05G13G29G10G23G25
 -19884788.40248 -15459195.31247
                  20647034.0944                                   20647028.9844
                                                                        52.5004
        42.7504
  -1261922.07848   -959756.18746
                  22386123.2664                                   22386120.8914
                                                                        48.2504
        36.0004
  -3730839.95348  -2862966.14846
                  22809772.6884                                   22809769.2894
                                                                        48.0004
        36.5004
 -24756937.25048 -19217099.47746
                  21345244.9304                                   21345241.1604
                                                                        51.0004
        37.5004
  -8516226.44148  -6620791.50445
                  22650664.3674                                   22650661.6764
                                                                        48.0004
        35.5004
  -8844281.65248  -6846623.78146
                  22089739.0704                                   22089735.6294
                                                                        48.2504
        36.2504
  -6092149.67647  -4718217.38744
                  23143749.8054                                   23143744.2274
                                                                        46.2504
        28.5004
   3302413.78147   2612150.56344
                  23529198.3914                                   23529195.2114
                                                                        43.0004
        27.0004
 09 10  2  1  9  0.0000000  0  8G02G04G05G13G29G10G23G25
 -19954232.55948 -15513307.64147
                  20633819.4694                                   20633814.1054
                                                                        52.2504
        42.2504
  -1262595.80148   -960281.18446
                  22385995.1484                                   22385992.5474
                                                                        48.5004
        36.0004
  -3921259.03148  -3011344.62946
                  22773536.9534                                   22773533.5744
                                                                        48.2504
        36.2504
 -24840178.59448 -19281962.86346
                  21329404.1954                                   21329400.6134
                                                                        50.7504
        37.2504
  -8664971.99247  -6736697.11745
                  22622358.7974                                   22622356.0124
                                                                        47.5004
        35.0004
  -9027125.22748  -6989099.30146
                  22054945.0084                                   22054941.4064
                                                                        48.5004
        36.2504
  -6101881.42247  -4725800.56244
                  23141898.2344                                   23141892.4884
                                                                        46.0004
        28.7504
   3139464.96947   2485177.46944
                  23498190.3754                                   23498187.1134
                                                                        42.5004
        28.0004
 09 10  2  1  9 30.0000000  0  8G02G04G05G13G29G10G23G25
 -20023097.31648 -15566968.49247
                  20620714.8444                                   20620709.4024
                                                                        52.5004
        42.5004
  -1262941.20348   -960550.36746
                  22385929.4694                                   22385926.6914
                                                                        49.0004
        36.0004
  -4111395.30547  -3159502.78146
                  22737355.0634                                   22737352.1564
                                                                        47.5004
        37.0004
 -24922754.57448 -19346307.77746
                  21313690.6804                                   21313686.9614
                                                                        51.5004
        37.5004
  -8813201.30547  -6852200.45745
                  22594151.8674                                   22594148.9884
                                                                        47.5004
        35.7504
  -9209594.99648  -7131283.54746
                  22020222.3984                                   22020219.0744
                                                                        49.2504
        36.5004
  -6111199.15647  -4733061.14544
                  23140124.8754                                   23140119.6804
                                                                        45.2504
        28.5004
   2976939.94547   2358534.62944
                  23467262.7274                                   23467259.4414
                                                                        42.5004
        27.2504
 09 10  2  1 10  0.0000000  0  8G02G04G05G13G29G10G23G25
 -20091383.02748 -15620178.11347
                  20607720.5234                                   20607715.1254
                                                                        52.5004
        42.2504
  -1262960.06647   -960565.07045
                  22385925.8204                                   22385922.9454
                                                                        47.5004
        35.2504
  -4301246.53948  -3307438.80946
                  22701227.9844                                   22701224.3484
                                                                        48.0004
        37.0004
 -25004665.85948 -19410134.76646
                  21298103.2894                                   21298099.7274
                                                                        51.5004
        37.0004
  -8960912.35247  -6967299.96945
                  22566043.5474                                   22566040.6174
                                                                        46.7504
        35.5004
  -9391689.05148  -7273175.00846
                  21985570.7504                                   21985567.9734
                                                                        49.0004
        37.0004
  -6120105.50447  -4740001.15244
                  23138429.7504                                   23138424.6724
                                                                        45.0004
        28.5004
   2814841.18847   2232223.94144
                  23436416.1174                                   23436413.3874
                                                                        42.2504
        26.7504
 09 10  2  1 10 30.0000000  0  8G02G04G05G13G29G10G23G25
 -20159086.58248 -15672934.13747
                  20594836.6414                                   20594831.5394
                                                                        52.0004
        42.5004
  -1262651.26248   -960324.45346
                  22385984.8054                                   22385981.8554
                                                                        48.0004
        36.2504
  -4490807.09847  -3455148.31246
                  22665155.2974                                   22665152.1484
                                                                        47.5004
        36.7504
 -25085909.16848 -19473441.23446
                  21282643.2034                                   21282639.7974
                                                                        51.5004
        37.5004
  -9108099.51247  -7081991.25845
                  22538034.8204                                   22538031.5904
                                                                        47.7504
        35.5004
  -9573401.82448  -7414769.37146
                  21950992.3054                                   21950989.1764
                                                                        49.0004
        37.0004
  -6128599.35547  -4746619.75044
                  23136813.6724                                   23136808.8364
                                                                        44.7504
        28.0004
   2653174.56346   2106249.98444
                  23405651.7584                                   23405649.0314
                                                                        41.5004
        26.2504
 09 10  2  1 11  0.0000000  0  8G02G04G05G13G29G10G23G25
 -20226208.45348 -15725236.88747
                  20582064.2894                                   20582058.7934
                                                                        51.5004
        42.7504
  -1262016.67248   -959830.00045
                  22386105.5864                                   22386102.8134
                                                                        48.2504
        35.0004
  -4680075.71947  -3602630.35246
                  22629139.4224                                   22629135.9384
                                                                        47.2504
        37.0004
 -25166485.27348 -19536227.81246
                  21267310.2424                                   21267306.5514
                                                                        51.2504
        36.5004
  -9254761.50047  -7196273.32845
                  22510125.7894                                   22510122.8594
                                                                        47.7504
        35.5004
  -9754731.12948  -7556064.92246
                  21916485.8834                                   21916482.9414
                                                                        48.7504
        37.0004
  -6136683.12547  -4752918.81644
                  23135275.6724                                   23135270.2074
                                                                        44.0004
        27.0004
   2491942.69947   1980614.81344
                  23374970.3914                                   23374967.1764
                                                                        42.2504
        25.5004
 09 10  2  1 11 30.0000000  0  8G02G04G05G13G29G10G23G25
 -20292748.97348 -15777086.63347
                  20569401.9534                                   20569396.5394
                                                                        51.7504
        42.7504
  -1261058.07447   -959083.04745
                  22386287.7114                                   22386284.9384
                                                                        47.2504
        34.7504
  -4869049.46547  -3749882.60546
                  22593178.6644                                   22593175.1764
                                                                        47.5004
        37.2504
 -25246393.91048 -19598494.28946
                  21252104.2114                                   21252100.5204
                                                                        51.0004
        36.7504
  -9400895.16447  -7310143.72345
                  22482317.4384                                   22482314.7424
                                                                        47.7504
        35.7504
  -9935674.57448  -7697059.79346
                  21882053.6804                                   21882051.1334
                                                                        48.5004
        37.0004
  -6144359.47347  -4758900.38744
                  23133814.5704                                   23133808.9774
                                                                        44.5004
        27.5004
   2331147.80147   1855320.10944
                  23344372.3914                                   23344369.0904
                                                                        43.7504
        27.7504
 09 10  2  1 12  0.0000000  0  8G02G04G05G13G29G10G23G25
 -20358707.31648 -15828482.75047
                  20556850.5004                                   20556844.9734
                                                                        52.2504
        42.7504
  -1259776.26248   -958084.20745
                  22386531.5164                                   22386528.9774
                                                                        48.0004
        34.7504
  -5057725.43747  -3896902.84446
                  22557274.4694                                   22557271.3014
                                                                        47.0004
        37.0004
 -25325634.74648 -19660240.39146
                  21237024.8984                                   21237021.3324
                                                                        50.7504
        36.7504
  -9546498.01648  -7423600.49245
                  22454609.9774                                   22454607.3094
                                                                        48.5004
        35.7504
 -10116229.07048  -7837751.59846
                  21847695.2344                                   21847692.7704
                                                                        49.0004
        37.2504
  -6151629.09847  -4764565.02344
                  23132431.4064                                   23132425.7344
                                                                        43.5004
        28.0004
   2170794.02047   1730369.14144
                  23313857.8594                                   23313854.6524
                                                                        44.7504
        28.5004
 09 10  2  1 12 30.0000000  0  8G02G04G05G13G29G10G23G25
 -20424083.83248 -15879425.48847
                  20544409.5164                                   20544404.4144
                                                                        52.0004
        43.0004
  -1258173.31248   -956835.15645
                  22386836.9064                                   22386834.1024
                                                                        48.0004
        34.7504
  -5246101.26247  -4043689.16846
                  22521427.5394                                   22521424.3754
                                                                        47.7504
        37.0004
 -25404208.54348 -19721466.73046
                  21222073.0314                                   21222069.3634
                                                                        50.2504
        37.0004
  -9691567.52747  -7536641.66446
                  22427004.2974                                   22427001.8794
                                                                        47.7504
        36.5004
 -10296391.87948  -7978138.19146
                  21813411.4224                                   21813408.5664
                                                                        50.0004
        37.0004
  -6158494.80947  -4769914.92244
                  23131124.6884                                   23131118.9024
                                                                        43.7504
        26.5004
   2010883.28547   1605763.38344
                  23283428.4304                                   23283424.9494
                                                                        44.5004
        27.5004
 09 10  2  1 13  0.0000000  0  8G02G04G05G13G29G10G23G25
 -20488877.77348 -15929914.26647
                  20532079.8984                                   20532074.6604
                                                                        52.2504
        42.5004
  -1256249.57048   -955336.15245
                  22387202.8914                                   22387200.0044
                                                                        48.7504
        35.5004
  -5434173.63747  -4190239.05946
                  22485638.6254                                   22485635.3794
                                                                        47.7504
        37.0004
 -25482114.35948 -19782172.55946
                  21207247.9694                                   21207244.0944
                                                                        50.7504
        37.0004
  -9836100.81248  -7649264.99246
                  22399500.5314                                   22399497.7894
                                                                        48.7504
        36.5004
 -10476159.87948  -8118217.15246
                  21779203.0704                                   21779199.4184
                                                                        49.0004
        36.5004
  -6164957.57447  -4774950.82844
                  23129895.1024                                   23129889.8404
                                                                        44.0004
        27.7504
   1851419.75047   1481506.10544
                  23253082.9454                                   23253079.7114
                                                                        44.5004
        27.2504
 09 10  2  1 13 30.0000000  0  8G02G04G05G13G29G10G23G25
 -20553092.52348 -15979951.72347
                  20519860.1804                                   20519854.7934
                                                                        51.7504
        43.0004
  -1254010.20348   -953591.17645
                  22387629.1564                                   22387626.4304
                                                                        49.2504
        35.5004
  -5621943.42648  -4336553.16446
                  22449907.3444                                   22449904.2664
                                                                        48.5004
        38.0004
 -25559355.96148 -19842360.82446
                  21192549.6334                                   21192545.7194
                                                                        51.0004
        36.5004
  -9980099.14548  -7761471.48046
                  22372098.2274                                   22372096.1334
                                                                        49.0004
        36.2504
 -10655533.83248  -8257989.05946
                  21745069.1484                                   21745066.0514
                                                                        49.5004
        37.0004
  -6171023.09447  -4779677.19544
                  23128740.9064                                   23128735.3444
                                                                        43.5004
        26.7504
   1692402.67647   1357596.70344
                  23222822.9924                                   23222819.4184
                                                                        44.5004
        26.7504
 09 10  2  1 14  0.0000000  0  8G02G04G05G13G29G10G23G25
 -20616728.95348 -16029538.54747
                  20507750.2734                                   20507745.1994
                                                                        51.7504
        42.5004
  -1251457.53548   -951602.08245
                  22388114.4534                                   22388111.6174
                                                                        48.7504
        35.0004
  -5809409.17248  -4482630.36746
                  22414234.0634                                   22414230.7274
                                                                        49.5004
        37.5004
 -25635934.03548 -19902032.05146
                  21177977.2814                                   21177973.5664
                                                                        51.7504
        37.2504
 -10123560.64148  -7873259.65245
                  22344798.6414                                   22344796.4534
                                                                        48.7504
        35.2504
 -10834512.21148  -8397452.72346
                  21711010.7274                                   21711007.5394
                                                                        49.0004
        37.2504
  -6176693.83647  -4784095.92644
                  23127661.9224                                   23127656.0354
                                                                        42.7504
        26.5004
   1533834.25047   1234036.91444
                  23192647.8054                                   23192645.1094
                                                                        43.7504
        26.2504
 09 10  2  1 14 30.0000000  0  8G02G04G05G13G29G10G23G25
 -20679785.28548 -16078673.34447
                  20495751.1254                                   20495745.8134
                                                                        51.7504
        42.5004
  -1248591.48848   -949368.80545
                  22388660.0784                                   22388657.2624
                                                                        48.0004
        34.2504
  -5996566.42648  -4628467.21146
                  22378618.7114                                   22378615.2934
                                                                        48.5004
        37.5004
 -25711847.33648 -19961185.27046
                  21163531.4694                                   21163527.8714
                                                                        51.0004
        36.7504
 -10266481.22348  -7984626.32046
                  22317601.3914                                   22317598.9844
                                                                        49.0004
        36.0004
 -11013090.19548  -8536604.39146
                  21677028.3284                                   21677025.4494
                                                                        49.2504
        37.5004
  -6181970.56647  -4788207.64844
                  23126657.2344                                   23126651.8554
                                                                        42.7504
        26.7504
   1375718.73447   1110830.03144
                  23162559.5164                                   23162556.2424
                                                                        43.2504
        25.2504
 09 10  2  1 15  0.0000000  0  8G02G04G05G13G29G10G23G25
 -20742264.88748 -16127358.73447
                  20483861.7274                                   20483856.5434
                                                                        52.0004
        42.2504
  -1245416.80948   -946895.02745
                  22389264.2734                                   22389261.7934
                                                                        48.5004
        34.0004
  -6183416.51648  -4774064.69546
                  22343062.3754                                   22343059.2934
                                                                        48.0004
        37.0004
 -25787098.93748 -20019822.89546
                  21149211.3134                                   21149207.3204
                                                                        50.7504
        36.7504
 -10408862.41848  -8095572.69146
                  22290507.5084                                   22290504.6524
                                                                        49.0004
        36.2504
 -11191269.40648  -8675445.31246
                  21643122.2194                                   21643119.1524
                                                                        49.0004
        38.0004
  -6186858.21947  -4792016.22344
                  23125726.9144                                   23125721.6994
                                                                        42.0004
        27.5004
   1218055.96947    987975.94144
                  23132557.0234                                   23132554.5634
                                                                        43.0004
        25.2504
 09 10  2  1 15 30.0000000  0  8G02G04G05G13G29G10G23G25
 -20804170.69948 -16175597.03947
                  20472081.4924                                   20472076.1804
                                                                        51.7504
        42.0004
  -1241937.66448   -944184.03145
                  22389926.6414                                   22389923.7664
                                                                        49.0004
        34.7504
  -6369958.88748  -4919422.40646
                  22307565.0634                                   22307561.6884
                                                                        49.5004
        37.0004
 -25861692.29348 -20077947.59046
                  21135017.2344                                   21135012.9184
                                                                        51.2504
        37.2504
 -10550703.88748  -8206098.49646
                  22263516.1024                                   22263513.4614
                                                                        49.0004
        36.5004
 -11369049.40248  -8813975.15646
                  21609291.2734                                   21609288.8794
                                                                        50.0004
        38.0004
  -6191361.34447  -4795525.16444
                  23124870.5864                                   23124865.0234
                                                                        43.0004
        27.5004
   1060845.88347    865474.58644
                  23102641.5164                                   23102638.5434
                                                                        43.0004
        26.7504
 09 10  2  1 16  0.0000000  0  8G02G04G05G13G29G10G23G25
 -20865500.77048 -16223386.70747
                  20460410.8284                                   20460405.7034
                                                                        52.0004
        42.7504
  -1238153.17648   -941235.04745
                  22390646.4924                                   22390643.5704
                                                                        48.7504
        34.5004
  -6556189.15648  -5064536.93046
                  22272126.7194                                   22272123.1994
                                                                        49.5004
        38.2504
 -25935625.34048 -20135557.76246
                  21120948.1174                                   21120944.1454
                                                                        51.0004
        36.2504
 -10692001.79348  -8316200.75046
                  22236628.0004                                   22236625.2194
                                                                        49.0004
        36.0004
 -11546425.88348  -8952190.57846
                  21575538.0704                                   21575535.1054
                                                                        49.7504
        37.5004
  -6195480.35547  -4798734.79344
                  23124087.0634                                   23124081.2894
                                                                        42.7504
        27.2504
    904093.55147    743329.94144
                  23072812.3524                                   23072809.5234
                                                                        43.2504
        26.7504
 09 10  2  1 16 30.0000000  0  8G02G04G05G13G29G10G23G25
 -19350832.96548 -15043126.08247
                  20748642.2734                                   20748636.9414
                                                                        51.7504
        42.2504
    341354.80148    289550.34845
                  22691216.8284                                   22691214.0354
                                                                        49.0004
        34.5004
  -5166678.61748  -3981801.41446
                  22536541.1884                                   22536538.4454
                                                                        49.5004
        38.0004
 -24433475.67248 -18965051.53946
                  21406797.3674                                   21406793.7774
                                                                        50.2504
        37.0004
  -9257328.60948  -7198273.58246
                  22509636.9614                                   22509634.4344
                                                                        49.2504
        36.2504
 -10147969.94148  -7862484.66446
                  21841655.5164                                   21841652.3524
                                                                        49.2504
        37.5004
  -4623796.78147  -3574046.32844
                  23423168.4774                                   23423162.4184
                                                                        43.2504
        27.0004
   2323227.09447   1849148.32044
                  23342864.5944                                   23342861.7424
                                                                        45.0004
        28.7504
 09 10  2  1 17  0.0000000  0  9G02G04G05G13G29G10G23G16G25
 -19411014.71548 -15090020.95747
                  20737190.0864                                   20737184.8054
                                                                        51.7504
        42.5004
    345741.77348    292968.73845
                  22692051.2734                                   22692048.7384
                                                                        48.7504
        34.0004
  -5352280.80148  -4126426.54346
                  22501222.7664                                   22501219.5984
                                                                        49.5004
        38.5004
 -24506091.69548 -19021635.45346
                  21392978.5944                                   21392975.4574
                                                                        50.7504
        36.7504
  -9397535.16448  -7307525.43046
                  22482956.7974                                   22482954.0634
                                                                        49.5004
        36.0004
 -10324534.34048  -8000067.31246
                  21808056.1024                                   21808053.4304
                                                                        49.0004
        37.5004
  -4627156.06647  -3576663.96944
                  23422528.8754                                   23422523.3634
                                                                        43.5004
        27.2504
  13913652.85257  10876311.80554
                  24470935.3524                                   24470931.4804
                                                                        42.5004
        25.5004
   2167395.64547   1727721.24244
                  23313211.4304                                   23313208.4804
                                                                        45.0004
        29.0004
 09 10  2  1 17 30.0000000  0  9G02G04G05G13G29G10G23G16G25
 -19470630.50848 -15136474.80947
                  20725845.5554                                   20725840.7114
                                                                        51.0004
        42.2504
    350419.34048    296613.53545
                  22692941.7274                                   22692939.1844
                                                                        48.0004
        33.0004
  -5537572.44548  -4270809.62146
                  22465962.3834                                   22465959.1724
                                                                        49.0004
        38.0004
 -24578058.30948 -19077713.32446
                  21379284.1254                                   21379280.1764
                                                                        51.5004
        36.2504
  -9537200.20348  -7416355.32446
                  22456378.8754                                   22456376.3874
                                                                        49.2504
        36.2504
 -10500696.50448  -8137336.55546
                  21774533.6254                                   21774530.9304
                                                                        48.5004
        38.0004
  -4630147.14547  -3578994.69144
                  23421959.7034                                   23421954.0274
                                                                        44.2504
        25.5004
  13752575.18846  10750796.75044
                  24440283.4064                                   24440279.9304
                                                                        41.7504
        24.2504
   2012020.35247   1606649.59444
                  23283644.2504                                   23283641.5904
                                                                        45.2504
        29.0004
 09 10  2  1 18  0.0000000  0  9G02G04G05G13G29G10G23G16G25
 -19529685.72348 -15182491.86747
                  20714607.9694                                   20714602.6414
                                                                        51.0004
        42.5004
    355381.44148    300480.02045
                  22693886.3364                                   22693883.4224
                                                                        48.5004
        33.5004
  -5722556.71948  -4414953.20746
                  22430761.6024                                   22430758.6414
                                                                        49.2504
        37.5004
 -24649380.27748 -19133288.88346
                  21365712.1094                                   21365708.5984
                                                                        51.0004
        36.2504
  -9676326.66048  -7524765.54346
                  22429904.3914                                   22429901.2734
                                                                        50.0004
        36.5004
 -10676459.52748  -8274294.73846
                  21741086.5234                                   21741084.0204
                                                                        49.0004
        37.7504
  -4632776.11347  -3581043.21544
                  23421459.4694                                   23421453.8524
                                                                        42.5004
        26.0004
  13591950.85546  10625634.98043
                  24409716.6414                                   24409714.0004
                                                                        39.7504
        21.2504
   1857099.55947   1485932.12144
                  23254163.5554                                   23254160.3094
                                                                        45.0004
        28.0004
 09 10  2  1 18 30.0000000  0  9G02G04G05G13G29G10G23G16G25
 -19588171.54748 -15228065.25047
                  20703478.2974                                   20703473.0474
                                                                        50.5004
        42.0004
    360635.49247    304574.00045
                  22694885.9454                                   22694883.2424
                                                                        46.7504
        33.2504
  -5907221.85248  -4558848.09446
                  22395620.6254                                   22395617.4184
                                                                        49.7504
        38.0004
 -24720048.88348 -19188355.32446
                  21352264.1954                                   21352260.5664
                                                                        51.0004
        36.2504
  -9814903.75048  -7632747.69146
                  22403534.1094                                   22403531.2624
                                                                        49.5004
        36.5004
 -10851811.59847  -8410932.72746
                  21707718.6254                                   21707715.6524
                                                                        47.7504
        37.2504
  -4635036.44947  -3582804.51644
                  23421029.5084                                   23421023.4064
                                                                        42.5004
        24.5004
  13431791.44146  10500835.48843
                  24379238.9694                                   24379236.2154
                                                                        38.5004
        20.2504
   1702644.82847   1365577.80544
                  23224771.9614                                   23224768.4654
                                                                        44.5004
        26.5004
 09 10  2  1 19  0.0000000  0  9G02G04G05G13G29G10G23G16G25
 -19646090.34048 -15273196.78547
                  20692456.8914                                   20692451.5824
                                                                        51.0004
        42.5004
    366177.64847    308892.57445
                  22695940.7034                                   22695937.8134
                                                                        47.7504
        33.5004
  -6091567.81648  -4702494.30146
                  22360541.0704                                   22360537.7384
                                                                        50.0004
        38.0004
 -24790067.50048 -19242915.27746
                  21338940.1174                                   21338936.4144
                                                                        50.5004
        36.7504
  -9952931.61348  -7740301.87546
                  22377268.0234                                   22377265.4574
                                                                        49.0004
        36.7504
 -11026752.86748  -8547250.60946
                  21674428.1414                                   21674425.2544
                                                                        48.7504
        38.5004
  -4636932.67247  -3584282.09844
                  23420668.6484                                   23420663.2274
                                                                        42.5004
        26.0004
  13272097.32846  10376398.52042
                  24348850.8524                                   24348847.2894
                                                                        39.5004
        17.7504
   1548656.43047   1245586.86344
                  23195469.0944                                   23195465.3324
                                                                        43.7504
        24.2504
 09 10  2  1 19 30.0000000  0  9G02G04G05G13G29G10G23G16G25
 -19703438.63348 -15317883.76647
                  20681544.0944                                   20681538.7704
                                                                        51.0004
        42.0004
    372009.88347    313437.14845
                  22697050.6024                                   22697048.1174
                                                                        47.5004
        33.5004
  -6275588.70748  -4845887.20346
                  22325523.0314                                   22325520.0864
                                                                        50.5004
        38.5004
 -24859432.54348 -19296965.95346
                  21325740.5314                                   21325737.0744
                                                                        51.0004
        36.0004
 -10090404.15248  -7847423.32446
                  22351108.0004                                   22351105.5204
                                                                        48.5004
        37.0004
 -11201276.84048  -8683243.30946
                  21641217.2424                                   21641214.5234
                                                                        48.7504
        38.2504
  -4638462.94147  -3585474.52044
                  23420377.4144                                   23420371.7774
                                                                        42.7504
        26.2504
  13112875.56346  10252329.66443
                  24318551.4614                                   24318547.8754
                                                                        39.7504
        18.2504
   1395140.58647   1125964.11344
                  23166255.5084                                   23166251.6454
                                                                        43.7504
        26.2504
 09 10  2  1 20  0.0000000  0  9G02G04G05G13G29G10G23G16G25
 -19760216.02048 -15362125.89547
                  20670739.5864                                   20670734.3594
                                                                        51.5004
        42.5004
    378131.48847    318207.01245
                  22698215.8134                                   22698212.6214
                                                                        46.0004
        34.0004
  -6459280.99648  -4989024.07846
                  22290567.3364                                   22290564.5274
                                                                        50.0004
        39.0004
 -24928143.58648 -19350507.03946
                  21312665.2194                                   21312661.5204
                                                                        51.2504
        36.7504
 -10227318.62148  -7954109.93046
                  22325053.8984                                   22325051.5704
                                                                        48.7504
        36.7504
 -11375380.25048  -8818908.29746
                  21608086.7664                                   21608083.6604
                                                                        49.5004
        38.5004
  -4639628.58247  -3586382.84044
                  23420155.7034                                   23420150.5434
                                                                        44.5004
        28.2504
  12954129.81946  10128631.64742
                  24288343.8054                                   24288339.5124
                                                                        41.5004
        17.2504
   1242101.44547   1006712.84844
                  23137132.6884                                   23137129.6684
                                                                        43.0004
        26.5004
 09 10  2  1 20 30.0000000  0  9G02G04G05G13G29G10G23G16G25
 -19816422.30148 -15405922.96947
                  20660044.1564                                   20660038.4414
                                                                        51.0004
        42.2504
    384541.26247    323201.57045
                  22699435.1644                                   22699433.0824
                                                                        47.0004
        33.0004
  -6642641.59048  -5131902.48446
                  22255674.9844                                   22255672.1844
                                                                        49.5004
        38.5004
 -24996200.94948 -19403538.75046
                  21299714.2894                                   21299710.4144
                                                                        51.2504
        36.0004
 -10363671.65648  -8060359.04346
                  22299107.1804                                   22299104.4884
                                                                        49.7504
        37.0004
 -11549059.69148  -8954242.91846
                  21575036.9774                                   21575033.6484
                                                                        49.5004
        38.0004
  -4640431.41047  -3587008.41844
                  23420002.9454                                   23419997.7234
                                                                        43.5004
        27.0004
  12795863.44546  10005307.21543
                  24258226.6414                                   24258222.5704
                                                                        41.5004
        19.5004
   1089541.30547    887834.83644
                  23108101.5164                                   23108098.4104
                                                                        42.5004
        24.7504
